%time,field.header.seq,field.header.stamp,field.header.frame_id,field.pose.pose.position.x,field.pose.pose.position.y,field.pose.pose.position.z,field.pose.pose.orientation.x,field.pose.pose.orientation.y,field.pose.pose.orientation.z,field.pose.pose.orientation.w,field.pose.covariance0,field.pose.covariance1,field.pose.covariance2,field.pose.covariance3,field.pose.covariance4,field.pose.covariance5,field.pose.covariance6,field.pose.covariance7,field.pose.covariance8,field.pose.covariance9,field.pose.covariance10,field.pose.covariance11,field.pose.covariance12,field.pose.covariance13,field.pose.covariance14,field.pose.covariance15,field.pose.covariance16,field.pose.covariance17,field.pose.covariance18,field.pose.covariance19,field.pose.covariance20,field.pose.covariance21,field.pose.covariance22,field.pose.covariance23,field.pose.covariance24,field.pose.covariance25,field.pose.covariance26,field.pose.covariance27,field.pose.covariance28,field.pose.covariance29,field.pose.covariance30,field.pose.covariance31,field.pose.covariance32,field.pose.covariance33,field.pose.covariance34,field.pose.covariance35
1756813460378266000,0,1756813460378266000,map,10.9119136422,11.101277348,0.0,0.0,0.0,0.761611450648,0.648033948371,0.247658505791,0.000359969453044,0.0,0.0,0.0,0.0,0.000359969453044,0.242900989266,0.0,0.0,0.0,0.0,0.0,0.0,0.0,0.0,0.0,0.0,0.0,0.0,0.0,0.0,0.0,0.0,0.0,0.0,0.0,0.0,0.0,0.0,0.0,0.0,0.0,0.0,0.0,0.0671656724325
1756813461112223000,1,1756813461112223000,map,10.9635278903,10.7142714972,0.0,0.0,0.0,0.754492366926,0.656308820793,0.178058083801,-0.0164756420714,0.0,0.0,0.0,0.0,-0.0164756420714,0.239310408149,0.0,0.0,0.0,0.0,0.0,0.0,0.0,0.0,0.0,0.0,0.0,0.0,0.0,0.0,0.0,0.0,0.0,0.0,0.0,0.0,0.0,0.0,0.0,0.0,0.0,0.0,0.0,0.0530753314037
1756813462845003000,2,1756813462845003000,map,11.1919098812,9.81486601875,0.0,0.0,0.0,0.797905927742,0.602781992494,0.225037497311,-0.0124005300922,0.0,0.0,0.0,0.0,-0.0124005300922,0.2664160586,0.0,0.0,0.0,0.0,0.0,0.0,0.0,0.0,0.0,0.0,0.0,0.0,0.0,0.0,0.0,0.0,0.0,0.0,0.0,0.0,0.0,0.0,0.0,0.0,0.0,0.0,0.0,0.0696306542277
1756813464112269000,3,1756813464112269000,map,11.3110244977,9.03235267788,0.0,0.0,0.0,0.780462138488,0.625203047327,0.150886405952,-0.0183355898767,0.0,0.0,0.0,0.0,-0.0183355898767,0.278561932881,0.0,0.0,0.0,0.0,0.0,0.0,0.0,0.0,0.0,0.0,0.0,0.0,0.0,0.0,0.0,0.0,0.0,0.0,0.0,0.0,0.0,0.0,0.0,0.0,0.0,0.0,0.0,0.0406548774792
1756813465178840000,4,1756813465178840000,map,11.4451390579,8.27857024849,0.0,0.0,0.0,0.789135379736,0.614219303221,0.0606631798748,-0.0266880321968,0.0,0.0,0.0,0.0,-0.0266880321968,0.276254202683,0.0,0.0,0.0,0.0,0.0,0.0,0.0,0.0,0.0,0.0,0.0,0.0,0.0,0.0,0.0,0.0,0.0,0.0,0.0,0.0,0.0,0.0,0.0,0.0,0.0,0.0,0.0,0.0189007152218
1756813466045662000,5,1756813466045662000,map,11.5362968459,7.7403229787,0.0,0.0,0.0,0.784259671755,0.620432725812,0.0220638229029,-0.0366798519582,0.0,0.0,0.0,0.0,-0.0366798519582,0.280887069115,0.0,0.0,0.0,0.0,0.0,0.0,0.0,0.0,0.0,0.0,0.0,0.0,0.0,0.0,0.0,0.0,0.0,0.0,0.0,0.0,0.0,0.0,0.0,0.0,0.0,0.0,0.0,0.00805685598514
1756813466978916000,6,1756813466978916000,map,11.6660198633,7.09371217675,0.0,0.0,0.0,0.781309477999,0.624143813227,0.014733462821,-0.0380227610825,0.0,0.0,0.0,0.0,-0.0380227610825,0.27784645637,0.0,0.0,0.0,0.0,0.0,0.0,0.0,0.0,0.0,0.0,0.0,0.0,0.0,0.0,0.0,0.0,0.0,0.0,0.0,0.0,0.0,0.0,0.0,0.0,0.0,0.0,0.0,0.00479260140689
1756813467712273000,7,1756813467712273000,map,11.7588984909,6.62864521596,0.0,0.0,0.0,0.781368067628,0.624070463082,0.0122045435409,-0.0386726731248,0.0,0.0,0.0,0.0,-0.0386726731248,0.282775714233,0.0,0.0,0.0,0.0,0.0,0.0,0.0,0.0,0.0,0.0,0.0,0.0,0.0,0.0,0.0,0.0,0.0,0.0,0.0,0.0,0.0,0.0,0.0,0.0,0.0,0.0,0.0,0.00309498330664
1756813467978283000,8,1756813467978283000,map,11.792106315,6.45916170721,0.0,0.0,0.0,0.7759515278,0.630792538403,0.0107411674555,-0.0402594130524,0.0,0.0,0.0,0.0,-0.0402594130524,0.288803084247,0.0,0.0,0.0,0.0,0.0,0.0,0.0,0.0,0.0,0.0,0.0,0.0,0.0,0.0,0.0,0.0,0.0,0.0,0.0,0.0,0.0,0.0,0.0,0.0,0.0,0.0,0.0,0.00395679773569
1756813469178370000,9,1756813469178370000,map,11.9328825107,5.72501158996,0.0,0.0,0.0,0.772750564323,0.634709827668,0.0122387481987,-0.0400485385069,0.0,0.0,0.0,0.0,-0.0400485385069,0.295005524485,0.0,0.0,0.0,0.0,0.0,0.0,0.0,0.0,0.0,0.0,0.0,0.0,0.0,0.0,0.0,0.0,0.0,0.0,0.0,0.0,0.0,0.0,0.0,0.0,0.0,0.0,0.0,0.00502002343628
1756813469978333000,10,1756813469978333000,map,12.0374690005,5.20779053524,0.0,0.0,0.0,0.771546516674,0.636172910935,0.0138909964544,-0.0396675419802,0.0,0.0,0.0,0.0,-0.0396675419802,0.297047250541,0.0,0.0,0.0,0.0,0.0,0.0,0.0,0.0,0.0,0.0,0.0,0.0,0.0,0.0,0.0,0.0,0.0,0.0,0.0,0.0,0.0,0.0,0.0,0.0,0.0,0.0,0.0,0.00388956537064
1756813470645015000,11,1756813470645015000,map,12.1203174505,4.78817242705,0.0,0.0,0.0,0.772882406023,0.634549278196,0.0122380870016,-0.0425380504739,0.0,0.0,0.0,0.0,-0.0425380504739,0.304702494092,0.0,0.0,0.0,0.0,0.0,0.0,0.0,0.0,0.0,0.0,0.0,0.0,0.0,0.0,0.0,0.0,0.0,0.0,0.0,0.0,0.0,0.0,0.0,0.0,0.0,0.0,0.0,0.00202470603297
1756813471378400000,12,1756813471378400000,map,12.1979159132,4.32017118697,0.0,0.0,0.0,0.773024477508,0.634376195308,0.0120257852584,-0.0465069041087,0.0,0.0,0.0,0.0,-0.0465069041087,0.31799883417,0.0,0.0,0.0,0.0,0.0,0.0,0.0,0.0,0.0,0.0,0.0,0.0,0.0,0.0,0.0,0.0,0.0,0.0,0.0,0.0,0.0,0.0,0.0,0.0,0.0,0.0,0.0,0.00167572858506
1756813472045046000,13,1756813472045046000,map,12.2694947394,3.89622121762,0.0,0.0,0.0,0.771803769196,0.635860788109,0.0113450533773,-0.0472066975222,0.0,0.0,0.0,0.0,-0.0472066975222,0.319808477024,0.0,0.0,0.0,0.0,0.0,0.0,0.0,0.0,0.0,0.0,0.0,0.0,0.0,0.0,0.0,0.0,0.0,0.0,0.0,0.0,0.0,0.0,0.0,0.0,0.0,0.0,0.0,0.00152281603797
1756813472845910000,14,1756813472845910000,map,12.3469301687,3.42425130561,0.0,0.0,0.0,0.771133450118,0.636673544377,0.0117865825685,-0.0473963142646,0.0,0.0,0.0,0.0,-0.0473963142646,0.318547885211,0.0,0.0,0.0,0.0,0.0,0.0,0.0,0.0,0.0,0.0,0.0,0.0,0.0,0.0,0.0,0.0,0.0,0.0,0.0,0.0,0.0,0.0,0.0,0.0,0.0,0.0,0.0,0.0018610379228
1756813473512351000,15,1756813473512351000,map,12.4245267172,2.99844385892,0.0,0.0,0.0,0.773086337264,0.634300808084,0.0120645796859,-0.0457510973432,0.0,0.0,0.0,0.0,-0.0457510973432,0.308682256288,0.0,0.0,0.0,0.0,0.0,0.0,0.0,0.0,0.0,0.0,0.0,0.0,0.0,0.0,0.0,0.0,0.0,0.0,0.0,0.0,0.0,0.0,0.0,0.0,0.0,0.0,0.0,0.00186912999546
1756813474378861000,16,1756813474378861000,map,12.5526095362,2.37860137641,0.0,0.0,0.0,0.77563946787,0.631176216189,0.01316086559,-0.0468817529134,0.0,0.0,0.0,0.0,-0.0468817529134,0.311127835674,0.0,0.0,0.0,0.0,0.0,0.0,0.0,0.0,0.0,0.0,0.0,0.0,0.0,0.0,0.0,0.0,0.0,0.0,0.0,0.0,0.0,0.0,0.0,0.0,0.0,0.0,0.0,0.00251149669315
1756813475045753000,17,1756813475045753000,map,12.6324976447,1.93929889139,0.0,0.0,0.0,0.780864026916,0.624701025666,0.013033941045,-0.0480522256828,0.0,0.0,0.0,0.0,-0.0480522256828,0.321950003084,0.0,0.0,0.0,0.0,0.0,0.0,0.0,0.0,0.0,0.0,0.0,0.0,0.0,0.0,0.0,0.0,0.0,0.0,0.0,0.0,0.0,0.0,0.0,0.0,0.0,0.0,0.0,0.00203320542979
1756813475978871000,18,1756813475978871000,map,12.7439169822,1.35695419866,0.0,0.0,0.0,0.779634931185,0.626234280502,0.0141819233309,-0.046867651619,0.0,0.0,0.0,0.0,-0.046867651619,0.311926882388,0.0,0.0,0.0,0.0,0.0,0.0,0.0,0.0,0.0,0.0,0.0,0.0,0.0,0.0,0.0,0.0,0.0,0.0,0.0,0.0,0.0,0.0,0.0,0.0,0.0,0.0,0.0,0.00291880489601
1756813476778366000,19,1756813476778366000,map,12.8361280901,0.872154608914,0.0,0.0,0.0,0.778597532928,0.627523610487,0.0147356258537,-0.0484561885522,0.0,0.0,0.0,0.0,-0.0484561885522,0.324688501012,0.0,0.0,0.0,0.0,0.0,0.0,0.0,0.0,0.0,0.0,0.0,0.0,0.0,0.0,0.0,0.0,0.0,0.0,0.0,0.0,0.0,0.0,0.0,0.0,0.0,0.0,0.0,0.0027106478404
1756813477579124000,20,1756813477579124000,map,12.8932286453,0.476144628917,0.0,0.0,0.0,0.774764342418,0.632250119586,0.015877373656,-0.0498401193028,0.0,0.0,0.0,0.0,-0.0498401193028,0.337401547596,0.0,0.0,0.0,0.0,0.0,0.0,0.0,0.0,0.0,0.0,0.0,0.0,0.0,0.0,0.0,0.0,0.0,0.0,0.0,0.0,0.0,0.0,0.0,0.0,0.0,0.0,0.0,0.00256553727772
1756813478447511000,21,1756813478447511000,map,12.9789246847,-0.0687332644148,0.0,0.0,0.0,0.773472998013,0.633829252516,0.0152359432089,-0.0513423952171,0.0,0.0,0.0,0.0,-0.0513423952171,0.347229020082,0.0,0.0,0.0,0.0,0.0,0.0,0.0,0.0,0.0,0.0,0.0,0.0,0.0,0.0,0.0,0.0,0.0,0.0,0.0,0.0,0.0,0.0,0.0,0.0,0.0,0.0,0.0,0.00235825926663
1756813479178499000,22,1756813479178499000,map,13.0722652869,-0.583147303129,0.0,0.0,0.0,0.775068728068,0.631876939579,0.0150936472104,-0.0514592171198,0.0,0.0,0.0,0.0,-0.0514592171198,0.349560108074,0.0,0.0,0.0,0.0,0.0,0.0,0.0,0.0,0.0,0.0,0.0,0.0,0.0,0.0,0.0,0.0,0.0,0.0,0.0,0.0,0.0,0.0,0.0,0.0,0.0,0.0,0.0,0.00200468517615
1756813479845280000,23,1756813479845280000,map,13.1383171257,-1.04641520349,0.0,0.0,0.0,0.770989578457,0.636847760387,0.0145180468485,-0.0517277835629,0.0,0.0,0.0,0.0,-0.0517277835629,0.348828614263,0.0,0.0,0.0,0.0,0.0,0.0,0.0,0.0,0.0,0.0,0.0,0.0,0.0,0.0,0.0,0.0,0.0,0.0,0.0,0.0,0.0,0.0,0.0,0.0,0.0,0.0,0.0,0.00190071092667
1756813480711917000,24,1756813480711917000,map,13.2232236132,-1.57860512632,0.0,0.0,0.0,0.765382562267,0.643575584821,0.0138496513779,-0.0518927994231,0.0,0.0,0.0,0.0,-0.0518927994231,0.34844231691,0.0,0.0,0.0,0.0,0.0,0.0,0.0,0.0,0.0,0.0,0.0,0.0,0.0,0.0,0.0,0.0,0.0,0.0,0.0,0.0,0.0,0.0,0.0,0.0,0.0,0.0,0.0,0.0025651548111
1756813481977919000,25,1756813481977919000,map,13.309678298,-2.31021579379,0.0,0.0,0.0,0.763777243471,0.645479916307,0.0173118244161,-0.0509895967923,0.0,0.0,0.0,0.0,-0.0509895967923,0.35244469954,0.0,0.0,0.0,0.0,0.0,0.0,0.0,0.0,0.0,0.0,0.0,0.0,0.0,0.0,0.0,0.0,0.0,0.0,0.0,0.0,0.0,0.0,0.0,0.0,0.0,0.0,0.0,0.00918408519989
1756813482978535000,26,1756813482978535000,map,13.4418264595,-3.01223039876,0.0,0.0,0.0,0.76765180112,0.640867156466,0.0241674791973,-0.0494252348197,0.0,0.0,0.0,0.0,-0.0494252348197,0.356676946153,0.0,0.0,0.0,0.0,0.0,0.0,0.0,0.0,0.0,0.0,0.0,0.0,0.0,0.0,0.0,0.0,0.0,0.0,0.0,0.0,0.0,0.0,0.0,0.0,0.0,0.0,0.0,0.00743143049279
1756813483711474000,27,1756813483711474000,map,13.4831028105,-3.48120165743,0.0,0.0,0.0,0.761820584965,0.647788079795,0.0252080865009,-0.0482438789863,0.0,0.0,0.0,0.0,-0.0482438789863,0.358539812177,0.0,0.0,0.0,0.0,0.0,0.0,0.0,0.0,0.0,0.0,0.0,0.0,0.0,0.0,0.0,0.0,0.0,0.0,0.0,0.0,0.0,0.0,0.0,0.0,0.0,0.0,0.0,0.00591363911522
1756813486511854000,28,1756813486511854000,map,13.6979589124,-5.01798994224,0.0,0.0,0.0,0.772642197892,0.634841739362,0.40155366656,-0.0314129123742,0.0,0.0,0.0,0.0,-0.0314129123742,0.593474355217,0.0,0.0,0.0,0.0,0.0,0.0,0.0,0.0,0.0,0.0,0.0,0.0,0.0,0.0,0.0,0.0,0.0,0.0,0.0,0.0,0.0,0.0,0.0,0.0,0.0,0.0,0.0,0.263403917844
1756813487578779000,29,1756813487578779000,map,13.7727722135,-5.61426542873,0.0,0.0,0.0,0.768512507055,0.639834764998,0.725922850488,0.0213089290792,0.0,0.0,0.0,0.0,0.0213089290792,0.648882070083,0.0,0.0,0.0,0.0,0.0,0.0,0.0,0.0,0.0,0.0,0.0,0.0,0.0,0.0,0.0,0.0,0.0,0.0,0.0,0.0,0.0,0.0,0.0,0.0,0.0,0.0,0.0,0.226671722068
1756813488644791000,30,1756813488644791000,map,13.7326326642,-6.36798606265,0.0,0.0,0.0,0.737688664661,0.675141047509,0.853180622288,0.0741009716389,0.0,0.0,0.0,0.0,0.0741009716389,0.680605695242,0.0,0.0,0.0,0.0,0.0,0.0,0.0,0.0,0.0,0.0,0.0,0.0,0.0,0.0,0.0,0.0,0.0,0.0,0.0,0.0,0.0,0.0,0.0,0.0,0.0,0.0,0.0,0.157145738484
1756813489912054000,31,1756813489912054000,map,14.0744006737,-6.94348339828,0.0,0.0,0.0,0.761432757931,0.648243900974,1.19576837189,0.0781490423125,0.0,0.0,0.0,0.0,0.0781490423125,0.782387176913,0.0,0.0,0.0,0.0,0.0,0.0,0.0,0.0,0.0,0.0,0.0,0.0,0.0,0.0,0.0,0.0,0.0,0.0,0.0,0.0,0.0,0.0,0.0,0.0,0.0,0.0,0.0,0.136479651673
1756813491245467000,32,1756813491245467000,map,14.2178676622,-7.86703632104,0.0,0.0,0.0,0.748015134562,0.663681669527,1.49534004687,-0.00231333791936,0.0,0.0,0.0,0.0,-0.00231333791939,0.831017493267,0.0,0.0,0.0,0.0,0.0,0.0,0.0,0.0,0.0,0.0,0.0,0.0,0.0,0.0,0.0,0.0,0.0,0.0,0.0,0.0,0.0,0.0,0.0,0.0,0.0,0.0,0.0,0.125176348516
1756813491911664000,33,1756813491911664000,map,13.8949771729,-8.31323308945,0.0,0.0,0.0,0.679491845647,0.733683059433,1.04917831705,-0.195457788304,0.0,0.0,0.0,0.0,-0.195457788304,0.710232602945,0.0,0.0,0.0,0.0,0.0,0.0,0.0,0.0,0.0,0.0,0.0,0.0,0.0,0.0,0.0,0.0,0.0,0.0,0.0,0.0,0.0,0.0,0.0,0.0,0.0,0.0,0.0,0.0800284261141
1756813492911474000,34,1756813492911474000,map,13.8144380597,-8.94572156565,0.0,0.0,0.0,0.64612292166,0.76323336543,1.93763924868,-0.56248188445,0.0,0.0,0.0,0.0,-0.56248188445,0.866954464102,0.0,0.0,0.0,0.0,0.0,0.0,0.0,0.0,0.0,0.0,0.0,0.0,0.0,0.0,0.0,0.0,0.0,0.0,0.0,0.0,0.0,0.0,0.0,0.0,0.0,0.0,0.0,0.113166246304
1756813494111069000,35,1756813494111069000,map,13.5318683182,-9.64902559633,0.0,0.0,0.0,0.435899431778,0.899995380753,6.55258355767,-2.92536223705,0.0,0.0,0.0,0.0,-2.92536223705,2.13240651113,0.0,0.0,0.0,0.0,0.0,0.0,0.0,0.0,0.0,0.0,0.0,0.0,0.0,0.0,0.0,0.0,0.0,0.0,0.0,0.0,0.0,0.0,0.0,0.0,0.0,0.0,0.0,0.315344971414
1756813495111635000,36,1756813495111635000,map,7.63816950894,-7.16868138763,0.0,0.0,0.0,-0.461178694766,0.887307281326,7.56992858606,-4.74690010533,0.0,0.0,0.0,0.0,-4.74690010533,4.19194095346,0.0,0.0,0.0,0.0,0.0,0.0,0.0,0.0,0.0,0.0,0.0,0.0,0.0,0.0,0.0,0.0,0.0,0.0,0.0,0.0,0.0,0.0,0.0,0.0,0.0,0.0,0.0,0.394193001799
1756813496245177000,37,1756813496245177000,map,7.56131755412,-6.46323511707,0.0,0.0,0.0,-0.815096827358,0.579324746606,5.58593565004,-4.69734238718,0.0,0.0,0.0,0.0,-4.69734238718,6.1519934759,0.0,0.0,0.0,0.0,0.0,0.0,0.0,0.0,0.0,0.0,0.0,0.0,0.0,0.0,0.0,0.0,0.0,0.0,0.0,0.0,0.0,0.0,0.0,0.0,0.0,0.0,0.0,0.435441652363
1756813497111711000,38,1756813497111711000,map,7.84175554448,-6.00434639286,0.0,0.0,0.0,-0.956224769822,0.29263319972,2.79815892944,-2.35329187416,0.0,0.0,0.0,0.0,-2.35329187416,4.47126877458,0.0,0.0,0.0,0.0,0.0,0.0,0.0,0.0,0.0,0.0,0.0,0.0,0.0,0.0,0.0,0.0,0.0,0.0,0.0,0.0,0.0,0.0,0.0,0.0,0.0,0.0,0.0,0.288726619773
1756813498045514000,39,1756813498045514000,map,8.25842813476,-5.85726073266,0.0,0.0,0.0,-0.986927291818,0.161166127537,1.30735921826,-0.871802693521,0.0,0.0,0.0,0.0,-0.871802693521,2.56810218622,0.0,0.0,0.0,0.0,0.0,0.0,0.0,0.0,0.0,0.0,0.0,0.0,0.0,0.0,0.0,0.0,0.0,0.0,0.0,0.0,0.0,0.0,0.0,0.0,0.0,0.0,0.0,0.187166487278
1756813499244543000,40,1756813499244543000,map,9.01137601721,-5.642701833,0.0,0.0,0.0,-0.994730532123,0.102523989691,0.427181821867,-0.167478411804,0.0,0.0,0.0,0.0,-0.167478411804,1.29861952177,0.0,0.0,0.0,0.0,0.0,0.0,0.0,0.0,0.0,0.0,0.0,0.0,0.0,0.0,0.0,0.0,0.0,0.0,0.0,0.0,0.0,0.0,0.0,0.0,0.0,0.0,0.0,0.121556155102
1756813500177976000,41,1756813500177976000,map,9.58632363611,-4.96404750488,0.0,0.0,0.0,-0.99997254575,0.00740997612716,0.284153205015,-0.0705316966853,0.0,0.0,0.0,0.0,-0.0705316966853,1.12820740372,0.0,0.0,0.0,0.0,0.0,0.0,0.0,0.0,0.0,0.0,0.0,0.0,0.0,0.0,0.0,0.0,0.0,0.0,0.0,0.0,0.0,0.0,0.0,0.0,0.0,0.0,0.0,0.138301284325
1756813501178445000,42,1756813501178445000,map,10.1903479354,-4.8155372351,0.0,0.0,0.0,0.99929329428,0.0375887217942,0.231210269425,-0.107321386433,0.0,0.0,0.0,0.0,-0.107321386433,0.922817412957,0.0,0.0,0.0,0.0,0.0,0.0,0.0,0.0,0.0,0.0,0.0,0.0,0.0,0.0,0.0,0.0,0.0,0.0,0.0,0.0,0.0,0.0,0.0,0.0,0.0,0.0,0.0,0.148415241888
1756813502378200000,43,1756813502378200000,map,10.9621465936,-5.06213209739,0.0,0.0,0.0,-0.99755857252,0.0698347649297,0.200861818857,-0.123213170578,0.0,0.0,0.0,0.0,-0.123213170578,0.79722235212,0.0,0.0,0.0,0.0,0.0,0.0,0.0,0.0,0.0,0.0,0.0,0.0,0.0,0.0,0.0,0.0,0.0,0.0,0.0,0.0,0.0,0.0,0.0,0.0,0.0,0.0,0.0,0.16079300454
1756813503845304000,44,1756813503845304000,map,11.8050801346,-4.71030149369,0.0,0.0,0.0,-0.999363721593,0.0356672393694,0.250408763949,-0.154034971949,0.0,0.0,0.0,0.0,-0.154034971949,0.872455972309,0.0,0.0,0.0,0.0,0.0,0.0,0.0,0.0,0.0,0.0,0.0,0.0,0.0,0.0,0.0,0.0,0.0,0.0,0.0,0.0,0.0,0.0,0.0,0.0,0.0,0.0,0.0,0.212422195693
1756813505178147000,45,1756813505178147000,map,12.592023519,-4.76070736765,0.0,0.0,0.0,-0.999395942528,0.0347526985782,0.668188617607,-0.217884302399,0.0,0.0,0.0,0.0,-0.217884302399,0.993819709644,0.0,0.0,0.0,0.0,0.0,0.0,0.0,0.0,0.0,0.0,0.0,0.0,0.0,0.0,0.0,0.0,0.0,0.0,0.0,0.0,0.0,0.0,0.0,0.0,0.0,0.0,0.0,0.442407913128
1756813506178662000,46,1756813506178662000,map,10.6367596337,-3.72821741654,0.0,0.0,0.0,-0.633215237593,0.773975750835,1.70383959794,-0.385077557616,0.0,0.0,0.0,0.0,-0.385077557616,0.865578660622,0.0,0.0,0.0,0.0,0.0,0.0,0.0,0.0,0.0,0.0,0.0,0.0,0.0,0.0,0.0,0.0,0.0,0.0,0.0,0.0,0.0,0.0,0.0,0.0,0.0,0.0,0.0,0.784112396372
1756813507578355000,47,1756813507578355000,map,10.5328511567,-2.82878323631,0.0,0.0,0.0,-0.65934494264,0.751840572605,1.25969049091,-0.34964684272,0.0,0.0,0.0,0.0,-0.34964684272,0.422240648404,0.0,0.0,0.0,0.0,0.0,0.0,0.0,0.0,0.0,0.0,0.0,0.0,0.0,0.0,0.0,0.0,0.0,0.0,0.0,0.0,0.0,0.0,0.0,0.0,0.0,0.0,0.0,0.228602386958
1756813509178305000,48,1756813509178305000,map,10.4232438752,-1.79229179788,0.0,0.0,0.0,-0.659831302348,0.751413769132,0.865955044584,-0.320787924802,0.0,0.0,0.0,0.0,-0.320787924802,0.383954396409,0.0,0.0,0.0,0.0,0.0,0.0,0.0,0.0,0.0,0.0,0.0,0.0,0.0,0.0,0.0,0.0,0.0,0.0,0.0,0.0,0.0,0.0,0.0,0.0,0.0,0.0,0.0,0.104828275006
1756813510111665000,49,1756813510111665000,map,10.3735393404,-1.19426637478,0.0,0.0,0.0,-0.649698470695,0.76019201336,0.242865256357,-0.0803355662001,0.0,0.0,0.0,0.0,-0.0803355662001,0.158284480749,0.0,0.0,0.0,0.0,0.0,0.0,0.0,0.0,0.0,0.0,0.0,0.0,0.0,0.0,0.0,0.0,0.0,0.0,0.0,0.0,0.0,0.0,0.0,0.0,0.0,0.0,0.0,0.0255305541181
1756813510978110000,50,1756813510978110000,map,10.2794415447,-0.640812010403,0.0,0.0,0.0,-0.642409156961,0.766361843422,0.0735045698273,0.00170421783918,0.0,0.0,0.0,0.0,0.00170421783918,0.0658895383995,0.0,0.0,0.0,0.0,0.0,0.0,0.0,0.0,0.0,0.0,0.0,0.0,0.0,0.0,0.0,0.0,0.0,0.0,0.0,0.0,0.0,0.0,0.0,0.0,0.0,0.0,0.0,0.00538813853882
1756813511911508000,51,1756813511911508000,map,10.1769111223,-0.038803880785,0.0,0.0,0.0,-0.6346515054,0.772798464474,0.0419816947502,-0.000102148158127,0.0,0.0,0.0,0.0,-0.000102148158128,0.0670636615434,0.0,0.0,0.0,0.0,0.0,0.0,0.0,0.0,0.0,0.0,0.0,0.0,0.0,0.0,0.0,0.0,0.0,0.0,0.0,0.0,0.0,0.0,0.0,0.0,0.0,0.0,0.0,0.00421975471589
1756813512845270000,52,1756813512845270000,map,10.0890008763,0.54001115007,0.0,0.0,0.0,-0.644328786775,0.76474859564,0.0181092833411,-0.00189051656981,0.0,0.0,0.0,0.0,-0.00189051656981,0.0476639380545,0.0,0.0,0.0,0.0,0.0,0.0,0.0,0.0,0.0,0.0,0.0,0.0,0.0,0.0,0.0,0.0,0.0,0.0,0.0,0.0,0.0,0.0,0.0,0.0,0.0,0.0,0.0,0.0028903033918
1756813513978244000,53,1756813513978244000,map,9.95871808271,1.27151917504,0.0,0.0,0.0,-0.637095781304,0.770784642715,0.0136808627851,-0.00330600502043,0.0,0.0,0.0,0.0,-0.00330600502043,0.0486802593674,0.0,0.0,0.0,0.0,0.0,0.0,0.0,0.0,0.0,0.0,0.0,0.0,0.0,0.0,0.0,0.0,0.0,0.0,0.0,0.0,0.0,0.0,0.0,0.0,0.0,0.0,0.0,0.00329448041986
1756813514844595000,54,1756813514844595000,map,9.89185181443,1.85395130456,0.0,0.0,0.0,-0.644537903425,0.764572358281,0.0123952208799,-0.00305800875785,0.0,0.0,0.0,0.0,-0.00305800875785,0.0499210749877,0.0,0.0,0.0,0.0,0.0,0.0,0.0,0.0,0.0,0.0,0.0,0.0,0.0,0.0,0.0,0.0,0.0,0.0,0.0,0.0,0.0,0.0,0.0,0.0,0.0,0.0,0.0,0.00301467024753
1756813516111430000,55,1756813516111430000,map,9.75714478695,2.6511994691,0.0,0.0,0.0,-0.651800700891,0.758390299462,0.0108054660076,-0.00529975627198,0.0,0.0,0.0,0.0,-0.00529975627199,0.0530888699487,0.0,0.0,0.0,0.0,0.0,0.0,0.0,0.0,0.0,0.0,0.0,0.0,0.0,0.0,0.0,0.0,0.0,0.0,0.0,0.0,0.0,0.0,0.0,0.0,0.0,0.0,0.0,0.00732006505765
1756813517378554000,56,1756813517378554000,map,9.60542796775,3.43940630478,0.0,0.0,0.0,-0.645498805599,0.763761279439,0.00762136674624,-0.00671475277493,0.0,0.0,0.0,0.0,-0.00671475277493,0.0551442316156,0.0,0.0,0.0,0.0,0.0,0.0,0.0,0.0,0.0,0.0,0.0,0.0,0.0,0.0,0.0,0.0,0.0,0.0,0.0,0.0,0.0,0.0,0.0,0.0,0.0,0.0,0.0,0.00484609765927
1756813518377959000,57,1756813518377959000,map,9.48008274407,4.07022599199,0.0,0.0,0.0,-0.651262870127,0.758852208268,0.00630763695273,-0.00674772863147,0.0,0.0,0.0,0.0,-0.00674772863147,0.0545680482533,0.0,0.0,0.0,0.0,0.0,0.0,0.0,0.0,0.0,0.0,0.0,0.0,0.0,0.0,0.0,0.0,0.0,0.0,0.0,0.0,0.0,0.0,0.0,0.0,0.0,0.0,0.0,0.00304565841445
1756813519578354000,58,1756813519578354000,map,9.36254133645,4.8721506139,0.0,0.0,0.0,-0.667062665275,0.745001611136,0.00587675634546,-0.00742295738731,0.0,0.0,0.0,0.0,-0.00742295738731,0.0568593739529,0.0,0.0,0.0,0.0,0.0,0.0,0.0,0.0,0.0,0.0,0.0,0.0,0.0,0.0,0.0,0.0,0.0,0.0,0.0,0.0,0.0,0.0,0.0,0.0,0.0,0.0,0.0,0.00354425673055
1756813520778434000,59,1756813520778434000,map,9.26978324551,5.60597634766,0.0,0.0,0.0,-0.663384704435,0.748278513604,0.00591149024773,-0.00747376328432,0.0,0.0,0.0,0.0,-0.0074737632843,0.0582969238398,0.0,0.0,0.0,0.0,0.0,0.0,0.0,0.0,0.0,0.0,0.0,0.0,0.0,0.0,0.0,0.0,0.0,0.0,0.0,0.0,0.0,0.0,0.0,0.0,0.0,0.0,0.0,0.00340713031805
1756813521777899000,60,1756813521777899000,map,9.17005121552,6.22812076689,0.0,0.0,0.0,-0.654195136624,0.756325804939,0.00568386161878,-0.00759620999659,0.0,0.0,0.0,0.0,-0.00759620999659,0.0591420074752,0.0,0.0,0.0,0.0,0.0,0.0,0.0,0.0,0.0,0.0,0.0,0.0,0.0,0.0,0.0,0.0,0.0,0.0,0.0,0.0,0.0,0.0,0.0,0.0,0.0,0.0,0.0,0.0030043283812
1756813522778437000,61,1756813522778437000,map,9.07714367001,6.89578942712,0.0,0.0,0.0,-0.658218765861,0.75282671065,0.00512641954964,-0.00797715566301,0.0,0.0,0.0,0.0,-0.00797715566301,0.0591449908582,0.0,0.0,0.0,0.0,0.0,0.0,0.0,0.0,0.0,0.0,0.0,0.0,0.0,0.0,0.0,0.0,0.0,0.0,0.0,0.0,0.0,0.0,0.0,0.0,0.0,0.0,0.0,0.00259817194711
1756813523911932000,62,1756813523911932000,map,9.01934418089,7.57707766579,0.0,0.0,0.0,-0.653084252105,0.75728525646,0.00686804501056,-0.00763414899963,0.0,0.0,0.0,0.0,-0.00763414899963,0.0585674964241,0.0,0.0,0.0,0.0,0.0,0.0,0.0,0.0,0.0,0.0,0.0,0.0,0.0,0.0,0.0,0.0,0.0,0.0,0.0,0.0,0.0,0.0,0.0,0.0,0.0,0.0,0.0,0.00489097082382
1756813524845118000,63,1756813524845118000,map,8.93562449251,8.1523043782,0.0,0.0,0.0,-0.664851096497,0.74697591627,0.008938276149,-0.00705507986002,0.0,0.0,0.0,0.0,-0.00705507986004,0.0589028624804,0.0,0.0,0.0,0.0,0.0,0.0,0.0,0.0,0.0,0.0,0.0,0.0,0.0,0.0,0.0,0.0,0.0,0.0,0.0,0.0,0.0,0.0,0.0,0.0,0.0,0.0,0.0,0.00464283563391
1756813525777888000,64,1756813525777888000,map,8.87246991063,8.68826357558,0.0,0.0,0.0,-0.660394195387,0.75091910796,0.00911897922613,-0.00641008487727,0.0,0.0,0.0,0.0,-0.00641008487727,0.0550564131408,0.0,0.0,0.0,0.0,0.0,0.0,0.0,0.0,0.0,0.0,0.0,0.0,0.0,0.0,0.0,0.0,0.0,0.0,0.0,0.0,0.0,0.0,0.0,0.0,0.0,0.0,0.0,0.00399861268294
1756813527045344000,65,1756813527045344000,map,8.76817400989,9.34936834494,0.0,0.0,0.0,-0.659006309273,0.752137410543,0.0101592769534,-0.00690511480714,0.0,0.0,0.0,0.0,-0.00690511480714,0.0487697989254,0.0,0.0,0.0,0.0,0.0,0.0,0.0,0.0,0.0,0.0,0.0,0.0,0.0,0.0,0.0,0.0,0.0,0.0,0.0,0.0,0.0,0.0,0.0,0.0,0.0,0.0,0.0,0.00577765082511
1756813528378393000,66,1756813528378393000,map,8.66853836893,10.1592273142,0.0,0.0,0.0,-0.674366694405,0.738396615294,0.0197727875269,-0.00797888663854,0.0,0.0,0.0,0.0,-0.00797888663854,0.050207451587,0.0,0.0,0.0,0.0,0.0,0.0,0.0,0.0,0.0,0.0,0.0,0.0,0.0,0.0,0.0,0.0,0.0,0.0,0.0,0.0,0.0,0.0,0.0,0.0,0.0,0.0,0.0,0.0114664738927
1756813530845096000,67,1756813530845096000,map,8.45251462511,11.5484317967,0.0,0.0,0.0,-0.591610279561,0.806224086168,0.124934133084,0.00567265847054,0.0,0.0,0.0,0.0,0.00567265847054,0.0863120754865,0.0,0.0,0.0,0.0,0.0,0.0,0.0,0.0,0.0,0.0,0.0,0.0,0.0,0.0,0.0,0.0,0.0,0.0,0.0,0.0,0.0,0.0,0.0,0.0,0.0,0.0,0.0,0.0919644270255
1756813532245463000,68,1756813532245463000,map,8.02005090718,12.3227709207,0.0,0.0,0.0,-0.42065414153,0.907221082875,0.290073731873,0.0545100228646,0.0,0.0,0.0,0.0,0.0545100228646,0.105573381225,0.0,0.0,0.0,0.0,0.0,0.0,0.0,0.0,0.0,0.0,0.0,0.0,0.0,0.0,0.0,0.0,0.0,0.0,0.0,0.0,0.0,0.0,0.0,0.0,0.0,0.0,0.0,0.0938510431602
1756813533111774000,69,1756813533111774000,map,7.53301059344,12.6035357291,0.0,0.0,0.0,-0.182801965017,0.983149755422,0.354221382692,0.116640226008,0.0,0.0,0.0,0.0,0.116640226008,0.129699394515,0.0,0.0,0.0,0.0,0.0,0.0,0.0,0.0,0.0,0.0,0.0,0.0,0.0,0.0,0.0,0.0,0.0,0.0,0.0,0.0,0.0,0.0,0.0,0.0,0.0,0.0,0.0,0.0775907719748
1756813534577815000,70,1756813534577815000,map,6.65275391682,12.5979998569,0.0,0.0,0.0,0.26831831288,0.963330308344,0.349407250227,0.222942496028,0.0,0.0,0.0,0.0,0.222942496028,0.29474007467,0.0,0.0,0.0,0.0,0.0,0.0,0.0,0.0,0.0,0.0,0.0,0.0,0.0,0.0,0.0,0.0,0.0,0.0,0.0,0.0,0.0,0.0,0.0,0.0,0.0,0.0,0.0,0.105915827201
1756813535311102000,71,1756813535311102000,map,6.26153432248,12.251151566,0.0,0.0,0.0,0.501025188956,0.865432701041,0.268427391675,0.205218925306,0.0,0.0,0.0,0.0,0.205218925306,0.391851892517,0.0,0.0,0.0,0.0,0.0,0.0,0.0,0.0,0.0,0.0,0.0,0.0,0.0,0.0,0.0,0.0,0.0,0.0,0.0,0.0,0.0,0.0,0.0,0.0,0.0,0.0,0.0,0.110616148875
1756813536311566000,72,1756813536311566000,map,6.03875608677,11.7710558789,0.0,0.0,0.0,0.636389291504,0.771368050712,0.198315318048,0.117251922274,0.0,0.0,0.0,0.0,0.117251922274,0.461586727376,0.0,0.0,0.0,0.0,0.0,0.0,0.0,0.0,0.0,0.0,0.0,0.0,0.0,0.0,0.0,0.0,0.0,0.0,0.0,0.0,0.0,0.0,0.0,0.0,0.0,0.0,0.0,0.117289349953
1756813538177813000,73,1756813538177813000,map,6.10517748799,11.1594593933,0.0,0.0,0.0,0.826440509247,0.563024053372,0.221010811863,-0.0130574382906,0.0,0.0,0.0,0.0,-0.0130574382906,0.481714457681,0.0,0.0,0.0,0.0,0.0,0.0,0.0,0.0,0.0,0.0,0.0,0.0,0.0,0.0,0.0,0.0,0.0,0.0,0.0,0.0,0.0,0.0,0.0,0.0,0.0,0.0,0.0,0.13858375643
1756813539644980000,74,1756813539644980000,map,6.33316101306,10.6903313854,0.0,0.0,0.0,0.918157384823,0.396215871332,0.294837238953,-0.0339132198525,0.0,0.0,0.0,0.0,-0.0339132198525,0.334140579106,0.0,0.0,0.0,0.0,0.0,0.0,0.0,0.0,0.0,0.0,0.0,0.0,0.0,0.0,0.0,0.0,0.0,0.0,0.0,0.0,0.0,0.0,0.0,0.0,0.0,0.0,0.0,0.128212861557
1756813540311571000,75,1756813540311571000,map,6.53429833331,10.4035561338,0.0,0.0,0.0,0.913617364087,0.406575100121,0.35481654323,2.60778476502e-06,0.0,0.0,0.0,0.0,2.60778476502e-06,0.236289719024,0.0,0.0,0.0,0.0,0.0,0.0,0.0,0.0,0.0,0.0,0.0,0.0,0.0,0.0,0.0,0.0,0.0,0.0,0.0,0.0,0.0,0.0,0.0,0.0,0.0,0.0,0.0,0.117497217978
1756813541178108000,76,1756813541178108000,map,6.72179407016,10.011493326,0.0,0.0,0.0,0.879300932539,0.476266595549,0.503171249865,0.0129178254746,0.0,0.0,0.0,0.0,0.0129178254746,0.220241904258,0.0,0.0,0.0,0.0,0.0,0.0,0.0,0.0,0.0,0.0,0.0,0.0,0.0,0.0,0.0,0.0,0.0,0.0,0.0,0.0,0.0,0.0,0.0,0.0,0.0,0.0,0.0,0.147183801339
1756813542111721000,77,1756813542111721000,map,6.5700265503,9.43778229384,0.0,0.0,0.0,0.820810831675,0.571200121328,0.666165367157,0.0962437311483,0.0,0.0,0.0,0.0,0.0962437311483,0.19976291669,0.0,0.0,0.0,0.0,0.0,0.0,0.0,0.0,0.0,0.0,0.0,0.0,0.0,0.0,0.0,0.0,0.0,0.0,0.0,0.0,0.0,0.0,0.0,0.0,0.0,0.0,0.0,0.130597355641
1756813542845164000,78,1756813542845164000,map,6.43143707202,8.930755384,0.0,0.0,0.0,0.783667425552,0.62118062279,0.317149115704,0.0594300747969,0.0,0.0,0.0,0.0,0.0594300747969,0.177812240552,0.0,0.0,0.0,0.0,0.0,0.0,0.0,0.0,0.0,0.0,0.0,0.0,0.0,0.0,0.0,0.0,0.0,0.0,0.0,0.0,0.0,0.0,0.0,0.0,0.0,0.0,0.0,0.0478132810937
1756813543577748000,79,1756813543577748000,map,6.4060521606,8.40393251813,0.0,0.0,0.0,0.765894773338,0.642965937025,0.126805384574,0.020647342413,0.0,0.0,0.0,0.0,0.020647342413,0.148429865315,0.0,0.0,0.0,0.0,0.0,0.0,0.0,0.0,0.0,0.0,0.0,0.0,0.0,0.0,0.0,0.0,0.0,0.0,0.0,0.0,0.0,0.0,0.0,0.0,0.0,0.0,0.0,0.0167496794975
1756813544511512000,80,1756813544511512000,map,6.48458106092,7.82275021977,0.0,0.0,0.0,0.764529622955,0.644588594085,0.0167218221636,-0.00986919364771,0.0,0.0,0.0,0.0,-0.00986919364771,0.112426470339,0.0,0.0,0.0,0.0,0.0,0.0,0.0,0.0,0.0,0.0,0.0,0.0,0.0,0.0,0.0,0.0,0.0,0.0,0.0,0.0,0.0,0.0,0.0,0.0,0.0,0.0,0.0,0.00378568794928
1756813545177789000,81,1756813545177789000,map,6.54850963014,7.39713743859,0.0,0.0,0.0,0.761026630818,0.648720638785,0.00686544029505,-0.0137609556306,0.0,0.0,0.0,0.0,-0.0137609556306,0.100823342149,0.0,0.0,0.0,0.0,0.0,0.0,0.0,0.0,0.0,0.0,0.0,0.0,0.0,0.0,0.0,0.0,0.0,0.0,0.0,0.0,0.0,0.0,0.0,0.0,0.0,0.0,0.0,0.00240885456917
1756813546244827000,82,1756813546244827000,map,6.64523911216,6.7331135945,0.0,0.0,0.0,0.769922868069,0.638136958046,0.00856482421857,-0.0154861196741,0.0,0.0,0.0,0.0,-0.0154861196741,0.107181999128,0.0,0.0,0.0,0.0,0.0,0.0,0.0,0.0,0.0,0.0,0.0,0.0,0.0,0.0,0.0,0.0,0.0,0.0,0.0,0.0,0.0,0.0,0.0,0.0,0.0,0.0,0.0,0.00367422197485
1756813546978051000,83,1756813546978051000,map,6.69590482478,6.25950498249,0.0,0.0,0.0,0.769016026236,0.639229498218,0.00859535010851,-0.0149902679301,0.0,0.0,0.0,0.0,-0.0149902679301,0.0996094467129,0.0,0.0,0.0,0.0,0.0,0.0,0.0,0.0,0.0,0.0,0.0,0.0,0.0,0.0,0.0,0.0,0.0,0.0,0.0,0.0,0.0,0.0,0.0,0.0,0.0,0.0,0.0,0.00248727515533
1756813547778308000,84,1756813547778308000,map,6.76190197975,5.72788014423,0.0,0.0,0.0,0.76788567974,0.640586904994,0.00857261043166,-0.0152366785401,0.0,0.0,0.0,0.0,-0.0152366785401,0.100076462763,0.0,0.0,0.0,0.0,0.0,0.0,0.0,0.0,0.0,0.0,0.0,0.0,0.0,0.0,0.0,0.0,0.0,0.0,0.0,0.0,0.0,0.0,0.0,0.0,0.0,0.0,0.0,0.00213767193263
1756813548447204000,85,1756813548447204000,map,6.8150886678,5.29857105637,0.0,0.0,0.0,0.770677519371,0.637225361341,0.00700736822495,-0.0146727788206,0.0,0.0,0.0,0.0,-0.0146727788206,0.100580883905,0.0,0.0,0.0,0.0,0.0,0.0,0.0,0.0,0.0,0.0,0.0,0.0,0.0,0.0,0.0,0.0,0.0,0.0,0.0,0.0,0.0,0.0,0.0,0.0,0.0,0.0,0.0,0.00136142740546
1756813549244208000,86,1756813549244208000,map,6.88933190325,4.77484874643,0.0,0.0,0.0,0.774926948423,0.632050808565,0.00654706674965,-0.0133352458003,0.0,0.0,0.0,0.0,-0.0133352458003,0.0975563976432,0.0,0.0,0.0,0.0,0.0,0.0,0.0,0.0,0.0,0.0,0.0,0.0,0.0,0.0,0.0,0.0,0.0,0.0,0.0,0.0,0.0,0.0,0.0,0.0,0.0,0.0,0.0,0.00180005664266
1756813550178231000,87,1756813550178231000,map,6.994081494,4.18179219406,0.0,0.0,0.0,0.77650069489,0.630116394673,0.00701012297501,-0.0135531168956,0.0,0.0,0.0,0.0,-0.0135531168956,0.0988188834633,0.0,0.0,0.0,0.0,0.0,0.0,0.0,0.0,0.0,0.0,0.0,0.0,0.0,0.0,0.0,0.0,0.0,0.0,0.0,0.0,0.0,0.0,0.0,0.0,0.0,0.0,0.0,0.00230806449271
1756813551578292000,88,1756813551578292000,map,7.17211142911,3.31474400725,0.0,0.0,0.0,0.781446166213,0.623972667119,0.0138584321961,-0.0146461612563,0.0,0.0,0.0,0.0,-0.0146461612563,0.104572883297,0.0,0.0,0.0,0.0,0.0,0.0,0.0,0.0,0.0,0.0,0.0,0.0,0.0,0.0,0.0,0.0,0.0,0.0,0.0,0.0,0.0,0.0,0.0,0.0,0.0,0.0,0.0,0.0106775604133
1756813552377783000,89,1756813552377783000,map,7.24190764102,2.80204092806,0.0,0.0,0.0,0.779376199525,0.62655625415,0.0155607502133,-0.0139120290439,0.0,0.0,0.0,0.0,-0.0139120290439,0.103396561392,0.0,0.0,0.0,0.0,0.0,0.0,0.0,0.0,0.0,0.0,0.0,0.0,0.0,0.0,0.0,0.0,0.0,0.0,0.0,0.0,0.0,0.0,0.0,0.0,0.0,0.0,0.0,0.00717011014843
1756813553178196000,90,1756813553178196000,map,7.31138412784,2.2971289374,0.0,0.0,0.0,0.77554088255,0.631297346338,0.0143613958727,-0.014252408064,0.0,0.0,0.0,0.0,-0.014252408064,0.101967389905,0.0,0.0,0.0,0.0,0.0,0.0,0.0,0.0,0.0,0.0,0.0,0.0,0.0,0.0,0.0,0.0,0.0,0.0,0.0,0.0,0.0,0.0,0.0,0.0,0.0,0.0,0.0,0.0043862153095
1756813554377664000,91,1756813554377664000,map,7.42129795903,1.50813581433,0.0,0.0,0.0,0.775950798342,0.630793435724,0.0179908965978,-0.0135529452434,0.0,0.0,0.0,0.0,-0.0135529452434,0.104894568357,0.0,0.0,0.0,0.0,0.0,0.0,0.0,0.0,0.0,0.0,0.0,0.0,0.0,0.0,0.0,0.0,0.0,0.0,0.0,0.0,0.0,0.0,0.0,0.0,0.0,0.0,0.0,0.0054495052224
1756813555110928000,92,1756813555110928000,map,7.51754797052,1.04720464885,0.0,0.0,0.0,0.780076669427,0.625683937636,0.0241033575406,-0.01314773162,0.0,0.0,0.0,0.0,-0.01314773162,0.109919917216,0.0,0.0,0.0,0.0,0.0,0.0,0.0,0.0,0.0,0.0,0.0,0.0,0.0,0.0,0.0,0.0,0.0,0.0,0.0,0.0,0.0,0.0,0.0,0.0,0.0,0.0,0.0,0.00547175827254
1756813555777542000,93,1756813555777542000,map,7.56564701238,0.60581595837,0.0,0.0,0.0,0.776937686239,0.629577502538,0.0211582771706,-0.0132784777215,0.0,0.0,0.0,0.0,-0.0132784777215,0.109350195767,0.0,0.0,0.0,0.0,0.0,0.0,0.0,0.0,0.0,0.0,0.0,0.0,0.0,0.0,0.0,0.0,0.0,0.0,0.0,0.0,0.0,0.0,0.0,0.0,0.0,0.0,0.0,0.00372343651155
1756813556511539000,94,1756813556511539000,map,7.608830899,0.161592806578,0.0,0.0,0.0,0.770361164081,0.637607776674,0.0242922396578,-0.0130464372156,0.0,0.0,0.0,0.0,-0.0130464372156,0.113088176443,0.0,0.0,0.0,0.0,0.0,0.0,0.0,0.0,0.0,0.0,0.0,0.0,0.0,0.0,0.0,0.0,0.0,0.0,0.0,0.0,0.0,0.0,0.0,0.0,0.0,0.0,0.0,0.0033015715566
1756813557244886000,95,1756813557244886000,map,7.64342291607,-0.302953172227,0.0,0.0,0.0,0.76282341622,0.6466068633,0.0125796455733,-0.0125881239747,0.0,0.0,0.0,0.0,-0.0125881239747,0.113548925541,0.0,0.0,0.0,0.0,0.0,0.0,0.0,0.0,0.0,0.0,0.0,0.0,0.0,0.0,0.0,0.0,0.0,0.0,0.0,0.0,0.0,0.0,0.0,0.0,0.0,0.0,0.0,0.00208311539855
1756813557977646000,96,1756813557977646000,map,7.69364436484,-0.811821580527,0.0,0.0,0.0,0.761796440243,0.647816473728,0.00920566707251,-0.0128571129351,0.0,0.0,0.0,0.0,-0.0128571129351,0.11207625819,0.0,0.0,0.0,0.0,0.0,0.0,0.0,0.0,0.0,0.0,0.0,0.0,0.0,0.0,0.0,0.0,0.0,0.0,0.0,0.0,0.0,0.0,0.0,0.0,0.0,0.0,0.0,0.00177532430143
1756813558644417000,97,1756813558644417000,map,7.7388991163,-1.18680399407,0.0,0.0,0.0,0.756632980548,0.653839837228,0.00703162835124,-0.013748674299,0.0,0.0,0.0,0.0,-0.013748674299,0.111409007398,0.0,0.0,0.0,0.0,0.0,0.0,0.0,0.0,0.0,0.0,0.0,0.0,0.0,0.0,0.0,0.0,0.0,0.0,0.0,0.0,0.0,0.0,0.0,0.0,0.0,0.0,0.0,0.00150550077504
1756813559447344000,98,1756813559447344000,map,7.82772268559,-1.72929240723,0.0,0.0,0.0,0.765583422812,0.6433366325,0.00666830021816,-0.0136337825798,0.0,0.0,0.0,0.0,-0.0136337825798,0.113733481159,0.0,0.0,0.0,0.0,0.0,0.0,0.0,0.0,0.0,0.0,0.0,0.0,0.0,0.0,0.0,0.0,0.0,0.0,0.0,0.0,0.0,0.0,0.0,0.0,0.0,0.0,0.0,0.00167784108849
1756813560244520000,99,1756813560244520000,map,7.90170417996,-2.22124368878,0.0,0.0,0.0,0.764675549964,0.644415474122,0.00615678459769,-0.0135870119454,0.0,0.0,0.0,0.0,-0.0135870119454,0.111705242847,0.0,0.0,0.0,0.0,0.0,0.0,0.0,0.0,0.0,0.0,0.0,0.0,0.0,0.0,0.0,0.0,0.0,0.0,0.0,0.0,0.0,0.0,0.0,0.0,0.0,0.0,0.0,0.00184216019458
1756813561177652000,100,1756813561177652000,map,7.99018537099,-2.7740370194,0.0,0.0,0.0,0.758026595295,0.652223643259,0.00739689335167,-0.0139190377848,0.0,0.0,0.0,0.0,-0.0139190377848,0.113392782065,0.0,0.0,0.0,0.0,0.0,0.0,0.0,0.0,0.0,0.0,0.0,0.0,0.0,0.0,0.0,0.0,0.0,0.0,0.0,0.0,0.0,0.0,0.0,0.0,0.0,0.0,0.0,0.00317738306599
1756813562111450000,101,1756813562111450000,map,8.09414401623,-3.42178641982,0.0,0.0,0.0,0.758048159453,0.65219858015,0.00844862690805,-0.0146991772381,0.0,0.0,0.0,0.0,-0.0146991772381,0.11662881571,0.0,0.0,0.0,0.0,0.0,0.0,0.0,0.0,0.0,0.0,0.0,0.0,0.0,0.0,0.0,0.0,0.0,0.0,0.0,0.0,0.0,0.0,0.0,0.0,0.0,0.0,0.0,0.00316709526281
1756813563177842000,102,1756813563177842000,map,8.16096552611,-4.05236204335,0.0,0.0,0.0,0.758684957511,0.651457700274,0.0105403712482,-0.0147065311717,0.0,0.0,0.0,0.0,-0.0147065311717,0.112210684007,0.0,0.0,0.0,0.0,0.0,0.0,0.0,0.0,0.0,0.0,0.0,0.0,0.0,0.0,0.0,0.0,0.0,0.0,0.0,0.0,0.0,0.0,0.0,0.0,0.0,0.0,0.0,0.00359287904109
1756813563911573000,103,1756813563911573000,map,8.28594004664,-4.65896074526,0.0,0.0,0.0,0.765967090833,0.642879783288,0.0117003979174,-0.0137310059868,0.0,0.0,0.0,0.0,-0.0137310059868,0.10702567901,0.0,0.0,0.0,0.0,0.0,0.0,0.0,0.0,0.0,0.0,0.0,0.0,0.0,0.0,0.0,0.0,0.0,0.0,0.0,0.0,0.0,0.0,0.0,0.0,0.0,0.0,0.0,0.0032363647846
1756813564777698000,104,1756813564777698000,map,8.33201203282,-5.16650879593,0.0,0.0,0.0,0.764731132805,0.644349512702,0.0123266158125,-0.0143204471998,0.0,0.0,0.0,0.0,-0.0143204471998,0.107514391811,0.0,0.0,0.0,0.0,0.0,0.0,0.0,0.0,0.0,0.0,0.0,0.0,0.0,0.0,0.0,0.0,0.0,0.0,0.0,0.0,0.0,0.0,0.0,0.0,0.0,0.0,0.0,0.00319405725031
1756813565444780000,105,1756813565444780000,map,8.38913452729,-5.63154691936,0.0,0.0,0.0,0.764367497655,0.644780837594,0.0130047346379,-0.0136539712876,0.0,0.0,0.0,0.0,-0.0136539712877,0.1056966918,0.0,0.0,0.0,0.0,0.0,0.0,0.0,0.0,0.0,0.0,0.0,0.0,0.0,0.0,0.0,0.0,0.0,0.0,0.0,0.0,0.0,0.0,0.0,0.0,0.0,0.0,0.0,0.00284741073896
1756813566378305000,106,1756813566378305000,map,8.43958675612,-6.13937756234,0.0,0.0,0.0,0.758744640009,0.65138818784,0.0115216479661,-0.0150683437602,0.0,0.0,0.0,0.0,-0.0150683437602,0.106335005958,0.0,0.0,0.0,0.0,0.0,0.0,0.0,0.0,0.0,0.0,0.0,0.0,0.0,0.0,0.0,0.0,0.0,0.0,0.0,0.0,0.0,0.0,0.0,0.0,0.0,0.0,0.0,0.00283021746578
1756813567244166000,107,1756813567244166000,map,8.54049959678,-6.74282692238,0.0,0.0,0.0,0.763357450594,0.645976317385,0.0108184805967,-0.0159121003606,0.0,0.0,0.0,0.0,-0.0159121003606,0.106781772674,0.0,0.0,0.0,0.0,0.0,0.0,0.0,0.0,0.0,0.0,0.0,0.0,0.0,0.0,0.0,0.0,0.0,0.0,0.0,0.0,0.0,0.0,0.0,0.0,0.0,0.0,0.0,0.00301808455703
1756813568110814000,108,1756813568110814000,map,8.62334906921,-7.27896460794,0.0,0.0,0.0,0.756232757267,0.654302695116,0.011198455688,-0.0156339815642,0.0,0.0,0.0,0.0,-0.0156339815642,0.108307955103,0.0,0.0,0.0,0.0,0.0,0.0,0.0,0.0,0.0,0.0,0.0,0.0,0.0,0.0,0.0,0.0,0.0,0.0,0.0,0.0,0.0,0.0,0.0,0.0,0.0,0.0,0.0,0.00303115002351
1756813568777406000,109,1756813568777406000,map,8.68895944112,-7.69039577671,0.0,0.0,0.0,0.757176153481,0.653210741338,0.0129937295844,-0.0150401662319,0.0,0.0,0.0,0.0,-0.0150401662319,0.106967816758,0.0,0.0,0.0,0.0,0.0,0.0,0.0,0.0,0.0,0.0,0.0,0.0,0.0,0.0,0.0,0.0,0.0,0.0,0.0,0.0,0.0,0.0,0.0,0.0,0.0,0.0,0.0,0.0033525250273
1756813569510686000,110,1756813569510686000,map,8.73603029512,-8.1552818058,0.0,0.0,0.0,0.755118327064,0.655588523491,0.0142325700416,-0.0150306254937,0.0,0.0,0.0,0.0,-0.0150306254937,0.110191596028,0.0,0.0,0.0,0.0,0.0,0.0,0.0,0.0,0.0,0.0,0.0,0.0,0.0,0.0,0.0,0.0,0.0,0.0,0.0,0.0,0.0,0.0,0.0,0.0,0.0,0.0,0.0,0.00324297916286
1756813570777670000,111,1756813570777670000,map,8.84489678346,-8.89541540635,0.0,0.0,0.0,0.757627565244,0.652687116759,0.0217430776346,-0.0149298311405,0.0,0.0,0.0,0.0,-0.0149298311405,0.117259225364,0.0,0.0,0.0,0.0,0.0,0.0,0.0,0.0,0.0,0.0,0.0,0.0,0.0,0.0,0.0,0.0,0.0,0.0,0.0,0.0,0.0,0.0,0.0,0.0,0.0,0.0,0.0,0.0075301459706
1756813572177211000,112,1756813572177211000,map,8.91493644494,-9.42164451758,0.0,0.0,0.0,0.721854014249,0.692045361311,0.0295691649199,-0.0137284819155,0.0,0.0,0.0,0.0,-0.0137284819155,0.12262948621,0.0,0.0,0.0,0.0,0.0,0.0,0.0,0.0,0.0,0.0,0.0,0.0,0.0,0.0,0.0,0.0,0.0,0.0,0.0,0.0,0.0,0.0,0.0,0.0,0.0,0.0,0.0,0.00789254933978
1756813574044728000,113,1756813574044728000,map,8.76417554195,-9.97234292899,0.0,0.0,0.0,0.489582705215,0.871956865192,0.0482015078396,-0.0137865088712,0.0,0.0,0.0,0.0,-0.0137865088712,0.131013843998,0.0,0.0,0.0,0.0,0.0,0.0,0.0,0.0,0.0,0.0,0.0,0.0,0.0,0.0,0.0,0.0,0.0,0.0,0.0,0.0,0.0,0.0,0.0,0.0,0.0,0.0,0.0,0.0122943470423
1756813576177719000,114,1756813576177719000,map,8.34203199487,-10.3363689634,0.0,0.0,0.0,0.153579867854,0.988136237667,0.0628365934687,-0.0251854733474,0.0,0.0,0.0,0.0,-0.0251854733474,0.134421026717,0.0,0.0,0.0,0.0,0.0,0.0,0.0,0.0,0.0,0.0,0.0,0.0,0.0,0.0,0.0,0.0,0.0,0.0,0.0,0.0,0.0,0.0,0.0,0.0,0.0,0.0,0.0,0.0127165898084
1756813577445029000,115,1756813577445029000,map,7.8247213007,-10.3040356512,0.0,0.0,0.0,-0.202843642182,0.979211140064,0.0651903645498,-0.0361103080834,0.0,0.0,0.0,0.0,-0.0361103080834,0.146092283638,0.0,0.0,0.0,0.0,0.0,0.0,0.0,0.0,0.0,0.0,0.0,0.0,0.0,0.0,0.0,0.0,0.0,0.0,0.0,0.0,0.0,0.0,0.0,0.0,0.0,0.0,0.0,0.0151865201595
1756813579844464000,116,1756813579844464000,map,7.19588386248,-9.25971260699,0.0,0.0,0.0,-0.71448463576,0.699651131109,0.147205100045,-0.022558740156,0.0,0.0,0.0,0.0,-0.022558740156,0.247436114729,0.0,0.0,0.0,0.0,0.0,0.0,0.0,0.0,0.0,0.0,0.0,0.0,0.0,0.0,0.0,0.0,0.0,0.0,0.0,0.0,0.0,0.0,0.0,0.0,0.0,0.0,0.0,0.152979231782
1756813580910768000,117,1756813580910768000,map,7.03324117203,-8.43277564512,0.0,0.0,0.0,-0.779930969154,0.625865547346,0.358850891511,0.0218454942023,0.0,0.0,0.0,0.0,0.0218454942023,0.246903944618,0.0,0.0,0.0,0.0,0.0,0.0,0.0,0.0,0.0,0.0,0.0,0.0,0.0,0.0,0.0,0.0,0.0,0.0,0.0,0.0,0.0,0.0,0.0,0.0,0.0,0.0,0.0,0.19021778663
1756813582110963000,118,1756813582110963000,map,6.8293157331,-8.04371535945,0.0,0.0,0.0,-0.720069325269,0.693902130568,0.630493055247,0.0207619222815,0.0,0.0,0.0,0.0,0.0207619222815,0.241028432315,0.0,0.0,0.0,0.0,0.0,0.0,0.0,0.0,0.0,0.0,0.0,0.0,0.0,0.0,0.0,0.0,0.0,0.0,0.0,0.0,0.0,0.0,0.0,0.0,0.0,0.0,0.0,0.178343679013
1756813583311719000,119,1756813583311719000,map,6.47957595837,-7.37456773162,0.0,0.0,0.0,-0.663786400751,0.747922197944,0.65350802628,-0.0222842944185,0.0,0.0,0.0,0.0,-0.0222842944185,0.230565853606,0.0,0.0,0.0,0.0,0.0,0.0,0.0,0.0,0.0,0.0,0.0,0.0,0.0,0.0,0.0,0.0,0.0,0.0,0.0,0.0,0.0,0.0,0.0,0.0,0.0,0.0,0.0,0.105549594943
1756813584445145000,120,1756813584445145000,map,6.1453194939,-6.91136222159,0.0,0.0,0.0,-0.644083718678,0.764955007392,0.396364879641,-0.041794719306,0.0,0.0,0.0,0.0,-0.041794719306,0.22851558454,0.0,0.0,0.0,0.0,0.0,0.0,0.0,0.0,0.0,0.0,0.0,0.0,0.0,0.0,0.0,0.0,0.0,0.0,0.0,0.0,0.0,0.0,0.0,0.0,0.0,0.0,0.0,0.0429463325819
1756813585578191000,121,1756813585578191000,map,6.00702063433,-6.10303590861,0.0,0.0,0.0,-0.648708062655,0.761037350888,0.1765540443,-0.0461193199525,0.0,0.0,0.0,0.0,-0.0461193199525,0.229251778384,0.0,0.0,0.0,0.0,0.0,0.0,0.0,0.0,0.0,0.0,0.0,0.0,0.0,0.0,0.0,0.0,0.0,0.0,0.0,0.0,0.0,0.0,0.0,0.0,0.0,0.0,0.0,0.0157867540615
1756813586711586000,122,1756813586711586000,map,5.86744726823,-5.2023059784,0.0,0.0,0.0,-0.646742310195,0.762708584063,0.0360586929697,-0.035559021542,0.0,0.0,0.0,0.0,-0.035559021542,0.219360728946,0.0,0.0,0.0,0.0,0.0,0.0,0.0,0.0,0.0,0.0,0.0,0.0,0.0,0.0,0.0,0.0,0.0,0.0,0.0,0.0,0.0,0.0,0.0,0.0,0.0,0.0,0.0,0.00504196394655
1756813587644291000,123,1756813587644291000,map,5.82873436669,-5.09177334718,0.0,0.0,0.0,-0.631051381703,0.775741035173,0.0192899304996,-0.0324924740401,0.0,0.0,0.0,0.0,-0.0324924740401,0.217612610148,0.0,0.0,0.0,0.0,0.0,0.0,0.0,0.0,0.0,0.0,0.0,0.0,0.0,0.0,0.0,0.0,0.0,0.0,0.0,0.0,0.0,0.0,0.0,0.0,0.0,0.0,0.0,0.00305096430296
1756813588911489000,124,1756813588911489000,map,5.64352374577,-4.06254549695,0.0,0.0,0.0,-0.630590669701,0.77611558887,0.0186000031181,-0.0335619231208,0.0,0.0,0.0,0.0,-0.0335619231208,0.214624686393,0.0,0.0,0.0,0.0,0.0,0.0,0.0,0.0,0.0,0.0,0.0,0.0,0.0,0.0,0.0,0.0,0.0,0.0,0.0,0.0,0.0,0.0,0.0,0.0,0.0,0.0,0.0,0.00452522632898
1756813590177794000,125,1756813590177794000,map,5.53908187634,-3.55059071477,0.0,0.0,0.0,-0.621455241175,0.783449668592,0.0228200178572,-0.0337881873123,0.0,0.0,0.0,0.0,-0.0337881873123,0.216990349806,0.0,0.0,0.0,0.0,0.0,0.0,0.0,0.0,0.0,0.0,0.0,0.0,0.0,0.0,0.0,0.0,0.0,0.0,0.0,0.0,0.0,0.0,0.0,0.0,0.0,0.0,0.0,0.0068875615133
1756813591578165000,126,1756813591578165000,map,5.3886934018,-2.51710544928,0.0,0.0,0.0,-0.635697301956,0.771938430372,0.0198656922254,-0.0317639684982,0.0,0.0,0.0,0.0,-0.0317639684982,0.223284294086,0.0,0.0,0.0,0.0,0.0,0.0,0.0,0.0,0.0,0.0,0.0,0.0,0.0,0.0,0.0,0.0,0.0,0.0,0.0,0.0,0.0,0.0,0.0,0.0,0.0,0.0,0.0,0.00804692149572
1756813592577741000,127,1756813592577741000,map,5.29630776877,-2.09726048141,0.0,0.0,0.0,-0.626286085479,0.779593316502,0.0150514277774,-0.0319398087754,0.0,0.0,0.0,0.0,-0.0319398087754,0.226433735825,0.0,0.0,0.0,0.0,0.0,0.0,0.0,0.0,0.0,0.0,0.0,0.0,0.0,0.0,0.0,0.0,0.0,0.0,0.0,0.0,0.0,0.0,0.0,0.0,0.0,0.0,0.0,0.00391881336589
1756813593577604000,128,1756813593577604000,map,5.17923467069,-1.43162664742,0.0,0.0,0.0,-0.62087915444,0.783906292603,0.0123597734744,-0.0333134003053,0.0,0.0,0.0,0.0,-0.0333134003053,0.234940311901,0.0,0.0,0.0,0.0,0.0,0.0,0.0,0.0,0.0,0.0,0.0,0.0,0.0,0.0,0.0,0.0,0.0,0.0,0.0,0.0,0.0,0.0,0.0,0.0,0.0,0.0,0.0,0.00294904099482
1756813594511329000,129,1756813594511329000,map,5.08731802733,-0.886382918598,0.0,0.0,0.0,-0.634502064212,0.772921167073,0.0110186070654,-0.0356853347206,0.0,0.0,0.0,0.0,-0.0356853347206,0.244365130233,0.0,0.0,0.0,0.0,0.0,0.0,0.0,0.0,0.0,0.0,0.0,0.0,0.0,0.0,0.0,0.0,0.0,0.0,0.0,0.0,0.0,0.0,0.0,0.0,0.0,0.0,0.0,0.00248918366484
1756813595911382000,130,1756813595911382000,map,4.93910051775,0.0273907886418,0.0,0.0,0.0,-0.64060398884,0.767871427703,0.0129708424876,-0.0362124770077,0.0,0.0,0.0,0.0,-0.0362124770077,0.252261164638,0.0,0.0,0.0,0.0,0.0,0.0,0.0,0.0,0.0,0.0,0.0,0.0,0.0,0.0,0.0,0.0,0.0,0.0,0.0,0.0,0.0,0.0,0.0,0.0,0.0,0.0,0.0,0.00642042950887
1756813597177610000,131,1756813597177610000,map,4.83505707658,0.681872909432,0.0,0.0,0.0,-0.642690283919,0.7661260986,0.0185540937631,-0.0361252455775,0.0,0.0,0.0,0.0,-0.0361252455775,0.256026049667,0.0,0.0,0.0,0.0,0.0,0.0,0.0,0.0,0.0,0.0,0.0,0.0,0.0,0.0,0.0,0.0,0.0,0.0,0.0,0.0,0.0,0.0,0.0,0.0,0.0,0.0,0.0,0.00714714901429
1756813599445115000,132,1756813599445115000,map,4.64198326748,2.06736482399,0.0,0.0,0.0,-0.631506946557,0.77537021896,0.0570517214011,-0.0287750429853,0.0,0.0,0.0,0.0,-0.0287750429853,0.280535909282,0.0,0.0,0.0,0.0,0.0,0.0,0.0,0.0,0.0,0.0,0.0,0.0,0.0,0.0,0.0,0.0,0.0,0.0,0.0,0.0,0.0,0.0,0.0,0.0,0.0,0.0,0.0,0.0346265084688
1756813600710952000,133,1756813600710952000,map,4.5887689503,2.72882398771,0.0,0.0,0.0,-0.646504277606,0.762910361076,0.0659249335727,-0.0269603902461,0.0,0.0,0.0,0.0,-0.0269603902461,0.287423495964,0.0,0.0,0.0,0.0,0.0,0.0,0.0,0.0,0.0,0.0,0.0,0.0,0.0,0.0,0.0,0.0,0.0,0.0,0.0,0.0,0.0,0.0,0.0,0.0,0.0,0.0,0.0,0.01952308115
1756813601711655000,134,1756813601711655000,map,4.49652665986,3.37857694654,0.0,0.0,0.0,-0.647584441872,0.761993694623,0.0460655825006,-0.0313034906752,0.0,0.0,0.0,0.0,-0.0313034906752,0.284226429883,0.0,0.0,0.0,0.0,0.0,0.0,0.0,0.0,0.0,0.0,0.0,0.0,0.0,0.0,0.0,0.0,0.0,0.0,0.0,0.0,0.0,0.0,0.0,0.0,0.0,0.0,0.0,0.00959799139877
1756813602644645000,135,1756813602644645000,map,4.46466012135,3.94790607404,0.0,0.0,0.0,-0.652298415673,0.757962252959,0.0222460850595,-0.0388969123241,0.0,0.0,0.0,0.0,-0.0388969123241,0.268654152608,0.0,0.0,0.0,0.0,0.0,0.0,0.0,0.0,0.0,0.0,0.0,0.0,0.0,0.0,0.0,0.0,0.0,0.0,0.0,0.0,0.0,0.0,0.0,0.0,0.0,0.0,0.0,0.00456976452186
1756813603644097000,136,1756813603644097000,map,4.37872387855,4.60280644798,0.0,0.0,0.0,-0.642522764956,0.76626659624,0.0136810600147,-0.0386191835438,0.0,0.0,0.0,0.0,-0.0386191835438,0.254930342048,0.0,0.0,0.0,0.0,0.0,0.0,0.0,0.0,0.0,0.0,0.0,0.0,0.0,0.0,0.0,0.0,0.0,0.0,0.0,0.0,0.0,0.0,0.0,0.0,0.0,0.0,0.0,0.0033584020109
1756813604711225000,137,1756813604711225000,map,4.27469523385,5.16520146043,0.0,0.0,0.0,-0.632790204493,0.774323289781,0.0143304076717,-0.0342755313461,0.0,0.0,0.0,0.0,-0.0342755313461,0.23821333318,0.0,0.0,0.0,0.0,0.0,0.0,0.0,0.0,0.0,0.0,0.0,0.0,0.0,0.0,0.0,0.0,0.0,0.0,0.0,0.0,0.0,0.0,0.0,0.0,0.0,0.0,0.0,0.0032008769398
1756813605844106000,138,1756813605844106000,map,4.17069330668,5.81024645328,0.0,0.0,0.0,-0.637278034097,0.770633964511,0.0159232178844,-0.0327795526155,0.0,0.0,0.0,0.0,-0.0327795526155,0.228125178175,0.0,0.0,0.0,0.0,0.0,0.0,0.0,0.0,0.0,0.0,0.0,0.0,0.0,0.0,0.0,0.0,0.0,0.0,0.0,0.0,0.0,0.0,0.0,0.0,0.0,0.0,0.0,0.00403988890792
1756813606977460000,139,1756813606977460000,map,4.04809351223,6.36703348235,0.0,0.0,0.0,-0.635946613845,0.771733052511,0.017933601354,-0.031267212117,0.0,0.0,0.0,0.0,-0.031267212117,0.225079153902,0.0,0.0,0.0,0.0,0.0,0.0,0.0,0.0,0.0,0.0,0.0,0.0,0.0,0.0,0.0,0.0,0.0,0.0,0.0,0.0,0.0,0.0,0.0,0.0,0.0,0.0,0.0,0.00515241199248
1756813608044722000,140,1756813608044722000,map,3.98319198044,6.91029215752,0.0,0.0,0.0,-0.619349032738,0.785115772129,0.0142109850879,-0.0320804268296,0.0,0.0,0.0,0.0,-0.0320804268296,0.216285020081,0.0,0.0,0.0,0.0,0.0,0.0,0.0,0.0,0.0,0.0,0.0,0.0,0.0,0.0,0.0,0.0,0.0,0.0,0.0,0.0,0.0,0.0,0.0,0.0,0.0,0.0,0.0,0.00344532424312
1756813609110867000,141,1756813609110867000,map,3.86938160717,7.52072426029,0.0,0.0,0.0,-0.621123876194,0.783712402876,0.0140689733255,-0.0285584222606,0.0,0.0,0.0,0.0,-0.0285584222606,0.190654307398,0.0,0.0,0.0,0.0,0.0,0.0,0.0,0.0,0.0,0.0,0.0,0.0,0.0,0.0,0.0,0.0,0.0,0.0,0.0,0.0,0.0,0.0,0.0,0.0,0.0,0.0,0.0,0.00393724323552
1756813610577751000,142,1756813610577751000,map,3.70621997054,8.30068847841,0.0,0.0,0.0,-0.621111608999,0.78372212497,0.0188239546349,-0.0301267195979,0.0,0.0,0.0,0.0,-0.0301267195979,0.192799497623,0.0,0.0,0.0,0.0,0.0,0.0,0.0,0.0,0.0,0.0,0.0,0.0,0.0,0.0,0.0,0.0,0.0,0.0,0.0,0.0,0.0,0.0,0.0,0.0,0.0,0.0,0.0,0.0071849493536
1756813612311323000,143,1756813612311323000,map,3.50105912458,9.24416272798,0.0,0.0,0.0,-0.612970036483,0.790106153864,0.0255020070475,-0.0240955031359,0.0,0.0,0.0,0.0,-0.0240955031359,0.160931825571,0.0,0.0,0.0,0.0,0.0,0.0,0.0,0.0,0.0,0.0,0.0,0.0,0.0,0.0,0.0,0.0,0.0,0.0,0.0,0.0,0.0,0.0,0.0,0.0,0.0,0.0,0.0,0.0153921650782
1756813613110723000,144,1756813613110723000,map,3.40810811061,9.65473446817,0.0,0.0,0.0,-0.608591558498,0.793483657629,0.0268535861713,-0.0185546118746,0.0,0.0,0.0,0.0,-0.0185546118746,0.141057497164,0.0,0.0,0.0,0.0,0.0,0.0,0.0,0.0,0.0,0.0,0.0,0.0,0.0,0.0,0.0,0.0,0.0,0.0,0.0,0.0,0.0,0.0,0.0,0.0,0.0,0.0,0.0,0.0109791611119
1756813613911300000,145,1756813613911300000,map,3.31518761828,10.0514185544,0.0,0.0,0.0,-0.607862707668,0.794042145372,0.0334004964875,-0.0178428173563,0.0,0.0,0.0,0.0,-0.0178428173563,0.113393133894,0.0,0.0,0.0,0.0,0.0,0.0,0.0,0.0,0.0,0.0,0.0,0.0,0.0,0.0,0.0,0.0,0.0,0.0,0.0,0.0,0.0,0.0,0.0,0.0,0.0,0.0,0.0,0.00997072491738
1756813614978159000,146,1756813614978159000,map,3.2241012867,10.5710300307,0.0,0.0,0.0,-0.609864817834,0.792505459898,0.0304767450122,-0.00789889070663,0.0,0.0,0.0,0.0,-0.00789889070663,0.0728099717995,0.0,0.0,0.0,0.0,0.0,0.0,0.0,0.0,0.0,0.0,0.0,0.0,0.0,0.0,0.0,0.0,0.0,0.0,0.0,0.0,0.0,0.0,0.0,0.0,0.0,0.0,0.0,0.00865742020907
1756813615911271000,147,1756813615911271000,map,3.08798498777,11.0335219877,0.0,0.0,0.0,-0.546435795827,0.837500997634,0.0372676803993,-0.00477822063984,0.0,0.0,0.0,0.0,-0.00477822063984,0.0679774484067,0.0,0.0,0.0,0.0,0.0,0.0,0.0,0.0,0.0,0.0,0.0,0.0,0.0,0.0,0.0,0.0,0.0,0.0,0.0,0.0,0.0,0.0,0.0,0.0,0.0,0.0,0.0,0.00778950195989
1756813617044618000,148,1756813617044618000,map,2.77494866452,11.456200939,0.0,0.0,0.0,-0.422430439242,0.906395346415,0.0430572549013,0.00364655339989,0.0,0.0,0.0,0.0,0.00364655339989,0.065906359527,0.0,0.0,0.0,0.0,0.0,0.0,0.0,0.0,0.0,0.0,0.0,0.0,0.0,0.0,0.0,0.0,0.0,0.0,0.0,0.0,0.0,0.0,0.0,0.0,0.0,0.0,0.0,0.00865964701244
1756813618044022000,149,1756813618044022000,map,2.37047244931,11.8922813473,0.0,0.0,0.0,-0.231994705569,0.972717048575,0.0603097879853,0.0123656883346,0.0,0.0,0.0,0.0,0.0123656883346,0.0737996881658,0.0,0.0,0.0,0.0,0.0,0.0,0.0,0.0,0.0,0.0,0.0,0.0,0.0,0.0,0.0,0.0,0.0,0.0,0.0,0.0,0.0,0.0,0.0,0.0,0.0,0.0,0.0,0.0118306467972
1756813619311066000,150,1756813619311066000,map,1.68050551734,11.90952697,0.0,0.0,0.0,0.120070727725,0.992765340019,0.0714395000978,0.0282312626066,0.0,0.0,0.0,0.0,0.0282312626066,0.0939252994889,0.0,0.0,0.0,0.0,0.0,0.0,0.0,0.0,0.0,0.0,0.0,0.0,0.0,0.0,0.0,0.0,0.0,0.0,0.0,0.0,0.0,0.0,0.0,0.0,0.0,0.0,0.0,0.0211395098387
1756813622244406000,151,1756813622244406000,map,1.15683675611,10.7267328649,0.0,0.0,0.0,0.861415521394,0.507900875665,0.335738631022,0.00424436316529,0.0,0.0,0.0,0.0,0.00424436316529,0.301938398012,0.0,0.0,0.0,0.0,0.0,0.0,0.0,0.0,0.0,0.0,0.0,0.0,0.0,0.0,0.0,0.0,0.0,0.0,0.0,0.0,0.0,0.0,0.0,0.0,0.0,0.0,0.0,0.297872847547
1756813623243853000,152,1756813623243853000,map,1.36632817924,10.3343367328,0.0,0.0,0.0,0.892425963487,0.451193860434,0.49090079792,0.0433040419102,0.0,0.0,0.0,0.0,0.0433040419102,0.291748432381,0.0,0.0,0.0,0.0,0.0,0.0,0.0,0.0,0.0,0.0,0.0,0.0,0.0,0.0,0.0,0.0,0.0,0.0,0.0,0.0,0.0,0.0,0.0,0.0,0.0,0.0,0.0,0.29495547668
1756813624510597000,153,1756813624510597000,map,1.36247057544,9.717521791,0.0,0.0,0.0,0.857153132551,0.515061653938,0.659849584596,0.15627802008,0.0,0.0,0.0,0.0,0.15627802008,0.345083460192,0.0,0.0,0.0,0.0,0.0,0.0,0.0,0.0,0.0,0.0,0.0,0.0,0.0,0.0,0.0,0.0,0.0,0.0,0.0,0.0,0.0,0.0,0.0,0.0,0.0,0.0,0.0,0.247062650719
1756813625443968000,154,1756813625443968000,map,1.28253071293,9.10933265669,0.0,0.0,0.0,0.819654786198,0.572857775947,0.535824984518,0.167971859195,0.0,0.0,0.0,0.0,0.167971859195,0.349730966778,0.0,0.0,0.0,0.0,0.0,0.0,0.0,0.0,0.0,0.0,0.0,0.0,0.0,0.0,0.0,0.0,0.0,0.0,0.0,0.0,0.0,0.0,0.0,0.0,0.0,0.0,0.0,0.143281960029
1756813626244639000,155,1756813626244639000,map,1.21178375673,8.58513555642,0.0,0.0,0.0,0.779232141311,0.626735406649,0.181907744667,0.0468712731927,0.0,0.0,0.0,0.0,0.0468712731927,0.265876568221,0.0,0.0,0.0,0.0,0.0,0.0,0.0,0.0,0.0,0.0,0.0,0.0,0.0,0.0,0.0,0.0,0.0,0.0,0.0,0.0,0.0,0.0,0.0,0.0,0.0,0.0,0.0,0.0378696664065
1756813627177966000,156,1756813627177966000,map,1.32635424612,7.96323625306,0.0,0.0,0.0,0.781376754224,0.624059586865,0.0813674976953,0.00298054744292,0.0,0.0,0.0,0.0,0.00298054744292,0.236348610759,0.0,0.0,0.0,0.0,0.0,0.0,0.0,0.0,0.0,0.0,0.0,0.0,0.0,0.0,0.0,0.0,0.0,0.0,0.0,0.0,0.0,0.0,0.0,0.0,0.0,0.0,0.0,0.0141506494357
1756813628044505000,157,1756813628044505000,map,1.43111166853,7.49407450687,0.0,0.0,0.0,0.77855001597,0.627582562404,0.0334661466712,-0.0192416557576,0.0,0.0,0.0,0.0,-0.0192416557576,0.205807999461,0.0,0.0,0.0,0.0,0.0,0.0,0.0,0.0,0.0,0.0,0.0,0.0,0.0,0.0,0.0,0.0,0.0,0.0,0.0,0.0,0.0,0.0,0.0,0.0,0.0,0.0,0.0,0.00575149836058
1756813629043885000,158,1756813629043885000,map,1.55763603171,6.92074067291,0.0,0.0,0.0,0.776097558125,0.630612860852,0.0243176134314,-0.0238524023488,0.0,0.0,0.0,0.0,-0.0238524023488,0.194590770897,0.0,0.0,0.0,0.0,0.0,0.0,0.0,0.0,0.0,0.0,0.0,0.0,0.0,0.0,0.0,0.0,0.0,0.0,0.0,0.0,0.0,0.0,0.0,0.0,0.0,0.0,0.0,0.00464175825776
1756813630111078000,159,1756813630111078000,map,1.7172190648,6.18238947626,0.0,0.0,0.0,0.781861930978,0.623451618722,0.0166631712871,-0.0267044411742,0.0,0.0,0.0,0.0,-0.0267044411742,0.182317098721,0.0,0.0,0.0,0.0,0.0,0.0,0.0,0.0,0.0,0.0,0.0,0.0,0.0,0.0,0.0,0.0,0.0,0.0,0.0,0.0,0.0,0.0,0.0,0.0,0.0,0.0,0.0,0.00542315513544
1756813631110323000,160,1756813631110323000,map,1.82003304808,5.58030418335,0.0,0.0,0.0,0.776671106493,0.629906336164,0.0195260672641,-0.0256323750275,0.0,0.0,0.0,0.0,-0.0256323750275,0.170972331732,0.0,0.0,0.0,0.0,0.0,0.0,0.0,0.0,0.0,0.0,0.0,0.0,0.0,0.0,0.0,0.0,0.0,0.0,0.0,0.0,0.0,0.0,0.0,0.0,0.0,0.0,0.0,0.00373421923455
1756813632311005000,161,1756813632311005000,map,1.958535069,4.82129645921,0.0,0.0,0.0,0.77098665796,0.636851296024,0.0175950749104,-0.0230432826213,0.0,0.0,0.0,0.0,-0.0230432826213,0.153807435972,0.0,0.0,0.0,0.0,0.0,0.0,0.0,0.0,0.0,0.0,0.0,0.0,0.0,0.0,0.0,0.0,0.0,0.0,0.0,0.0,0.0,0.0,0.0,0.0,0.0,0.0,0.0,0.00429798590087
1756813632977912000,162,1756813632977912000,map,2.02641463515,4.38269204376,0.0,0.0,0.0,0.7606909006,0.64911428404,0.0131384358203,-0.0232795640496,0.0,0.0,0.0,0.0,-0.0232795640496,0.153396835763,0.0,0.0,0.0,0.0,0.0,0.0,0.0,0.0,0.0,0.0,0.0,0.0,0.0,0.0,0.0,0.0,0.0,0.0,0.0,0.0,0.0,0.0,0.0,0.0,0.0,0.0,0.0,0.00294161750602
1756813633844103000,163,1756813633844103000,map,2.08213766229,3.86864403071,0.0,0.0,0.0,0.759828939854,0.650123051553,0.0109049576172,-0.0222710798361,0.0,0.0,0.0,0.0,-0.0222710798361,0.1486209444,0.0,0.0,0.0,0.0,0.0,0.0,0.0,0.0,0.0,0.0,0.0,0.0,0.0,0.0,0.0,0.0,0.0,0.0,0.0,0.0,0.0,0.0,0.0,0.0,0.0,0.0,0.0,0.00289625495378
1756813634710556000,164,1756813634710556000,map,2.14679754543,3.33353702774,0.0,0.0,0.0,0.749408426693,0.662108004786,0.0110079008013,-0.0212786661512,0.0,0.0,0.0,0.0,-0.0212786661512,0.149544976235,0.0,0.0,0.0,0.0,0.0,0.0,0.0,0.0,0.0,0.0,0.0,0.0,0.0,0.0,0.0,0.0,0.0,0.0,0.0,0.0,0.0,0.0,0.0,0.0,0.0,0.0,0.0,0.00249953077405
1756813635377524000,165,1756813635377524000,map,2.18582147585,2.86300974409,0.0,0.0,0.0,0.745949766376,0.66600221174,0.0111844147608,-0.0194929924559,0.0,0.0,0.0,0.0,-0.0194929924559,0.143999592416,0.0,0.0,0.0,0.0,0.0,0.0,0.0,0.0,0.0,0.0,0.0,0.0,0.0,0.0,0.0,0.0,0.0,0.0,0.0,0.0,0.0,0.0,0.0,0.0,0.0,0.0,0.0,0.00247891038987
1756813636377976000,166,1756813636377976000,map,2.25532615178,2.19030642434,0.0,0.0,0.0,0.747318466021,0.664466034003,0.0118366466885,-0.0190228334499,0.0,0.0,0.0,0.0,-0.0190228334499,0.144124618841,0.0,0.0,0.0,0.0,0.0,0.0,0.0,0.0,0.0,0.0,0.0,0.0,0.0,0.0,0.0,0.0,0.0,0.0,0.0,0.0,0.0,0.0,0.0,0.0,0.0,0.0,0.0,0.00303642527146
1756813637044486000,167,1756813637044486000,map,2.26089874862,1.78583493327,0.0,0.0,0.0,0.745634123864,0.666355575747,0.0109880694446,-0.0196034901555,0.0,0.0,0.0,0.0,-0.0196034901555,0.148648418133,0.0,0.0,0.0,0.0,0.0,0.0,0.0,0.0,0.0,0.0,0.0,0.0,0.0,0.0,0.0,0.0,0.0,0.0,0.0,0.0,0.0,0.0,0.0,0.0,0.0,0.0,0.0,0.00250781041223
1756813637977678000,168,1756813637977678000,map,2.33611727609,1.19197243356,0.0,0.0,0.0,0.748682668619,0.662928549475,0.0114451232718,-0.0197412381475,0.0,0.0,0.0,0.0,-0.0197412381475,0.14734200509,0.0,0.0,0.0,0.0,0.0,0.0,0.0,0.0,0.0,0.0,0.0,0.0,0.0,0.0,0.0,0.0,0.0,0.0,0.0,0.0,0.0,0.0,0.0,0.0,0.0,0.0,0.0,0.0026585303247
1756813638977146000,169,1756813638977146000,map,2.39887892067,0.524356799348,0.0,0.0,0.0,0.749647527574,0.661837279399,0.0105425554803,-0.0198639305947,0.0,0.0,0.0,0.0,-0.0198639305947,0.149425694925,0.0,0.0,0.0,0.0,0.0,0.0,0.0,0.0,0.0,0.0,0.0,0.0,0.0,0.0,0.0,0.0,0.0,0.0,0.0,0.0,0.0,0.0,0.0,0.0,0.0,0.0,0.0,0.00307206232327
1756813639977680000,170,1756813639977680000,map,2.47040656652,-0.116367191167,0.0,0.0,0.0,0.750791257152,0.660539543241,0.00964711300057,-0.0216743914154,0.0,0.0,0.0,0.0,-0.0216743914154,0.154033613447,0.0,0.0,0.0,0.0,0.0,0.0,0.0,0.0,0.0,0.0,0.0,0.0,0.0,0.0,0.0,0.0,0.0,0.0,0.0,0.0,0.0,0.0,0.0,0.0,0.0,0.0,0.0,0.00267353432342
1756813641043834000,171,1756813641043834000,map,2.53925034862,-0.722231297992,0.0,0.0,0.0,0.751908241038,0.659267773412,0.0109171900181,-0.0228278773242,0.0,0.0,0.0,0.0,-0.0228278773242,0.155212761507,0.0,0.0,0.0,0.0,0.0,0.0,0.0,0.0,0.0,0.0,0.0,0.0,0.0,0.0,0.0,0.0,0.0,0.0,0.0,0.0,0.0,0.0,0.0,0.0,0.0,0.0,0.0,0.00363977233704
1756813641978026000,172,1756813641978026000,map,2.61014214094,-1.30433861614,0.0,0.0,0.0,0.755785637073,0.654819113034,0.0115044673076,-0.0234483796144,0.0,0.0,0.0,0.0,-0.0234483796144,0.154659949392,0.0,0.0,0.0,0.0,0.0,0.0,0.0,0.0,0.0,0.0,0.0,0.0,0.0,0.0,0.0,0.0,0.0,0.0,0.0,0.0,0.0,0.0,0.0,0.0,0.0,0.0,0.0,0.00347297288026
1756813642911044000,173,1756813642911044000,map,2.65941328361,-1.88127799724,0.0,0.0,0.0,0.755918896517,0.654665274693,0.00965298722209,-0.0220187056967,0.0,0.0,0.0,0.0,-0.0220187056967,0.149878908849,0.0,0.0,0.0,0.0,0.0,0.0,0.0,0.0,0.0,0.0,0.0,0.0,0.0,0.0,0.0,0.0,0.0,0.0,0.0,0.0,0.0,0.0,0.0,0.0,0.0,0.0,0.0,0.0029675455847
1756813644044392000,174,1756813644044392000,map,2.74844267348,-2.54040331576,0.0,0.0,0.0,0.762588527278,0.646883867525,0.0117732285119,-0.0216343866723,0.0,0.0,0.0,0.0,-0.0216343866723,0.149065026058,0.0,0.0,0.0,0.0,0.0,0.0,0.0,0.0,0.0,0.0,0.0,0.0,0.0,0.0,0.0,0.0,0.0,0.0,0.0,0.0,0.0,0.0,0.0,0.0,0.0,0.0,0.0,0.00467222154611
1756813645243600000,175,1756813645243600000,map,2.84817829631,-3.33552511209,0.0,0.0,0.0,0.757858585673,0.652418856351,0.0141320912789,-0.019957590385,0.0,0.0,0.0,0.0,-0.019957590385,0.140275070919,0.0,0.0,0.0,0.0,0.0,0.0,0.0,0.0,0.0,0.0,0.0,0.0,0.0,0.0,0.0,0.0,0.0,0.0,0.0,0.0,0.0,0.0,0.0,0.0,0.0,0.0,0.0,0.00576528583305
1756813646310962000,176,1756813646310962000,map,2.8968931248,-3.96002419018,0.0,0.0,0.0,0.760000938064,0.649921975427,0.0161244930908,-0.0206635776779,0.0,0.0,0.0,0.0,-0.0206635776779,0.140150936324,0.0,0.0,0.0,0.0,0.0,0.0,0.0,0.0,0.0,0.0,0.0,0.0,0.0,0.0,0.0,0.0,0.0,0.0,0.0,0.0,0.0,0.0,0.0,0.0,0.0,0.0,0.0,0.00497350863149
1756813647043676000,177,1756813647043676000,map,2.93216619705,-4.47376255548,0.0,0.0,0.0,0.777144765912,0.629321867422,0.0116974781929,-0.0194232713011,0.0,0.0,0.0,0.0,-0.0194232713011,0.135399484592,0.0,0.0,0.0,0.0,0.0,0.0,0.0,0.0,0.0,0.0,0.0,0.0,0.0,0.0,0.0,0.0,0.0,0.0,0.0,0.0,0.0,0.0,0.0,0.0,0.0,0.0,0.0,0.00342056243399
1756813647977122000,178,1756813647977122000,map,3.01487772839,-5.04504311503,0.0,0.0,0.0,0.769425876487,0.638736111858,0.0134917699582,-0.0200684489073,0.0,0.0,0.0,0.0,-0.0200684489073,0.134458427513,0.0,0.0,0.0,0.0,0.0,0.0,0.0,0.0,0.0,0.0,0.0,0.0,0.0,0.0,0.0,0.0,0.0,0.0,0.0,0.0,0.0,0.0,0.0,0.0,0.0,0.0,0.0,0.00347944356551
1756813648643758000,179,1756813648643758000,map,3.03588672625,-5.45873606419,0.0,0.0,0.0,0.768804676118,0.639483674522,0.0124300185486,-0.0176860336353,0.0,0.0,0.0,0.0,-0.0176860336353,0.115391267336,0.0,0.0,0.0,0.0,0.0,0.0,0.0,0.0,0.0,0.0,0.0,0.0,0.0,0.0,0.0,0.0,0.0,0.0,0.0,0.0,0.0,0.0,0.0,0.0,0.0,0.0,0.0,0.00291659423617
1756813649577156000,180,1756813649577156000,map,3.10321054888,-5.95134397559,0.0,0.0,0.0,0.772643395862,0.634840281355,0.0121496848642,-0.0161399482282,0.0,0.0,0.0,0.0,-0.0161399482282,0.0974640078556,0.0,0.0,0.0,0.0,0.0,0.0,0.0,0.0,0.0,0.0,0.0,0.0,0.0,0.0,0.0,0.0,0.0,0.0,0.0,0.0,0.0,0.0,0.0,0.0,0.0,0.0,0.0,0.00315118312129
1756813650243765000,181,1756813650243765000,map,3.15822113337,-6.35512725021,0.0,0.0,0.0,0.77146906341,0.63626683412,0.00953584052338,-0.014752433795,0.0,0.0,0.0,0.0,-0.014752433795,0.0860429154511,0.0,0.0,0.0,0.0,0.0,0.0,0.0,0.0,0.0,0.0,0.0,0.0,0.0,0.0,0.0,0.0,0.0,0.0,0.0,0.0,0.0,0.0,0.0,0.0,0.0,0.0,0.0,0.00215106840043
