%time,field.header.seq,field.header.stamp,field.header.frame_id,field.pose.pose.position.x,field.pose.pose.position.y,field.pose.pose.position.z,field.pose.pose.orientation.x,field.pose.pose.orientation.y,field.pose.pose.orientation.z,field.pose.pose.orientation.w,field.pose.covariance0,field.pose.covariance1,field.pose.covariance2,field.pose.covariance3,field.pose.covariance4,field.pose.covariance5,field.pose.covariance6,field.pose.covariance7,field.pose.covariance8,field.pose.covariance9,field.pose.covariance10,field.pose.covariance11,field.pose.covariance12,field.pose.covariance13,field.pose.covariance14,field.pose.covariance15,field.pose.covariance16,field.pose.covariance17,field.pose.covariance18,field.pose.covariance19,field.pose.covariance20,field.pose.covariance21,field.pose.covariance22,field.pose.covariance23,field.pose.covariance24,field.pose.covariance25,field.pose.covariance26,field.pose.covariance27,field.pose.covariance28,field.pose.covariance29,field.pose.covariance30,field.pose.covariance31,field.pose.covariance32,field.pose.covariance33,field.pose.covariance34,field.pose.covariance35
1756812887581191000,0,1756812887581191000,map,-0.247025789976,0.0477013151936,0.0,0.0,0.0,0.0021521346991,0.999997684155,24.0078305631,0.143520434546,0.0,0.0,0.0,0.0,0.143520434546,14.1969249404,0.0,0.0,0.0,0.0,0.0,0.0,0.0,0.0,0.0,0.0,0.0,0.0,0.0,0.0,0.0,0.0,0.0,0.0,0.0,0.0,0.0,0.0,0.0,0.0,0.0,0.0,0.0,0.102490396714
1756812903847581000,1,1756812903847581000,map,-11.0833780677,-12.2136096988,0.0,0.0,0.0,-0.690608206847,0.723229081713,0.247658505789,0.000359969451068,0.0,0.0,0.0,0.0,0.000359969451068,0.242900989264,0.0,0.0,0.0,0.0,0.0,0.0,0.0,0.0,0.0,0.0,0.0,0.0,0.0,0.0,0.0,0.0,0.0,0.0,0.0,0.0,0.0,0.0,0.0,0.0,0.0,0.0,0.0,0.0671656724325
1756812926181059000,2,1756812926181059000,map,-11.0478324107,-11.84283369,0.0,0.0,0.0,-0.689979403747,0.723829000804,0.201467352336,0.00226644560104,0.0,0.0,0.0,0.0,0.00226644560104,0.241252157832,0.0,0.0,0.0,0.0,0.0,0.0,0.0,0.0,0.0,0.0,0.0,0.0,0.0,0.0,0.0,0.0,0.0,0.0,0.0,0.0,0.0,0.0,0.0,0.0,0.0,0.0,0.0,0.054338037777
1756812927247646000,3,1756812927247646000,map,-11.044205315,-11.2318284485,0.0,0.0,0.0,-0.676391128033,0.73654262736,0.0988187723078,-0.00553913106475,0.0,0.0,0.0,0.0,-0.00553913106474,0.223499900966,0.0,0.0,0.0,0.0,0.0,0.0,0.0,0.0,0.0,0.0,0.0,0.0,0.0,0.0,0.0,0.0,0.0,0.0,0.0,0.0,0.0,0.0,0.0,0.0,0.0,0.0,0.0,0.0247752101341
1756812928449652000,4,1756812928449652000,map,-11.1030726978,-10.6010794274,0.0,0.0,0.0,-0.669449766223,0.742857328498,0.0465117658269,-0.0164000537915,0.0,0.0,0.0,0.0,-0.0164000537915,0.208100989879,0.0,0.0,0.0,0.0,0.0,0.0,0.0,0.0,0.0,0.0,0.0,0.0,0.0,0.0,0.0,0.0,0.0,0.0,0.0,0.0,0.0,0.0,0.0,0.0,0.0,0.0,0.0,0.0127482629761
1756812929449145000,5,1756812929449145000,map,-11.1452038104,-10.0151011968,0.0,0.0,0.0,-0.668908271161,0.743344956781,0.0176182322741,-0.0210251409557,0.0,0.0,0.0,0.0,-0.0210251409557,0.209738097067,0.0,0.0,0.0,0.0,0.0,0.0,0.0,0.0,0.0,0.0,0.0,0.0,0.0,0.0,0.0,0.0,0.0,0.0,0.0,0.0,0.0,0.0,0.0,0.0,0.0,0.0,0.0,0.00842910819396
1756812930380506000,6,1756812930380506000,map,-11.2206446159,-9.44984699678,0.0,0.0,0.0,-0.658197133492,0.752845623925,0.0101969260864,-0.0250025710251,0.0,0.0,0.0,0.0,-0.0250025710251,0.201868395498,0.0,0.0,0.0,0.0,0.0,0.0,0.0,0.0,0.0,0.0,0.0,0.0,0.0,0.0,0.0,0.0,0.0,0.0,0.0,0.0,0.0,0.0,0.0,0.0,0.0,0.0,0.0,0.00730364576487
1756812931314219000,7,1756812931314219000,map,-11.3232418674,-8.75517584091,0.0,0.0,0.0,-0.655447138512,0.755241053318,0.00987455575168,-0.0257629070894,0.0,0.0,0.0,0.0,-0.0257629070894,0.192510036342,0.0,0.0,0.0,0.0,0.0,0.0,0.0,0.0,0.0,0.0,0.0,0.0,0.0,0.0,0.0,0.0,0.0,0.0,0.0,0.0,0.0,0.0,0.0,0.0,0.0,0.0,0.0,0.00506727776951
1756812932247948000,8,1756812932247948000,map,-11.4164982502,-8.09051386455,0.0,0.0,0.0,-0.649956542119,0.759971376669,0.0124429007239,-0.025245119998,0.0,0.0,0.0,0.0,-0.025245119998,0.171382033471,0.0,0.0,0.0,0.0,0.0,0.0,0.0,0.0,0.0,0.0,0.0,0.0,0.0,0.0,0.0,0.0,0.0,0.0,0.0,0.0,0.0,0.0,0.0,0.0,0.0,0.0,0.0,0.00508372978065
1756812933181031000,9,1756812933181031000,map,-11.5299771477,-7.48888585461,0.0,0.0,0.0,-0.645473618649,0.763782565675,0.0140166935711,-0.0257799489292,0.0,0.0,0.0,0.0,-0.0257799489292,0.170159817259,0.0,0.0,0.0,0.0,0.0,0.0,0.0,0.0,0.0,0.0,0.0,0.0,0.0,0.0,0.0,0.0,0.0,0.0,0.0,0.0,0.0,0.0,0.0,0.0,0.0,0.0,0.0,0.00412708279946
1756812934113765000,10,1756812934113765000,map,-11.6407067877,-6.9086195778,0.0,0.0,0.0,-0.634303220523,0.773084357903,0.0131148014939,-0.023740319619,0.0,0.0,0.0,0.0,-0.023740319619,0.158639469896,0.0,0.0,0.0,0.0,0.0,0.0,0.0,0.0,0.0,0.0,0.0,0.0,0.0,0.0,0.0,0.0,0.0,0.0,0.0,0.0,0.0,0.0,0.0,0.0,0.0,0.0,0.0,0.00308982217438
1756812934914393000,11,1756812934914393000,map,-11.7271966213,-6.40154113222,0.0,0.0,0.0,-0.634531533937,0.772896974014,0.0129202730479,-0.0250085004787,0.0,0.0,0.0,0.0,-0.0250085004787,0.162797174936,0.0,0.0,0.0,0.0,0.0,0.0,0.0,0.0,0.0,0.0,0.0,0.0,0.0,0.0,0.0,0.0,0.0,0.0,0.0,0.0,0.0,0.0,0.0,0.0,0.0,0.0,0.0,0.00299465972634
1756812935713890000,12,1756812935713890000,map,-11.7928020548,-5.96150789763,0.0,0.0,0.0,-0.638805536893,0.769368238254,0.0111671900735,-0.0243927090841,0.0,0.0,0.0,0.0,-0.0243927090841,0.161525125331,0.0,0.0,0.0,0.0,0.0,0.0,0.0,0.0,0.0,0.0,0.0,0.0,0.0,0.0,0.0,0.0,0.0,0.0,0.0,0.0,0.0,0.0,0.0,0.0,0.0,0.0,0.0,0.00238264636708
1756812936514324000,13,1756812936514324000,map,-11.9008491347,-5.42228817455,0.0,0.0,0.0,-0.637897181914,0.770121539308,0.0103650534462,-0.0234173812484,0.0,0.0,0.0,0.0,-0.0234173812484,0.162878474213,0.0,0.0,0.0,0.0,0.0,0.0,0.0,0.0,0.0,0.0,0.0,0.0,0.0,0.0,0.0,0.0,0.0,0.0,0.0,0.0,0.0,0.0,0.0,0.0,0.0,0.0,0.0,0.00204658709006
1756812937313969000,14,1756812937313969000,map,-12.0045171489,-4.90255939747,0.0,0.0,0.0,-0.637889531251,0.770127876343,0.00992878929605,-0.0224233734686,0.0,0.0,0.0,0.0,-0.0224233734686,0.160205284332,0.0,0.0,0.0,0.0,0.0,0.0,0.0,0.0,0.0,0.0,0.0,0.0,0.0,0.0,0.0,0.0,0.0,0.0,0.0,0.0,0.0,0.0,0.0,0.0,0.0,0.0,0.0,0.00212364545415
1756812938114689000,15,1756812938114689000,map,-12.0900289077,-4.37960513621,0.0,0.0,0.0,-0.64456236102,0.764551739751,0.00912525741688,-0.0232162373423,0.0,0.0,0.0,0.0,-0.0232162373423,0.162888071773,0.0,0.0,0.0,0.0,0.0,0.0,0.0,0.0,0.0,0.0,0.0,0.0,0.0,0.0,0.0,0.0,0.0,0.0,0.0,0.0,0.0,0.0,0.0,0.0,0.0,0.0,0.0,0.0018388076759
1756812938913855000,16,1756812938913855000,map,-12.1859852811,-3.8894767836,0.0,0.0,0.0,-0.639730843883,0.768599015993,0.00998756081154,-0.0237319631143,0.0,0.0,0.0,0.0,-0.0237319631143,0.168390279367,0.0,0.0,0.0,0.0,0.0,0.0,0.0,0.0,0.0,0.0,0.0,0.0,0.0,0.0,0.0,0.0,0.0,0.0,0.0,0.0,0.0,0.0,0.0,0.0,0.0,0.0,0.0,0.00202842270018
1756812939714441000,17,1756812939714441000,map,-12.2682171706,-3.40560046343,0.0,0.0,0.0,-0.636506706946,0.771271166331,0.0108144401879,-0.0229817583025,0.0,0.0,0.0,0.0,-0.0229817583025,0.164031329638,0.0,0.0,0.0,0.0,0.0,0.0,0.0,0.0,0.0,0.0,0.0,0.0,0.0,0.0,0.0,0.0,0.0,0.0,0.0,0.0,0.0,0.0,0.0,0.0,0.0,0.0,0.0,0.00248162833034
1756812940513652000,18,1756812940513652000,map,-12.3584990431,-2.81602249199,0.0,0.0,0.0,-0.641442177829,0.767171384048,0.010503725904,-0.0218726363687,0.0,0.0,0.0,0.0,-0.0218726363687,0.156728846317,0.0,0.0,0.0,0.0,0.0,0.0,0.0,0.0,0.0,0.0,0.0,0.0,0.0,0.0,0.0,0.0,0.0,0.0,0.0,0.0,0.0,0.0,0.0,0.0,0.0,0.0,0.0,0.0024452660299
1756812941313899000,19,1756812941313899000,map,-12.4262258582,-2.38335716275,0.0,0.0,0.0,-0.641336342997,0.767259861554,0.0108977516236,-0.0211967633132,0.0,0.0,0.0,0.0,-0.0211967633132,0.157513987422,0.0,0.0,0.0,0.0,0.0,0.0,0.0,0.0,0.0,0.0,0.0,0.0,0.0,0.0,0.0,0.0,0.0,0.0,0.0,0.0,0.0,0.0,0.0,0.0,0.0,0.0,0.0,0.00263372796085
1756812942114290000,20,1756812942114290000,map,-12.5027148385,-1.81830591213,0.0,0.0,0.0,-0.647716508526,0.761881437353,0.00983446798969,-0.0211505401478,0.0,0.0,0.0,0.0,-0.0211505401478,0.153912232251,0.0,0.0,0.0,0.0,0.0,0.0,0.0,0.0,0.0,0.0,0.0,0.0,0.0,0.0,0.0,0.0,0.0,0.0,0.0,0.0,0.0,0.0,0.0,0.0,0.0,0.0,0.0,0.00195390200077
1756812942913805000,21,1756812942913805000,map,-12.5846321767,-1.28863872545,0.0,0.0,0.0,-0.651252428995,0.758861168942,0.0109916509268,-0.019007111234,0.0,0.0,0.0,0.0,-0.019007111234,0.153326483423,0.0,0.0,0.0,0.0,0.0,0.0,0.0,0.0,0.0,0.0,0.0,0.0,0.0,0.0,0.0,0.0,0.0,0.0,0.0,0.0,0.0,0.0,0.0,0.0,0.0,0.0,0.0,0.00218915240041
1756812943847320000,22,1756812943847320000,map,-12.6670339099,-0.752001498678,0.0,0.0,0.0,-0.649756518384,0.76014239904,0.0102627856253,-0.0202120571401,0.0,0.0,0.0,0.0,-0.0202120571401,0.155035148965,0.0,0.0,0.0,0.0,0.0,0.0,0.0,0.0,0.0,0.0,0.0,0.0,0.0,0.0,0.0,0.0,0.0,0.0,0.0,0.0,0.0,0.0,0.0,0.0,0.0,0.0,0.0,0.00258426178255
1756812945047824000,23,1756812945047824000,map,-12.7774715402,0.0399948181436,0.0,0.0,0.0,-0.650978013905,0.759096585036,0.014111312628,-0.0208429597466,0.0,0.0,0.0,0.0,-0.0208429597466,0.157343328286,0.0,0.0,0.0,0.0,0.0,0.0,0.0,0.0,0.0,0.0,0.0,0.0,0.0,0.0,0.0,0.0,0.0,0.0,0.0,0.0,0.0,0.0,0.0,0.0,0.0,0.0,0.0,0.00589446418817
1756812946113843000,24,1756812946113843000,map,-12.8971347273,0.707765557886,0.0,0.0,0.0,-0.649559550695,0.760310719443,0.0185958065577,-0.0220593060724,0.0,0.0,0.0,0.0,-0.0220593060724,0.172983930423,0.0,0.0,0.0,0.0,0.0,0.0,0.0,0.0,0.0,0.0,0.0,0.0,0.0,0.0,0.0,0.0,0.0,0.0,0.0,0.0,0.0,0.0,0.0,0.0,0.0,0.0,0.0,0.0077776000852
1756812947180589000,25,1756812947180589000,map,-12.99496676,1.42554553577,0.0,0.0,0.0,-0.646187172018,0.763178968997,0.0179133254369,-0.0227159997136,0.0,0.0,0.0,0.0,-0.0227159997136,0.173364561124,0.0,0.0,0.0,0.0,0.0,0.0,0.0,0.0,0.0,0.0,0.0,0.0,0.0,0.0,0.0,0.0,0.0,0.0,0.0,0.0,0.0,0.0,0.0,0.0,0.0,0.0,0.0,0.00705920975878
1756812947314314000,26,1756812947314314000,map,-12.9888669193,1.45111572104,0.0,0.0,0.0,-0.649567116853,0.76030425535,0.0118492300222,-0.0235613505662,0.0,0.0,0.0,0.0,-0.0235613505662,0.174925965949,0.0,0.0,0.0,0.0,0.0,0.0,0.0,0.0,0.0,0.0,0.0,0.0,0.0,0.0,0.0,0.0,0.0,0.0,0.0,0.0,0.0,0.0,0.0,0.0,0.0,0.0,0.0,0.00470165695558
1756812948513723000,27,1756812948513723000,map,-13.1042165589,2.23444632743,0.0,0.0,0.0,-0.650749236026,0.759292718135,0.0130423013335,-0.0229886350879,0.0,0.0,0.0,0.0,-0.0229886350879,0.174871423323,0.0,0.0,0.0,0.0,0.0,0.0,0.0,0.0,0.0,0.0,0.0,0.0,0.0,0.0,0.0,0.0,0.0,0.0,0.0,0.0,0.0,0.0,0.0,0.0,0.0,0.0,0.0,0.00583106860695
1756812949713691000,28,1756812949713691000,map,-13.2262273602,3.00732147699,0.0,0.0,0.0,-0.641939694284,0.766755129688,0.0154802116486,-0.0217552922144,0.0,0.0,0.0,0.0,-0.0217552922144,0.172435250412,0.0,0.0,0.0,0.0,0.0,0.0,0.0,0.0,0.0,0.0,0.0,0.0,0.0,0.0,0.0,0.0,0.0,0.0,0.0,0.0,0.0,0.0,0.0,0.0,0.0,0.0,0.0,0.00780344726856
1756812950780509000,29,1756812950780509000,map,-13.3557234235,3.69045099962,0.0,0.0,0.0,-0.637911562474,0.770109627561,0.0134730977323,-0.0207714294304,0.0,0.0,0.0,0.0,-0.0207714294304,0.167870285517,0.0,0.0,0.0,0.0,0.0,0.0,0.0,0.0,0.0,0.0,0.0,0.0,0.0,0.0,0.0,0.0,0.0,0.0,0.0,0.0,0.0,0.0,0.0,0.0,0.0,0.0,0.0,0.0047519111177
1756812951847862000,30,1756812951847862000,map,-13.4693749511,4.3351489281,0.0,0.0,0.0,-0.633663679809,0.773608648408,0.0153673353648,-0.0192614918649,0.0,0.0,0.0,0.0,-0.0192614918649,0.163267294265,0.0,0.0,0.0,0.0,0.0,0.0,0.0,0.0,0.0,0.0,0.0,0.0,0.0,0.0,0.0,0.0,0.0,0.0,0.0,0.0,0.0,0.0,0.0,0.0,0.0,0.0,0.0,0.00474176911283
1756812952914184000,31,1756812952914184000,map,-13.5985311102,5.0420590549,0.0,0.0,0.0,-0.636115118681,0.77159416521,0.0175975524229,-0.0180186113536,0.0,0.0,0.0,0.0,-0.0180186113536,0.155868553505,0.0,0.0,0.0,0.0,0.0,0.0,0.0,0.0,0.0,0.0,0.0,0.0,0.0,0.0,0.0,0.0,0.0,0.0,0.0,0.0,0.0,0.0,0.0,0.0,0.0,0.0,0.0,0.00571513469896
1756812955450293000,32,1756812955450293000,map,-13.8892591274,6.5637729739,0.0,0.0,0.0,-0.614301522006,0.789071378306,0.179639024583,0.00139714491993,0.0,0.0,0.0,0.0,0.00139714491993,0.264440170443,0.0,0.0,0.0,0.0,0.0,0.0,0.0,0.0,0.0,0.0,0.0,0.0,0.0,0.0,0.0,0.0,0.0,0.0,0.0,0.0,0.0,0.0,0.0,0.0,0.0,0.0,0.0,0.173768118959
1756812957047337000,33,1756812957047337000,map,-14.1537298434,7.44955101425,0.0,0.0,0.0,-0.667943256016,0.744212205451,0.387880071365,0.0431661607399,0.0,0.0,0.0,0.0,0.0431661607399,0.283201098224,0.0,0.0,0.0,0.0,0.0,0.0,0.0,0.0,0.0,0.0,0.0,0.0,0.0,0.0,0.0,0.0,0.0,0.0,0.0,0.0,0.0,0.0,0.0,0.0,0.0,0.0,0.0,0.119793873064
1756812957980595000,34,1756812957980595000,map,-13.9598751317,8.04500568907,0.0,0.0,0.0,-0.767468896998,0.641086181523,0.388410435942,0.0111944871994,0.0,0.0,0.0,0.0,0.0111944871994,0.266823878085,0.0,0.0,0.0,0.0,0.0,0.0,0.0,0.0,0.0,0.0,0.0,0.0,0.0,0.0,0.0,0.0,0.0,0.0,0.0,0.0,0.0,0.0,0.0,0.0,0.0,0.0,0.0,0.0780069946224
1756812958981120000,35,1756812958981120000,map,-13.852250576,8.57484835163,0.0,0.0,0.0,-0.815908895646,0.578180485666,0.350621087272,-0.013973115229,0.0,0.0,0.0,0.0,-0.013973115229,0.246681754702,0.0,0.0,0.0,0.0,0.0,0.0,0.0,0.0,0.0,0.0,0.0,0.0,0.0,0.0,0.0,0.0,0.0,0.0,0.0,0.0,0.0,0.0,0.0,0.0,0.0,0.0,0.0,0.0525439955037
1756812959780442000,36,1756812959780442000,map,-13.7014406457,9.13787788942,0.0,0.0,0.0,-0.891121276522,0.453765215205,0.475640220765,-0.136955952675,0.0,0.0,0.0,0.0,-0.136955952675,0.346437339133,0.0,0.0,0.0,0.0,0.0,0.0,0.0,0.0,0.0,0.0,0.0,0.0,0.0,0.0,0.0,0.0,0.0,0.0,0.0,0.0,0.0,0.0,0.0,0.0,0.0,0.0,0.0,0.0698289693038
1756812960780856000,37,1756812960780856000,map,-13.1759891263,9.45267715584,0.0,0.0,0.0,-0.973776105284,0.227508454298,1.30674021018,-1.29357208325,0.0,0.0,0.0,0.0,-1.29357208325,1.86447148278,0.0,0.0,0.0,0.0,0.0,0.0,0.0,0.0,0.0,0.0,0.0,0.0,0.0,0.0,0.0,0.0,0.0,0.0,0.0,0.0,0.0,0.0,0.0,0.0,0.0,0.0,0.0,0.306493735416
1756812961714324000,38,1756812961714324000,map,-10.1219022281,4.92813233527,0.0,0.0,0.0,0.541894971162,0.840446214953,1.64182847663,-2.82228928514,0.0,0.0,0.0,0.0,-2.82228928514,5.41685650701,0.0,0.0,0.0,0.0,0.0,0.0,0.0,0.0,0.0,0.0,0.0,0.0,0.0,0.0,0.0,0.0,0.0,0.0,0.0,0.0,0.0,0.0,0.0,0.0,0.0,0.0,0.0,0.776090879385
1756812962581280000,39,1756812962581280000,map,-10.4539967175,4.55916657345,0.0,0.0,0.0,0.21040258704,0.977614827714,0.303252869542,-0.709578816855,0.0,0.0,0.0,0.0,-0.709578816855,1.98281657609,0.0,0.0,0.0,0.0,0.0,0.0,0.0,0.0,0.0,0.0,0.0,0.0,0.0,0.0,0.0,0.0,0.0,0.0,0.0,0.0,0.0,0.0,0.0,0.0,0.0,0.0,0.0,0.212122515463
1756812963514675000,40,1756812963514675000,map,-11.0068214721,4.49834228676,0.0,0.0,0.0,-0.0649710370187,0.997887150107,0.0446089940496,-0.0971284585439,0.0,0.0,0.0,0.0,-0.0971284585439,0.439870777882,0.0,0.0,0.0,0.0,0.0,0.0,0.0,0.0,0.0,0.0,0.0,0.0,0.0,0.0,0.0,0.0,0.0,0.0,0.0,0.0,0.0,0.0,0.0,0.0,0.0,0.0,0.0,0.0586305896451
1756812964913781000,41,1756812964913781000,map,-11.7927430365,4.56623598207,0.0,0.0,0.0,-0.0424995062277,0.999096487818,0.015736011504,-0.0131311737123,0.0,0.0,0.0,0.0,-0.0131311737123,0.12924702495,0.0,0.0,0.0,0.0,0.0,0.0,0.0,0.0,0.0,0.0,0.0,0.0,0.0,0.0,0.0,0.0,0.0,0.0,0.0,0.0,0.0,0.0,0.0,0.0,0.0,0.0,0.0,0.0315837688879
1756812965913689000,42,1756812965913689000,map,-12.3962441517,4.73636062782,0.0,0.0,0.0,-0.128740958881,0.99167825705,0.0175854798651,0.000775505121986,0.0,0.0,0.0,0.0,0.000775505121986,0.163120257781,0.0,0.0,0.0,0.0,0.0,0.0,0.0,0.0,0.0,0.0,0.0,0.0,0.0,0.0,0.0,0.0,0.0,0.0,0.0,0.0,0.0,0.0,0.0,0.0,0.0,0.0,0.0,0.0402024095653
1756812966914249000,43,1756812966914249000,map,-12.9918667004,5.03723738724,0.0,0.0,0.0,-0.170412889153,0.985372745316,0.0315410580437,0.0217521539372,0.0,0.0,0.0,0.0,0.0217521539372,0.215138946928,0.0,0.0,0.0,0.0,0.0,0.0,0.0,0.0,0.0,0.0,0.0,0.0,0.0,0.0,0.0,0.0,0.0,0.0,0.0,0.0,0.0,0.0,0.0,0.0,0.0,0.0,0.0,0.0501981818703
1756812967847307000,44,1756812967847307000,map,-13.5613062769,5.12815728176,0.0,0.0,0.0,-0.146833327012,0.989161247764,0.13214640908,0.0692904155378,0.0,0.0,0.0,0.0,0.0692904155378,0.288442139802,0.0,0.0,0.0,0.0,0.0,0.0,0.0,0.0,0.0,0.0,0.0,0.0,0.0,0.0,0.0,0.0,0.0,0.0,0.0,0.0,0.0,0.0,0.0,0.0,0.0,0.0,0.0,0.0912874619801
1756812968513660000,45,1756812968513660000,map,-13.9005331457,5.54166271061,0.0,0.0,0.0,-0.206242469684,0.978500916555,0.621261041861,0.0947143276685,0.0,0.0,0.0,0.0,0.0947143276685,0.28891432471,0.0,0.0,0.0,0.0,0.0,0.0,0.0,0.0,0.0,0.0,0.0,0.0,0.0,0.0,0.0,0.0,0.0,0.0,0.0,0.0,0.0,0.0,0.0,0.0,0.0,0.0,0.0,0.258154963021
1756812969381020000,46,1756812969381020000,map,-10.9069111315,5.21273793152,0.0,0.0,0.0,0.734630269934,0.678467660613,3.11361293572,-0.348909957962,0.0,0.0,0.0,0.0,-0.348909957962,0.25381767503,0.0,0.0,0.0,0.0,0.0,0.0,0.0,0.0,0.0,0.0,0.0,0.0,0.0,0.0,0.0,0.0,0.0,0.0,0.0,0.0,0.0,0.0,0.0,0.0,0.0,0.0,0.0,1.27489149534
1756812970313723000,47,1756812970313723000,map,-10.8661059922,4.60357610544,0.0,0.0,0.0,0.731264261482,0.682094260259,2.08154581042,-0.671744012255,0.0,0.0,0.0,0.0,-0.671744012255,0.293071691343,0.0,0.0,0.0,0.0,0.0,0.0,0.0,0.0,0.0,0.0,0.0,0.0,0.0,0.0,0.0,0.0,0.0,0.0,0.0,0.0,0.0,0.0,0.0,0.0,0.0,0.0,0.0,0.45377134976
1756812971313847000,48,1756812971313847000,map,-10.810584342,3.9583065792,0.0,0.0,0.0,0.734284780594,0.678841558089,0.619565940979,-0.282867388529,0.0,0.0,0.0,0.0,-0.282867388529,0.152465641378,0.0,0.0,0.0,0.0,0.0,0.0,0.0,0.0,0.0,0.0,0.0,0.0,0.0,0.0,0.0,0.0,0.0,0.0,0.0,0.0,0.0,0.0,0.0,0.0,0.0,0.0,0.0,0.0856693884316
1756812972113600000,49,1756812972113600000,map,-10.7681147538,3.43328107074,0.0,0.0,0.0,0.768071950209,0.640363552447,0.154069652073,-0.0808915300403,0.0,0.0,0.0,0.0,-0.0808915300403,0.0539300255289,0.0,0.0,0.0,0.0,0.0,0.0,0.0,0.0,0.0,0.0,0.0,0.0,0.0,0.0,0.0,0.0,0.0,0.0,0.0,0.0,0.0,0.0,0.0,0.0,0.0,0.0,0.0,0.0181416080377
1756812972913923000,50,1756812972913923000,map,-10.6965155861,2.93535181343,0.0,0.0,0.0,0.773198187862,0.634164459969,0.0220937612631,-0.011930020523,0.0,0.0,0.0,0.0,-0.0119300205229,0.0156850517694,0.0,0.0,0.0,0.0,0.0,0.0,0.0,0.0,0.0,0.0,0.0,0.0,0.0,0.0,0.0,0.0,0.0,0.0,0.0,0.0,0.0,0.0,0.0,0.0,0.0,0.0,0.0,0.00376603889223
1756812973847520000,51,1756812973847520000,map,-10.5884125025,2.32886079485,0.0,0.0,0.0,0.770330433001,0.63764490431,0.00511963213967,-0.000428264113459,0.0,0.0,0.0,0.0,-0.000428264113459,0.00907531268993,0.0,0.0,0.0,0.0,0.0,0.0,0.0,0.0,0.0,0.0,0.0,0.0,0.0,0.0,0.0,0.0,0.0,0.0,0.0,0.0,0.0,0.0,0.0,0.0,0.0,0.0,0.0,0.00235291839887
1756812976047255000,52,1756812976047255000,map,-10.3388259113,0.99234017163,0.0,0.0,0.0,0.770233084366,0.637762491645,0.107581452827,0.00522712694815,0.0,0.0,0.0,0.0,0.00522712694815,0.0833649109805,0.0,0.0,0.0,0.0,0.0,0.0,0.0,0.0,0.0,0.0,0.0,0.0,0.0,0.0,0.0,0.0,0.0,0.0,0.0,0.0,0.0,0.0,0.0,0.0,0.0,0.0,0.0,0.0946251874571
1756812976847188000,53,1756812976847188000,map,-10.2670247932,0.451509233823,0.0,0.0,0.0,0.782470731867,0.622687364391,0.0706019049077,-0.00179783384704,0.0,0.0,0.0,0.0,-0.00179783384704,0.0815684788537,0.0,0.0,0.0,0.0,0.0,0.0,0.0,0.0,0.0,0.0,0.0,0.0,0.0,0.0,0.0,0.0,0.0,0.0,0.0,0.0,0.0,0.0,0.0,0.0,0.0,0.0,0.0,0.0336999118091
1756812977647761000,54,1756812977647761000,map,-10.1565319237,-0.0378749634445,0.0,0.0,0.0,0.78587914262,0.61838012031,0.0240125093889,-0.00861517820219,0.0,0.0,0.0,0.0,-0.00861517820219,0.0814658599684,0.0,0.0,0.0,0.0,0.0,0.0,0.0,0.0,0.0,0.0,0.0,0.0,0.0,0.0,0.0,0.0,0.0,0.0,0.0,0.0,0.0,0.0,0.0,0.0,0.0,0.0,0.0,0.00882767885068
1756812978581347000,55,1756812978581347000,map,-10.035574245,-0.619464460303,0.0,0.0,0.0,0.787456746409,0.616369915339,0.0101540246149,-0.0104659822835,0.0,0.0,0.0,0.0,-0.0104659822835,0.0837328876822,0.0,0.0,0.0,0.0,0.0,0.0,0.0,0.0,0.0,0.0,0.0,0.0,0.0,0.0,0.0,0.0,0.0,0.0,0.0,0.0,0.0,0.0,0.0,0.0,0.0,0.0,0.0,0.00413165061918
1756812979514209000,56,1756812979514209000,map,-9.89979872676,-1.21378097289,0.0,0.0,0.0,0.785868221346,0.618393999549,0.0076586819861,-0.0111469347786,0.0,0.0,0.0,0.0,-0.0111469347786,0.0863119205998,0.0,0.0,0.0,0.0,0.0,0.0,0.0,0.0,0.0,0.0,0.0,0.0,0.0,0.0,0.0,0.0,0.0,0.0,0.0,0.0,0.0,0.0,0.0,0.0,0.0,0.0,0.0,0.00297043805089
1756812980513573000,57,1756812980513573000,map,-9.76334232002,-1.82083567431,0.0,0.0,0.0,0.78711994947,0.616799955534,0.00868514036654,-0.0100350876044,0.0,0.0,0.0,0.0,-0.0100350876044,0.0863866956604,0.0,0.0,0.0,0.0,0.0,0.0,0.0,0.0,0.0,0.0,0.0,0.0,0.0,0.0,0.0,0.0,0.0,0.0,0.0,0.0,0.0,0.0,0.0,0.0,0.0,0.0,0.0,0.00393574784133
1756812981314245000,58,1756812981314245000,map,-9.66089890623,-2.32818481834,0.0,0.0,0.0,0.776391490196,0.630250945221,0.00682055288108,-0.0103851415687,0.0,0.0,0.0,0.0,-0.0103851415687,0.0839178763258,0.0,0.0,0.0,0.0,0.0,0.0,0.0,0.0,0.0,0.0,0.0,0.0,0.0,0.0,0.0,0.0,0.0,0.0,0.0,0.0,0.0,0.0,0.0,0.0,0.0,0.0,0.0,0.00268557196459
1756812982580986000,59,1756812982580986000,map,-9.51659387793,-3.13855679163,0.0,0.0,0.0,0.769692695289,0.638414563445,0.011906331291,-0.0099862639362,0.0,0.0,0.0,0.0,-0.0099862639362,0.0889519732095,0.0,0.0,0.0,0.0,0.0,0.0,0.0,0.0,0.0,0.0,0.0,0.0,0.0,0.0,0.0,0.0,0.0,0.0,0.0,0.0,0.0,0.0,0.0,0.0,0.0,0.0,0.0,0.00795581053931
1756812983449374000,60,1756812983449374000,map,-9.38991773662,-3.69878213901,0.0,0.0,0.0,0.772288003257,0.635272571441,0.0098193827031,-0.0104357819148,0.0,0.0,0.0,0.0,-0.0104357819148,0.0853532658721,0.0,0.0,0.0,0.0,0.0,0.0,0.0,0.0,0.0,0.0,0.0,0.0,0.0,0.0,0.0,0.0,0.0,0.0,0.0,0.0,0.0,0.0,0.0,0.0,0.0,0.0,0.0,0.00419732574123
1756812984513784000,61,1756812984513784000,map,-9.29756915416,-4.3696850485,0.0,0.0,0.0,0.763781734634,0.645474602009,0.0094147826499,-0.0115107394784,0.0,0.0,0.0,0.0,-0.0115107394784,0.0884220628571,0.0,0.0,0.0,0.0,0.0,0.0,0.0,0.0,0.0,0.0,0.0,0.0,0.0,0.0,0.0,0.0,0.0,0.0,0.0,0.0,0.0,0.0,0.0,0.0,0.0,0.0,0.0,0.00387471745829
1756812985449190000,62,1756812985449190000,map,-9.17871120085,-4.99652583823,0.0,0.0,0.0,0.763608914031,0.645679042878,0.00984861229031,-0.0125563141107,0.0,0.0,0.0,0.0,-0.0125563141107,0.0930988564837,0.0,0.0,0.0,0.0,0.0,0.0,0.0,0.0,0.0,0.0,0.0,0.0,0.0,0.0,0.0,0.0,0.0,0.0,0.0,0.0,0.0,0.0,0.0,0.0,0.0,0.0,0.0,0.00309059944186
1756812986647472000,63,1756812986647472000,map,-9.07259143877,-5.69552866316,0.0,0.0,0.0,0.758509273325,0.651662245554,0.00803562862011,-0.0140794248335,0.0,0.0,0.0,0.0,-0.0140794248335,0.0976768661038,0.0,0.0,0.0,0.0,0.0,0.0,0.0,0.0,0.0,0.0,0.0,0.0,0.0,0.0,0.0,0.0,0.0,0.0,0.0,0.0,0.0,0.0,0.0,0.0,0.0,0.0,0.0,0.00344549399597
1756812987581286000,64,1756812987581286000,map,-8.9743167959,-6.30598854745,0.0,0.0,0.0,0.761175069204,0.648546462501,0.00714205675467,-0.0128609117955,0.0,0.0,0.0,0.0,-0.0128609117956,0.0960092799933,0.0,0.0,0.0,0.0,0.0,0.0,0.0,0.0,0.0,0.0,0.0,0.0,0.0,0.0,0.0,0.0,0.0,0.0,0.0,0.0,0.0,0.0,0.0,0.0,0.0,0.0,0.0,0.00263367658802
1756812988449747000,65,1756812988449747000,map,-8.88469414799,-6.89294292454,0.0,0.0,0.0,0.758140025589,0.652091789244,0.00677318556586,-0.0123525497145,0.0,0.0,0.0,0.0,-0.0123525497145,0.0956018859642,0.0,0.0,0.0,0.0,0.0,0.0,0.0,0.0,0.0,0.0,0.0,0.0,0.0,0.0,0.0,0.0,0.0,0.0,0.0,0.0,0.0,0.0,0.0,0.0,0.0,0.0,0.0,0.00268291501646
1756812989113905000,66,1756812989113905000,map,-8.82810775436,-7.31491517523,0.0,0.0,0.0,0.756057471383,0.654505232955,0.00652290151605,-0.0115399708272,0.0,0.0,0.0,0.0,-0.0115399708272,0.0901226470588,0.0,0.0,0.0,0.0,0.0,0.0,0.0,0.0,0.0,0.0,0.0,0.0,0.0,0.0,0.0,0.0,0.0,0.0,0.0,0.0,0.0,0.0,0.0,0.0,0.0,0.0,0.0,0.00201387942696
1756812989847516000,67,1756812989847516000,map,-8.77000671345,-7.76249032405,0.0,0.0,0.0,0.763609690853,0.645678124172,0.00578009522971,-0.0111918730606,0.0,0.0,0.0,0.0,-0.0111918730606,0.0832405492743,0.0,0.0,0.0,0.0,0.0,0.0,0.0,0.0,0.0,0.0,0.0,0.0,0.0,0.0,0.0,0.0,0.0,0.0,0.0,0.0,0.0,0.0,0.0,0.0,0.0,0.0,0.0,0.00158078342325
1756812991047084000,68,1756812991047084000,map,-8.64259332041,-8.49467466207,0.0,0.0,0.0,0.766769490643,0.641922540669,0.00757670775315,-0.0100655075582,0.0,0.0,0.0,0.0,-0.0100655075582,0.0742172934008,0.0,0.0,0.0,0.0,0.0,0.0,0.0,0.0,0.0,0.0,0.0,0.0,0.0,0.0,0.0,0.0,0.0,0.0,0.0,0.0,0.0,0.0,0.0,0.0,0.0,0.0,0.0,0.0046953614971
1756812991847602000,69,1756812991847602000,map,-8.56347303956,-8.95530850569,0.0,0.0,0.0,0.770575184394,0.637349107786,0.00794011749467,-0.00983628331511,0.0,0.0,0.0,0.0,-0.00983628331512,0.0695347830589,0.0,0.0,0.0,0.0,0.0,0.0,0.0,0.0,0.0,0.0,0.0,0.0,0.0,0.0,0.0,0.0,0.0,0.0,0.0,0.0,0.0,0.0,0.0,0.0,0.0,0.0,0.0,0.00368822333746
1756812992514002000,70,1756812992514002000,map,-8.49097354135,-9.35632177003,0.0,0.0,0.0,0.77226923717,0.635295384306,0.00920625259835,-0.00909229409545,0.0,0.0,0.0,0.0,-0.00909229409545,0.0649977591826,0.0,0.0,0.0,0.0,0.0,0.0,0.0,0.0,0.0,0.0,0.0,0.0,0.0,0.0,0.0,0.0,0.0,0.0,0.0,0.0,0.0,0.0,0.0,0.0,0.0,0.0,0.0,0.00305102605497
1756812993449617000,71,1756812993449617000,map,-8.39388753765,-9.93649277809,0.0,0.0,0.0,0.771927691664,0.635710341934,0.0115908672178,-0.00758739058645,0.0,0.0,0.0,0.0,-0.00758739058645,0.0605294714295,0.0,0.0,0.0,0.0,0.0,0.0,0.0,0.0,0.0,0.0,0.0,0.0,0.0,0.0,0.0,0.0,0.0,0.0,0.0,0.0,0.0,0.0,0.0,0.0,0.0,0.0,0.0,0.0039906969085
1756812994380685000,72,1756812994380685000,map,-8.27787507955,-10.4990099967,0.0,0.0,0.0,0.777410489181,0.628993586066,0.0162400362677,-0.00691390224202,0.0,0.0,0.0,0.0,-0.00691390224202,0.0628122774329,0.0,0.0,0.0,0.0,0.0,0.0,0.0,0.0,0.0,0.0,0.0,0.0,0.0,0.0,0.0,0.0,0.0,0.0,0.0,0.0,0.0,0.0,0.0,0.0,0.0,0.0,0.0,0.00486512530756
1756812995450119000,73,1756812995450119000,map,-8.12681267466,-11.1964268931,0.0,0.0,0.0,0.778421480554,0.627741984109,0.0232536230064,-0.00511177189901,0.0,0.0,0.0,0.0,-0.00511177189901,0.0623630259528,0.0,0.0,0.0,0.0,0.0,0.0,0.0,0.0,0.0,0.0,0.0,0.0,0.0,0.0,0.0,0.0,0.0,0.0,0.0,0.0,0.0,0.0,0.0,0.0,0.0,0.0,0.0,0.00569001243452
1756812996246882000,74,1756812996246882000,map,-8.07057085006,-11.6888072021,0.0,0.0,0.0,0.722701962702,0.691159802872,0.0314160207778,-0.00321909563749,0.0,0.0,0.0,0.0,-0.00321909563749,0.056574295198,0.0,0.0,0.0,0.0,0.0,0.0,0.0,0.0,0.0,0.0,0.0,0.0,0.0,0.0,0.0,0.0,0.0,0.0,0.0,0.0,0.0,0.0,0.0,0.0,0.0,0.0,0.0,0.00592885650772
1756812997180232000,75,1756812997180232000,map,-7.8521689249,-12.2638418514,0.0,0.0,0.0,0.901492410463,0.432794909718,0.0422966447927,-0.000438646644142,0.0,0.0,0.0,0.0,-0.000438646644142,0.0554641102359,0.0,0.0,0.0,0.0,0.0,0.0,0.0,0.0,0.0,0.0,0.0,0.0,0.0,0.0,0.0,0.0,0.0,0.0,0.0,0.0,0.0,0.0,0.0,0.0,0.0,0.0,0.0,0.00828974909562
1756812998246783000,76,1756812998246783000,map,-7.31422970149,-12.6540197324,0.0,0.0,0.0,0.986869611108,0.161518948334,0.058181885242,0.0099139968268,0.0,0.0,0.0,0.0,0.0099139968268,0.0600097616372,0.0,0.0,0.0,0.0,0.0,0.0,0.0,0.0,0.0,0.0,0.0,0.0,0.0,0.0,0.0,0.0,0.0,0.0,0.0,0.0,0.0,0.0,0.0,0.0,0.0,0.0,0.0,0.0143461647637
1756812998980245000,77,1756812998980245000,map,-6.87214252671,-12.7349299996,0.0,0.0,0.0,-0.999745695241,0.0225509389389,0.0607327758837,0.0190857451399,0.0,0.0,0.0,0.0,0.0190857451398,0.0659361153543,0.0,0.0,0.0,0.0,0.0,0.0,0.0,0.0,0.0,0.0,0.0,0.0,0.0,0.0,0.0,0.0,0.0,0.0,0.0,0.0,0.0,0.0,0.0,0.0,0.0,0.0,0.0,0.0164456853582
1756813000980311000,78,1756813000980311000,map,-6.07676959262,-11.9728799322,0.0,0.0,0.0,-0.66911375933,0.743159994265,0.177745328321,0.0289326829317,0.0,0.0,0.0,0.0,0.0289326829317,0.197532587809,0.0,0.0,0.0,0.0,0.0,0.0,0.0,0.0,0.0,0.0,0.0,0.0,0.0,0.0,0.0,0.0,0.0,0.0,0.0,0.0,0.0,0.0,0.0,0.0,0.0,0.0,0.0,0.169275409648
1756813001913128000,79,1756813001913128000,map,-6.23370720789,-11.4991980382,0.0,0.0,0.0,-0.446015196068,0.895025387839,0.272350237908,0.0186264215784,0.0,0.0,0.0,0.0,0.0186264215784,0.1770647047,0.0,0.0,0.0,0.0,0.0,0.0,0.0,0.0,0.0,0.0,0.0,0.0,0.0,0.0,0.0,0.0,0.0,0.0,0.0,0.0,0.0,0.0,0.0,0.0,0.0,0.0,0.0,0.168070740812
1756813002779994000,80,1756813002779994000,map,-6.23212003039,-11.0138478605,0.0,0.0,0.0,-0.564558309313,0.825393188357,0.303055192598,0.0376903213665,0.0,0.0,0.0,0.0,0.0376903213665,0.158522704265,0.0,0.0,0.0,0.0,0.0,0.0,0.0,0.0,0.0,0.0,0.0,0.0,0.0,0.0,0.0,0.0,0.0,0.0,0.0,0.0,0.0,0.0,0.0,0.0,0.0,0.0,0.0,0.132272438927
1756813003713541000,81,1756813003713541000,map,-6.24280074151,-10.4386721576,0.0,0.0,0.0,-0.632239568062,0.77477295292,0.244531266956,0.04052087276,0.0,0.0,0.0,0.0,0.04052087276,0.158447532757,0.0,0.0,0.0,0.0,0.0,0.0,0.0,0.0,0.0,0.0,0.0,0.0,0.0,0.0,0.0,0.0,0.0,0.0,0.0,0.0,0.0,0.0,0.0,0.0,0.0,0.0,0.0,0.070796957944
1756813004714038000,82,1756813004714038000,map,-6.23714748452,-9.92166546283,0.0,0.0,0.0,-0.671961806863,0.740585801996,0.189179357319,0.0347693054426,0.0,0.0,0.0,0.0,0.0347693054426,0.153609858437,0.0,0.0,0.0,0.0,0.0,0.0,0.0,0.0,0.0,0.0,0.0,0.0,0.0,0.0,0.0,0.0,0.0,0.0,0.0,0.0,0.0,0.0,0.0,0.0,0.0,0.0,0.0,0.0396038000081
1756813005713560000,83,1756813005713560000,map,-6.16596946791,-9.26589994773,0.0,0.0,0.0,-0.671700118287,0.740823157773,0.0828282770554,0.00770644163415,0.0,0.0,0.0,0.0,0.00770644163415,0.135758965828,0.0,0.0,0.0,0.0,0.0,0.0,0.0,0.0,0.0,0.0,0.0,0.0,0.0,0.0,0.0,0.0,0.0,0.0,0.0,0.0,0.0,0.0,0.0,0.0,0.0,0.0,0.0,0.01706241799
1756813006846739000,84,1756813006846739000,map,-6.31041018574,-8.57195334257,0.0,0.0,0.0,-0.61334116477,0.789818090195,0.0361847712354,-0.0103194873179,0.0,0.0,0.0,0.0,-0.0103194873179,0.126166001989,0.0,0.0,0.0,0.0,0.0,0.0,0.0,0.0,0.0,0.0,0.0,0.0,0.0,0.0,0.0,0.0,0.0,0.0,0.0,0.0,0.0,0.0,0.0,0.0,0.0,0.0,0.0,0.0113511367041
1756813007713410000,85,1756813007713410000,map,-6.4297441757,-8.00745037991,0.0,0.0,0.0,-0.615746573703,0.787944260067,0.0205225474337,-0.0158213519834,0.0,0.0,0.0,0.0,-0.0158213519834,0.112433925427,0.0,0.0,0.0,0.0,0.0,0.0,0.0,0.0,0.0,0.0,0.0,0.0,0.0,0.0,0.0,0.0,0.0,0.0,0.0,0.0,0.0,0.0,0.0,0.0,0.0,0.0,0.0,0.00724468560107
1756813008847133000,86,1756813008847133000,map,-6.54167560499,-7.34685712358,0.0,0.0,0.0,-0.624852269275,0.780743006105,0.0127871225603,-0.013084925657,0.0,0.0,0.0,0.0,-0.013084925657,0.102942263983,0.0,0.0,0.0,0.0,0.0,0.0,0.0,0.0,0.0,0.0,0.0,0.0,0.0,0.0,0.0,0.0,0.0,0.0,0.0,0.0,0.0,0.0,0.0,0.0,0.0,0.0,0.0,0.00493833524278
1756813010180175000,87,1756813010180175000,map,-6.70191729802,-6.45650628542,0.0,0.0,0.0,-0.615213018954,0.788360920714,0.0126757299183,-0.0133814128249,0.0,0.0,0.0,0.0,-0.0133814128249,0.107808766948,0.0,0.0,0.0,0.0,0.0,0.0,0.0,0.0,0.0,0.0,0.0,0.0,0.0,0.0,0.0,0.0,0.0,0.0,0.0,0.0,0.0,0.0,0.0,0.0,0.0,0.0,0.0,0.00843238893826
1756813011247372000,88,1756813011247372000,map,-6.82463279387,-5.8230453417,0.0,0.0,0.0,-0.612714882071,0.790304038512,0.0143880943486,-0.0106293003293,0.0,0.0,0.0,0.0,-0.0106293003293,0.103754590857,0.0,0.0,0.0,0.0,0.0,0.0,0.0,0.0,0.0,0.0,0.0,0.0,0.0,0.0,0.0,0.0,0.0,0.0,0.0,0.0,0.0,0.0,0.0,0.0,0.0,0.0,0.0,0.00651593428039
1756813012246917000,89,1756813012246917000,map,-6.95218750335,-5.2095471504,0.0,0.0,0.0,-0.614442226447,0.788961818062,0.0157332855012,-0.0101265428143,0.0,0.0,0.0,0.0,-0.0101265428143,0.105144587202,0.0,0.0,0.0,0.0,0.0,0.0,0.0,0.0,0.0,0.0,0.0,0.0,0.0,0.0,0.0,0.0,0.0,0.0,0.0,0.0,0.0,0.0,0.0,0.0,0.0,0.0,0.0,0.00547957735428
1756813013449585000,90,1756813013449585000,map,-7.11521187681,-4.43095436373,0.0,0.0,0.0,-0.653285811985,0.757111384051,0.0186631343428,-0.00982367834657,0.0,0.0,0.0,0.0,-0.00982367834657,0.104490068761,0.0,0.0,0.0,0.0,0.0,0.0,0.0,0.0,0.0,0.0,0.0,0.0,0.0,0.0,0.0,0.0,0.0,0.0,0.0,0.0,0.0,0.0,0.0,0.0,0.0,0.0,0.0,0.00647504775094
1756813014646882000,91,1756813014646882000,map,-7.24460450891,-3.63407629003,0.0,0.0,0.0,-0.662465152985,0.749092731964,0.0168464977373,-0.0105907835253,0.0,0.0,0.0,0.0,-0.0105907835253,0.111474040948,0.0,0.0,0.0,0.0,0.0,0.0,0.0,0.0,0.0,0.0,0.0,0.0,0.0,0.0,0.0,0.0,0.0,0.0,0.0,0.0,0.0,0.0,0.0,0.0,0.0,0.0,0.0,0.00642086871937
1756813015449963000,92,1756813015449963000,map,-7.31137669229,-3.13993464546,0.0,0.0,0.0,-0.660891523349,0.750481441719,0.0129562880908,-0.0133275300737,0.0,0.0,0.0,0.0,-0.0133275300737,0.11177983253,0.0,0.0,0.0,0.0,0.0,0.0,0.0,0.0,0.0,0.0,0.0,0.0,0.0,0.0,0.0,0.0,0.0,0.0,0.0,0.0,0.0,0.0,0.0,0.0,0.0,0.0,0.0,0.0038423769321
1756813016246890000,93,1756813016246890000,map,-7.37329714568,-2.64432998359,0.0,0.0,0.0,-0.66214802584,0.749373065887,0.0125628315502,-0.0136025930872,0.0,0.0,0.0,0.0,-0.0136025930872,0.108947858116,0.0,0.0,0.0,0.0,0.0,0.0,0.0,0.0,0.0,0.0,0.0,0.0,0.0,0.0,0.0,0.0,0.0,0.0,0.0,0.0,0.0,0.0,0.0,0.0,0.0,0.0,0.0,0.0030252687265
1756813017047348000,94,1756813017047348000,map,-7.40517235667,-2.14307528213,0.0,0.0,0.0,-0.670870777314,0.741574271497,0.0100750352639,-0.0133621061752,0.0,0.0,0.0,0.0,-0.0133621061752,0.105451250504,0.0,0.0,0.0,0.0,0.0,0.0,0.0,0.0,0.0,0.0,0.0,0.0,0.0,0.0,0.0,0.0,0.0,0.0,0.0,0.0,0.0,0.0,0.0,0.0,0.0,0.0,0.0,0.00214503522627
1756813018113447000,95,1756813018113447000,map,-7.45274534776,-1.41317483677,0.0,0.0,0.0,-0.678135589072,0.734936815539,0.0110548090051,-0.0142028674492,0.0,0.0,0.0,0.0,-0.0142028674492,0.105727606156,0.0,0.0,0.0,0.0,0.0,0.0,0.0,0.0,0.0,0.0,0.0,0.0,0.0,0.0,0.0,0.0,0.0,0.0,0.0,0.0,0.0,0.0,0.0,0.0,0.0,0.0,0.0,0.00366522086352
1756813019047245000,96,1756813019047245000,map,-7.47194154433,-0.833264787556,0.0,0.0,0.0,-0.669401030198,0.742901245638,0.011294084025,-0.0143997875523,0.0,0.0,0.0,0.0,-0.0143997875523,0.103456960809,0.0,0.0,0.0,0.0,0.0,0.0,0.0,0.0,0.0,0.0,0.0,0.0,0.0,0.0,0.0,0.0,0.0,0.0,0.0,0.0,0.0,0.0,0.0,0.0,0.0,0.0,0.0,0.00339547368685
1756813020313405000,97,1756813020313405000,map,-7.56439641728,-0.00800268073176,0.0,0.0,0.0,-0.637388580627,0.770542534378,0.0100737727648,-0.0149898391934,0.0,0.0,0.0,0.0,-0.0149898391934,0.109600598213,0.0,0.0,0.0,0.0,0.0,0.0,0.0,0.0,0.0,0.0,0.0,0.0,0.0,0.0,0.0,0.0,0.0,0.0,0.0,0.0,0.0,0.0,0.0,0.0,0.0,0.0,0.0,0.00471634023148
1756813021180051000,98,1756813021180051000,map,-7.63895714877,0.540947096603,0.0,0.0,0.0,-0.629704291821,0.776834927679,0.00962830601306,-0.0152193549495,0.0,0.0,0.0,0.0,-0.0152193549495,0.11460880752,0.0,0.0,0.0,0.0,0.0,0.0,0.0,0.0,0.0,0.0,0.0,0.0,0.0,0.0,0.0,0.0,0.0,0.0,0.0,0.0,0.0,0.0,0.0,0.0,0.0,0.0,0.0,0.00338949767115
1756813022047296000,99,1756813022047296000,map,-7.71642515937,1.09591747402,0.0,0.0,0.0,-0.642454801041,0.76632357958,0.00888330163589,-0.0155611181642,0.0,0.0,0.0,0.0,-0.0155611181642,0.117675086803,0.0,0.0,0.0,0.0,0.0,0.0,0.0,0.0,0.0,0.0,0.0,0.0,0.0,0.0,0.0,0.0,0.0,0.0,0.0,0.0,0.0,0.0,0.0,0.0,0.0,0.0,0.0,0.00256814912474
1756813023246839000,100,1756813023246839000,map,-7.8343017927,1.85441725995,0.0,0.0,0.0,-0.652617069251,0.757687904695,0.00941926479896,-0.015427129766,0.0,0.0,0.0,0.0,-0.015427129766,0.12090029151,0.0,0.0,0.0,0.0,0.0,0.0,0.0,0.0,0.0,0.0,0.0,0.0,0.0,0.0,0.0,0.0,0.0,0.0,0.0,0.0,0.0,0.0,0.0,0.0,0.0,0.0,0.0,0.0033783713423
1756813024449385000,101,1756813024449385000,map,-7.9302556142,2.59367783864,0.0,0.0,0.0,-0.649453482464,0.760401324378,0.0102065188593,-0.0161640868892,0.0,0.0,0.0,0.0,-0.0161640868892,0.122756300769,0.0,0.0,0.0,0.0,0.0,0.0,0.0,0.0,0.0,0.0,0.0,0.0,0.0,0.0,0.0,0.0,0.0,0.0,0.0,0.0,0.0,0.0,0.0,0.0,0.0,0.0,0.0,0.00497383694313
1756813025913409000,102,1756813025913409000,map,-8.07300307463,3.5209980732,0.0,0.0,0.0,-0.648466490841,0.761243200466,0.0119733275202,-0.0166727755209,0.0,0.0,0.0,0.0,-0.0166727755209,0.124515339449,0.0,0.0,0.0,0.0,0.0,0.0,0.0,0.0,0.0,0.0,0.0,0.0,0.0,0.0,0.0,0.0,0.0,0.0,0.0,0.0,0.0,0.0,0.0,0.0,0.0,0.0,0.0,0.00691068257848
1756813027513380000,103,1756813027513380000,map,-8.23135860265,4.56986440257,0.0,0.0,0.0,-0.640601983752,0.767873100462,0.0206113359497,-0.0183797478149,0.0,0.0,0.0,0.0,-0.0183797478149,0.133065616389,0.0,0.0,0.0,0.0,0.0,0.0,0.0,0.0,0.0,0.0,0.0,0.0,0.0,0.0,0.0,0.0,0.0,0.0,0.0,0.0,0.0,0.0,0.0,0.0,0.0,0.0,0.0,0.0146387430306
1756813029113357000,104,1756813029113357000,map,-8.34753243711,5.6093486595,0.0,0.0,0.0,-0.642335661415,0.766423445671,0.0324051947285,-0.0165513567167,0.0,0.0,0.0,0.0,-0.0165513567167,0.146503748625,0.0,0.0,0.0,0.0,0.0,0.0,0.0,0.0,0.0,0.0,0.0,0.0,0.0,0.0,0.0,0.0,0.0,0.0,0.0,0.0,0.0,0.0,0.0,0.0,0.0,0.0,0.0,0.0155147690179
1756813030313876000,105,1756813030313876000,map,-8.45106780282,6.24996227073,0.0,0.0,0.0,-0.634956308532,0.772548047862,0.0299230216151,-0.0168940288738,0.0,0.0,0.0,0.0,-0.0168940288738,0.140096883532,0.0,0.0,0.0,0.0,0.0,0.0,0.0,0.0,0.0,0.0,0.0,0.0,0.0,0.0,0.0,0.0,0.0,0.0,0.0,0.0,0.0,0.0,0.0,0.0,0.0,0.0,0.0,0.00891116755677
1756813031180586000,106,1756813031180586000,map,-8.51438908778,6.71022225941,0.0,0.0,0.0,-0.640085222116,0.768303916708,0.0171578797757,-0.0165110667589,0.0,0.0,0.0,0.0,-0.0165110667589,0.129482384357,0.0,0.0,0.0,0.0,0.0,0.0,0.0,0.0,0.0,0.0,0.0,0.0,0.0,0.0,0.0,0.0,0.0,0.0,0.0,0.0,0.0,0.0,0.0,0.0,0.0,0.0,0.0,0.00554764811767
1756813032449038000,107,1756813032449038000,map,-8.65185435235,7.5218737339,0.0,0.0,0.0,-0.628226841302,0.77803022812,0.0196383961189,-0.0147701953293,0.0,0.0,0.0,0.0,-0.0147701953293,0.124503865308,0.0,0.0,0.0,0.0,0.0,0.0,0.0,0.0,0.0,0.0,0.0,0.0,0.0,0.0,0.0,0.0,0.0,0.0,0.0,0.0,0.0,0.0,0.0,0.0,0.0,0.0,0.0,0.00765544796153
1756813033313476000,108,1756813033313476000,map,-8.74186992332,7.94661925003,0.0,0.0,0.0,-0.634715460328,0.772745937822,0.0210739822537,-0.0130209676521,0.0,0.0,0.0,0.0,-0.0130209676521,0.107379855027,0.0,0.0,0.0,0.0,0.0,0.0,0.0,0.0,0.0,0.0,0.0,0.0,0.0,0.0,0.0,0.0,0.0,0.0,0.0,0.0,0.0,0.0,0.0,0.0,0.0,0.0,0.0,0.00621634168716
1756813034449591000,109,1756813034449591000,map,-8.84658909726,8.6777085592,0.0,0.0,0.0,-0.689985405687,0.723823279495,0.0290043502676,-0.0103825038407,0.0,0.0,0.0,0.0,-0.0103825038407,0.10510388881,0.0,0.0,0.0,0.0,0.0,0.0,0.0,0.0,0.0,0.0,0.0,0.0,0.0,0.0,0.0,0.0,0.0,0.0,0.0,0.0,0.0,0.0,0.0,0.0,0.0,0.0,0.0,0.00724319808331
1756813035580839000,110,1756813035580839000,map,-8.69408754878,9.37126161494,0.0,0.0,0.0,-0.807802748447,0.589452898544,0.0466096334191,-0.00552473424284,0.0,0.0,0.0,0.0,-0.00552473424284,0.0967822763665,0.0,0.0,0.0,0.0,0.0,0.0,0.0,0.0,0.0,0.0,0.0,0.0,0.0,0.0,0.0,0.0,0.0,0.0,0.0,0.0,0.0,0.0,0.0,0.0,0.0,0.0,0.0,0.00969977495315
1756813036581253000,111,1756813036581253000,map,-8.39129063003,9.93613820382,0.0,0.0,0.0,-0.904399226725,0.426687284436,0.0626412120418,-0.0107768542659,0.0,0.0,0.0,0.0,-0.0107768542659,0.0928110569506,0.0,0.0,0.0,0.0,0.0,0.0,0.0,0.0,0.0,0.0,0.0,0.0,0.0,0.0,0.0,0.0,0.0,0.0,0.0,0.0,0.0,0.0,0.0,0.0,0.0,0.0,0.0,0.0119749711778
1756813037449048000,112,1756813037449048000,map,-8.04080742269,10.2821913849,0.0,0.0,0.0,-0.96452440926,0.263993681631,0.0827580659964,-0.0201444669609,0.0,0.0,0.0,0.0,-0.020144466961,0.0949346253625,0.0,0.0,0.0,0.0,0.0,0.0,0.0,0.0,0.0,0.0,0.0,0.0,0.0,0.0,0.0,0.0,0.0,0.0,0.0,0.0,0.0,0.0,0.0,0.0,0.0,0.0,0.0,0.01579533119
1756813038180566000,113,1756813038180566000,map,-7.51658244336,10.46061861,0.0,0.0,0.0,-0.995215263402,0.0977065990196,0.088031579902,-0.0304783165505,0.0,0.0,0.0,0.0,-0.0304783165505,0.0972875728345,0.0,0.0,0.0,0.0,0.0,0.0,0.0,0.0,0.0,0.0,0.0,0.0,0.0,0.0,0.0,0.0,0.0,0.0,0.0,0.0,0.0,0.0,0.0,0.0,0.0,0.0,0.0,0.0146857584236
1756813039046993000,114,1756813039046993000,map,-6.95028869167,10.3692843733,0.0,0.0,0.0,0.977809589681,0.209495599783,0.0962229317854,-0.0600436300175,0.0,0.0,0.0,0.0,-0.0600436300175,0.134406099041,0.0,0.0,0.0,0.0,0.0,0.0,0.0,0.0,0.0,0.0,0.0,0.0,0.0,0.0,0.0,0.0,0.0,0.0,0.0,0.0,0.0,0.0,0.0,0.0,0.0,0.0,0.0,0.0170866603138
1756813040047267000,115,1756813040047267000,map,-6.52840250039,9.95959969487,0.0,0.0,0.0,0.814411410544,0.580287906454,0.0834323090697,-0.0609916452111,0.0,0.0,0.0,0.0,-0.0609916452111,0.152963611455,0.0,0.0,0.0,0.0,0.0,0.0,0.0,0.0,0.0,0.0,0.0,0.0,0.0,0.0,0.0,0.0,0.0,0.0,0.0,0.0,0.0,0.0,0.0,0.0,0.0,0.0,0.0,0.0224369206191
1756813041181133000,116,1756813041181133000,map,-6.54591951451,9.1223636221,0.0,0.0,0.0,0.632369997541,0.774666499992,0.0858147056552,-0.0435771748649,0.0,0.0,0.0,0.0,-0.0435771748649,0.162054430565,0.0,0.0,0.0,0.0,0.0,0.0,0.0,0.0,0.0,0.0,0.0,0.0,0.0,0.0,0.0,0.0,0.0,0.0,0.0,0.0,0.0,0.0,0.0,0.0,0.0,0.0,0.0,0.0360962682898
1756813042180413000,117,1756813042180413000,map,-6.81310827044,8.56722900679,0.0,0.0,0.0,0.56964653915,0.821889786063,0.179386355942,-0.0417795822793,0.0,0.0,0.0,0.0,-0.0417795822793,0.152328103729,0.0,0.0,0.0,0.0,0.0,0.0,0.0,0.0,0.0,0.0,0.0,0.0,0.0,0.0,0.0,0.0,0.0,0.0,0.0,0.0,0.0,0.0,0.0,0.0,0.0,0.0,0.0,0.0576551088638
1756813043246858000,118,1756813043246858000,map,-6.08504601359,7.84931249909,0.0,0.0,0.0,0.724328096737,0.689455443286,0.435057049461,-0.0740732148166,0.0,0.0,0.0,0.0,-0.0740732148166,0.133721528661,0.0,0.0,0.0,0.0,0.0,0.0,0.0,0.0,0.0,0.0,0.0,0.0,0.0,0.0,0.0,0.0,0.0,0.0,0.0,0.0,0.0,0.0,0.0,0.0,0.0,0.0,0.0,0.0936649654399
1756813044180350000,119,1756813044180350000,map,-5.81294051985,7.27692662673,0.0,0.0,0.0,0.758952833332,0.651145603362,0.464832642991,-0.0577642992958,0.0,0.0,0.0,0.0,-0.0577642992958,0.0758842190645,0.0,0.0,0.0,0.0,0.0,0.0,0.0,0.0,0.0,0.0,0.0,0.0,0.0,0.0,0.0,0.0,0.0,0.0,0.0,0.0,0.0,0.0,0.0,0.0,0.0,0.0,0.0,0.0735964920063
1756813045313323000,120,1756813045313323000,map,-5.7378981209,6.5835427833,0.0,0.0,0.0,0.744728761073,0.667367269523,0.141149691126,-0.0170254377439,0.0,0.0,0.0,0.0,-0.0170254377439,0.0426917093914,0.0,0.0,0.0,0.0,0.0,0.0,0.0,0.0,0.0,0.0,0.0,0.0,0.0,0.0,0.0,0.0,0.0,0.0,0.0,0.0,0.0,0.0,0.0,0.0,0.0,0.0,0.0,0.0165393265432
1756813046780599000,121,1756813046780599000,map,-5.63397858371,5.63779482464,0.0,0.0,0.0,0.744867322773,0.667212613388,0.0566753730445,-0.00795312543546,0.0,0.0,0.0,0.0,-0.00795312543546,0.04351375568,0.0,0.0,0.0,0.0,0.0,0.0,0.0,0.0,0.0,0.0,0.0,0.0,0.0,0.0,0.0,0.0,0.0,0.0,0.0,0.0,0.0,0.0,0.0,0.0,0.0,0.0,0.0,0.0144753115455
1756813047513257000,122,1756813047513257000,map,-5.58589829956,5.17069238746,0.0,0.0,0.0,0.749845085261,0.661613443115,0.0214431894276,-0.00535877462637,0.0,0.0,0.0,0.0,-0.00535877462637,0.0410872024624,0.0,0.0,0.0,0.0,0.0,0.0,0.0,0.0,0.0,0.0,0.0,0.0,0.0,0.0,0.0,0.0,0.0,0.0,0.0,0.0,0.0,0.0,0.0,0.0,0.0,0.0,0.0,0.00642133131591
1756813048646616000,123,1756813048646616000,map,-5.49059771989,4.44110599467,0.0,0.0,0.0,0.773520566198,0.633771199779,0.019027388653,-0.00474376580298,0.0,0.0,0.0,0.0,-0.00474376580298,0.04390091341,0.0,0.0,0.0,0.0,0.0,0.0,0.0,0.0,0.0,0.0,0.0,0.0,0.0,0.0,0.0,0.0,0.0,0.0,0.0,0.0,0.0,0.0,0.0,0.0,0.0,0.0,0.0,0.00512453582654
1756813049513226000,124,1756813049513226000,map,-5.42406565349,3.92049536007,0.0,0.0,0.0,0.777065635432,0.629419572488,0.011599597744,-0.0053494546835,0.0,0.0,0.0,0.0,-0.0053494546835,0.0437677684254,0.0,0.0,0.0,0.0,0.0,0.0,0.0,0.0,0.0,0.0,0.0,0.0,0.0,0.0,0.0,0.0,0.0,0.0,0.0,0.0,0.0,0.0,0.0,0.0,0.0,0.0,0.0,0.00277672066386
1756813050581208000,125,1756813050581208000,map,-5.2995476289,3.23102288103,0.0,0.0,0.0,0.777170320178,0.629290309344,0.0075466791483,-0.00531838323733,0.0,0.0,0.0,0.0,-0.00531838323733,0.0448499749195,0.0,0.0,0.0,0.0,0.0,0.0,0.0,0.0,0.0,0.0,0.0,0.0,0.0,0.0,0.0,0.0,0.0,0.0,0.0,0.0,0.0,0.0,0.0,0.0,0.0,0.0,0.0,0.00336785157025
1756813051379979000,126,1756813051379979000,map,-5.20845775429,2.72347708876,0.0,0.0,0.0,0.7771578074,0.629305762247,0.00685719110163,-0.00594068566794,0.0,0.0,0.0,0.0,-0.00594068566794,0.0477806251293,0.0,0.0,0.0,0.0,0.0,0.0,0.0,0.0,0.0,0.0,0.0,0.0,0.0,0.0,0.0,0.0,0.0,0.0,0.0,0.0,0.0,0.0,0.0,0.0,0.0,0.0,0.0,0.00256482175956
1756813052313102000,127,1756813052313102000,map,-5.09452265237,2.12351558828,0.0,0.0,0.0,0.771368403533,0.636388863849,0.00630405384128,-0.00584409060416,0.0,0.0,0.0,0.0,-0.00584409060416,0.049988707005,0.0,0.0,0.0,0.0,0.0,0.0,0.0,0.0,0.0,0.0,0.0,0.0,0.0,0.0,0.0,0.0,0.0,0.0,0.0,0.0,0.0,0.0,0.0,0.0,0.0,0.0,0.0,0.00241788630258
1756813053313914000,128,1756813053313914000,map,-5.01368221895,1.48910484527,0.0,0.0,0.0,0.754484611006,0.65631773689,0.00646571191887,-0.0060373670277,0.0,0.0,0.0,0.0,-0.0060373670277,0.0508020480184,0.0,0.0,0.0,0.0,0.0,0.0,0.0,0.0,0.0,0.0,0.0,0.0,0.0,0.0,0.0,0.0,0.0,0.0,0.0,0.0,0.0,0.0,0.0,0.0,0.0,0.0,0.0,0.00292891218106
1756813054246975000,129,1756813054246975000,map,-4.94846388563,0.875770237524,0.0,0.0,0.0,0.736446179283,0.676496138215,0.00680678852798,-0.00600303207672,0.0,0.0,0.0,0.0,-0.00600303207672,0.0493560834695,0.0,0.0,0.0,0.0,0.0,0.0,0.0,0.0,0.0,0.0,0.0,0.0,0.0,0.0,0.0,0.0,0.0,0.0,0.0,0.0,0.0,0.0,0.0,0.0,0.0,0.0,0.0,0.00307743907285
1756813055581145000,130,1756813055581145000,map,-4.88784961956,0.00555848267426,0.0,0.0,0.0,0.731015685091,0.682360658414,0.00878072262013,-0.005820943348,0.0,0.0,0.0,0.0,-0.005820943348,0.0512738630393,0.0,0.0,0.0,0.0,0.0,0.0,0.0,0.0,0.0,0.0,0.0,0.0,0.0,0.0,0.0,0.0,0.0,0.0,0.0,0.0,0.0,0.0,0.0,0.0,0.0,0.0,0.0,0.00595713603761
1756813056847302000,131,1756813056847302000,map,-4.84027491686,-0.805970412402,0.0,0.0,0.0,0.726513925457,0.687151741696,0.0143619394355,-0.00588593234892,0.0,0.0,0.0,0.0,-0.00588593234892,0.0559441495829,0.0,0.0,0.0,0.0,0.0,0.0,0.0,0.0,0.0,0.0,0.0,0.0,0.0,0.0,0.0,0.0,0.0,0.0,0.0,0.0,0.0,0.0,0.0,0.0,0.0,0.0,0.0,0.00926908190975
1756813057646779000,132,1756813057646779000,map,-4.79900358174,-1.32594039587,0.0,0.0,0.0,0.741672099269,0.670762623561,0.0115374252376,-0.0073555014815,0.0,0.0,0.0,0.0,-0.0073555014815,0.0550606915616,0.0,0.0,0.0,0.0,0.0,0.0,0.0,0.0,0.0,0.0,0.0,0.0,0.0,0.0,0.0,0.0,0.0,0.0,0.0,0.0,0.0,0.0,0.0,0.0,0.0,0.0,0.0,0.00432208270319
1756813058779926000,133,1756813058779926000,map,-4.74419496265,-2.05058658112,0.0,0.0,0.0,0.752271410346,0.658853341174,0.013498136218,-0.00824078711841,0.0,0.0,0.0,0.0,-0.00824078711841,0.0582858029399,0.0,0.0,0.0,0.0,0.0,0.0,0.0,0.0,0.0,0.0,0.0,0.0,0.0,0.0,0.0,0.0,0.0,0.0,0.0,0.0,0.0,0.0,0.0,0.0,0.0,0.0,0.0,0.0045256759573
1756813059847229000,134,1756813059847229000,map,-4.65125616134,-2.73313320429,0.0,0.0,0.0,0.753836511114,0.657062032468,0.0139253966287,-0.00921294282138,0.0,0.0,0.0,0.0,-0.00921294282138,0.0624467523492,0.0,0.0,0.0,0.0,0.0,0.0,0.0,0.0,0.0,0.0,0.0,0.0,0.0,0.0,0.0,0.0,0.0,0.0,0.0,0.0,0.0,0.0,0.0,0.0,0.0,0.0,0.0,0.00525165102827
1756813060979929000,135,1756813060979929000,map,-4.51487203156,-3.47392786432,0.0,0.0,0.0,0.76706188277,0.641573119762,0.0124616527455,-0.00942570962578,0.0,0.0,0.0,0.0,-0.00942570962578,0.0626442539643,0.0,0.0,0.0,0.0,0.0,0.0,0.0,0.0,0.0,0.0,0.0,0.0,0.0,0.0,0.0,0.0,0.0,0.0,0.0,0.0,0.0,0.0,0.0,0.0,0.0,0.0,0.0,0.00478030073611
1756813061980026000,136,1756813061980026000,map,-4.40901742679,-4.10954000569,0.0,0.0,0.0,0.763956127689,0.645268188405,0.0105108307885,-0.00962858533968,0.0,0.0,0.0,0.0,-0.00962858533968,0.0647334846085,0.0,0.0,0.0,0.0,0.0,0.0,0.0,0.0,0.0,0.0,0.0,0.0,0.0,0.0,0.0,0.0,0.0,0.0,0.0,0.0,0.0,0.0,0.0,0.0,0.0,0.0,0.0,0.00407076884957
1756813062779986000,137,1756813062779986000,map,-4.32327910397,-4.63886026172,0.0,0.0,0.0,0.764893962814,0.64415621215,0.00982924266417,-0.0097606997853,0.0,0.0,0.0,0.0,-0.0097606997853,0.0672762420407,0.0,0.0,0.0,0.0,0.0,0.0,0.0,0.0,0.0,0.0,0.0,0.0,0.0,0.0,0.0,0.0,0.0,0.0,0.0,0.0,0.0,0.0,0.0,0.0,0.0,0.0,0.0,0.00279394757202
1756813063713323000,138,1756813063713323000,map,-4.22212966064,-5.22990564652,0.0,0.0,0.0,0.764274915232,0.644890575173,0.00845247199296,-0.0103807273471,0.0,0.0,0.0,0.0,-0.0103807273471,0.0701406127069,0.0,0.0,0.0,0.0,0.0,0.0,0.0,0.0,0.0,0.0,0.0,0.0,0.0,0.0,0.0,0.0,0.0,0.0,0.0,0.0,0.0,0.0,0.0,0.0,0.0,0.0,0.0,0.00252049184644
1756813064846704000,139,1756813064846704000,map,-4.11931399472,-5.92517463093,0.0,0.0,0.0,0.762599102845,0.646871400156,0.00881941266162,-0.0108910732419,0.0,0.0,0.0,0.0,-0.0108910732419,0.0744225712854,0.0,0.0,0.0,0.0,0.0,0.0,0.0,0.0,0.0,0.0,0.0,0.0,0.0,0.0,0.0,0.0,0.0,0.0,0.0,0.0,0.0,0.0,0.0,0.0,0.0,0.0,0.0,0.00352549496655
1756813067113207000,140,1756813067113207000,map,-3.90114004556,-7.35101836243,0.0,0.0,0.0,0.750832350558,0.660492832176,0.0686322194586,-0.0118702995543,0.0,0.0,0.0,0.0,-0.0118702995543,0.142982343531,0.0,0.0,0.0,0.0,0.0,0.0,0.0,0.0,0.0,0.0,0.0,0.0,0.0,0.0,0.0,0.0,0.0,0.0,0.0,0.0,0.0,0.0,0.0,0.0,0.0,0.0,0.0,0.10123905774
1756813069313137000,141,1756813069313137000,map,-3.67180562769,-8.70242195534,0.0,0.0,0.0,0.765505766842,0.64342903333,0.226454387763,0.00987070934288,0.0,0.0,0.0,0.0,0.00987070934287,0.171253398774,0.0,0.0,0.0,0.0,0.0,0.0,0.0,0.0,0.0,0.0,0.0,0.0,0.0,0.0,0.0,0.0,0.0,0.0,0.0,0.0,0.0,0.0,0.0,0.0,0.0,0.0,0.0,0.0941359013069
1756813070780232000,142,1756813070780232000,map,-3.60243134315,-9.57315811845,0.0,0.0,0.0,0.769482631796,0.638667737845,0.305320304779,0.0190403767489,0.0,0.0,0.0,0.0,0.0190403767489,0.181992142266,0.0,0.0,0.0,0.0,0.0,0.0,0.0,0.0,0.0,0.0,0.0,0.0,0.0,0.0,0.0,0.0,0.0,0.0,0.0,0.0,0.0,0.0,0.0,0.0,0.0,0.0,0.0,0.0596226047838
1756813072512768000,143,1756813072512768000,map,-3.39128684824,-10.6485863742,0.0,0.0,0.0,0.748096322887,0.663590153395,0.441405041334,0.0288261151104,0.0,0.0,0.0,0.0,0.0288261151104,0.196196071757,0.0,0.0,0.0,0.0,0.0,0.0,0.0,0.0,0.0,0.0,0.0,0.0,0.0,0.0,0.0,0.0,0.0,0.0,0.0,0.0,0.0,0.0,0.0,0.0,0.0,0.0,0.0,0.0730817296247
1756813072980273000,144,1756813072980273000,map,-3.30664342471,-10.8623424745,0.0,0.0,0.0,0.756744219232,0.653711088065,0.373898430039,0.0279413543835,0.0,0.0,0.0,0.0,0.0279413543835,0.192654979286,0.0,0.0,0.0,0.0,0.0,0.0,0.0,0.0,0.0,0.0,0.0,0.0,0.0,0.0,0.0,0.0,0.0,0.0,0.0,0.0,0.0,0.0,0.0,0.0,0.0,0.0,0.0,0.0557944290529
1756813074380750000,145,1756813074380750000,map,-2.9781595708,-11.6120990796,0.0,0.0,0.0,0.929238416759,0.369480669074,0.603316553745,0.0548458671618,0.0,0.0,0.0,0.0,0.0548458671618,0.194401490909,0.0,0.0,0.0,0.0,0.0,0.0,0.0,0.0,0.0,0.0,0.0,0.0,0.0,0.0,0.0,0.0,0.0,0.0,0.0,0.0,0.0,0.0,0.0,0.0,0.0,0.0,0.0,0.0625851899795
1756813075179824000,146,1756813075179824000,map,-2.70752735034,-11.9191762947,0.0,0.0,0.0,0.990549646597,0.137154648575,0.633149678096,0.1254467065,0.0,0.0,0.0,0.0,0.1254467065,0.227186451102,0.0,0.0,0.0,0.0,0.0,0.0,0.0,0.0,0.0,0.0,0.0,0.0,0.0,0.0,0.0,0.0,0.0,0.0,0.0,0.0,0.0,0.0,0.0,0.0,0.0,0.0,0.0,0.0592297345566
1756813076047251000,147,1756813076047251000,map,-2.16027782513,-11.872952637,0.0,0.0,0.0,-0.97491283124,0.222586997563,0.798840317127,0.206643120316,0.0,0.0,0.0,0.0,0.206643120316,0.27928245616,0.0,0.0,0.0,0.0,0.0,0.0,0.0,0.0,0.0,0.0,0.0,0.0,0.0,0.0,0.0,0.0,0.0,0.0,0.0,0.0,0.0,0.0,0.0,0.0,0.0,0.0,0.0,0.0725141094616
1756813077046120000,148,1756813077046120000,map,-1.57500650402,-11.4659256925,0.0,0.0,0.0,-0.911673557501,0.41091522794,0.856946293166,0.247684245071,0.0,0.0,0.0,0.0,0.247684245071,0.339607868244,0.0,0.0,0.0,0.0,0.0,0.0,0.0,0.0,0.0,0.0,0.0,0.0,0.0,0.0,0.0,0.0,0.0,0.0,0.0,0.0,0.0,0.0,0.0,0.0,0.0,0.0,0.0,0.083585591912
1756813077913127000,149,1756813077913127000,map,-1.28835970586,-10.996273778,0.0,0.0,0.0,-0.806309271086,0.591494175255,0.729288126154,0.252431052589,0.0,0.0,0.0,0.0,0.252431052589,0.430424877625,0.0,0.0,0.0,0.0,0.0,0.0,0.0,0.0,0.0,0.0,0.0,0.0,0.0,0.0,0.0,0.0,0.0,0.0,0.0,0.0,0.0,0.0,0.0,0.0,0.0,0.0,0.0,0.0901446442216
1756813078580480000,150,1756813078580480000,map,-1.24551315988,-10.5012671187,0.0,0.0,0.0,-0.673196234014,0.739463880463,0.631255785719,0.221433471788,0.0,0.0,0.0,0.0,0.221433471788,0.459349944151,0.0,0.0,0.0,0.0,0.0,0.0,0.0,0.0,0.0,0.0,0.0,0.0,0.0,0.0,0.0,0.0,0.0,0.0,0.0,0.0,0.0,0.0,0.0,0.0,0.0,0.0,0.0,0.0984579092923
1756813079580910000,151,1756813079580910000,map,-1.52506255542,-9.84912598665,0.0,0.0,0.0,-0.508568102015,0.861021768373,0.59855947599,0.201131682288,0.0,0.0,0.0,0.0,0.201131682288,0.458392718932,0.0,0.0,0.0,0.0,0.0,0.0,0.0,0.0,0.0,0.0,0.0,0.0,0.0,0.0,0.0,0.0,0.0,0.0,0.0,0.0,0.0,0.0,0.0,0.0,0.0,0.0,0.0,0.109038960921
1756813080580478000,152,1756813080580478000,map,-2.25275087087,-9.66447975723,0.0,0.0,0.0,-0.366399758187,0.930457531111,0.743192217723,0.242245052621,0.0,0.0,0.0,0.0,0.242245052621,0.462157376081,0.0,0.0,0.0,0.0,0.0,0.0,0.0,0.0,0.0,0.0,0.0,0.0,0.0,0.0,0.0,0.0,0.0,0.0,0.0,0.0,0.0,0.0,0.0,0.0,0.0,0.0,0.0,0.154351184135
1756813081246746000,153,1756813081246746000,map,-3.74111795591,-9.4833444548,0.0,0.0,0.0,-0.606386425441,0.795170109499,1.04499856419,0.122681098291,0.0,0.0,0.0,0.0,0.122681098291,0.310201740249,0.0,0.0,0.0,0.0,0.0,0.0,0.0,0.0,0.0,0.0,0.0,0.0,0.0,0.0,0.0,0.0,0.0,0.0,0.0,0.0,0.0,0.0,0.0,0.0,0.0,0.0,0.0,0.171993097845
1756813082179764000,154,1756813082179764000,map,-3.87434623883,-8.96660307997,0.0,0.0,0.0,-0.616125626175,0.787647898981,1.17462324126,0.0353768197235,0.0,0.0,0.0,0.0,0.0353768197235,0.169111262607,0.0,0.0,0.0,0.0,0.0,0.0,0.0,0.0,0.0,0.0,0.0,0.0,0.0,0.0,0.0,0.0,0.0,0.0,0.0,0.0,0.0,0.0,0.0,0.0,0.0,0.0,0.0,0.072184490535
1756813082513595000,155,1756813082513595000,map,-3.91719501857,-8.74278671152,0.0,0.0,0.0,-0.655326874041,0.755345409835,1.16971307355,0.0101164950629,0.0,0.0,0.0,0.0,0.0101164950629,0.136544893887,0.0,0.0,0.0,0.0,0.0,0.0,0.0,0.0,0.0,0.0,0.0,0.0,0.0,0.0,0.0,0.0,0.0,0.0,0.0,0.0,0.0,0.0,0.0,0.0,0.0,0.0,0.0,0.0245350001961
1756813083647306000,156,1756813083647306000,map,-3.97121798791,-8.15465210714,0.0,0.0,0.0,-0.676825634202,0.73614336979,1.12682082244,0.0270814668,0.0,0.0,0.0,0.0,0.0270814668,0.140500333829,0.0,0.0,0.0,0.0,0.0,0.0,0.0,0.0,0.0,0.0,0.0,0.0,0.0,0.0,0.0,0.0,0.0,0.0,0.0,0.0,0.0,0.0,0.0,0.0,0.0,0.0,0.0,0.0102802456726
1756813084449124000,157,1756813084449124000,map,-4.00385800217,-7.88451858929,0.0,0.0,0.0,-0.660834647839,0.750531523798,1.09735240106,0.0257004570307,0.0,0.0,0.0,0.0,0.0257004570307,0.138932813197,0.0,0.0,0.0,0.0,0.0,0.0,0.0,0.0,0.0,0.0,0.0,0.0,0.0,0.0,0.0,0.0,0.0,0.0,0.0,0.0,0.0,0.0,0.0,0.0,0.0,0.0,0.0,0.00657979498943
1756813085846942000,158,1756813085846942000,map,-4.12765574694,-6.95272440577,0.0,0.0,0.0,-0.657676361673,0.753300606197,1.10464350637,0.029069611983,0.0,0.0,0.0,0.0,0.029069611983,0.141443174205,0.0,0.0,0.0,0.0,0.0,0.0,0.0,0.0,0.0,0.0,0.0,0.0,0.0,0.0,0.0,0.0,0.0,0.0,0.0,0.0,0.0,0.0,0.0,0.0,0.0,0.0,0.0,0.00633135002446
1756813086713275000,159,1756813086713275000,map,-4.21139890876,-6.4102965307,0.0,0.0,0.0,-0.640161698932,0.768240196306,1.06892521453,0.0303573972487,0.0,0.0,0.0,0.0,0.0303573972487,0.139092724275,0.0,0.0,0.0,0.0,0.0,0.0,0.0,0.0,0.0,0.0,0.0,0.0,0.0,0.0,0.0,0.0,0.0,0.0,0.0,0.0,0.0,0.0,0.0,0.0,0.0,0.0,0.0,0.0036887742762
1756813087780157000,160,1756813087780157000,map,-4.32333268914,-5.63797448318,0.0,0.0,0.0,-0.637725798723,0.770263465084,1.10642432347,0.0322432793233,0.0,0.0,0.0,0.0,0.0322432793233,0.132795769977,0.0,0.0,0.0,0.0,0.0,0.0,0.0,0.0,0.0,0.0,0.0,0.0,0.0,0.0,0.0,0.0,0.0,0.0,0.0,0.0,0.0,0.0,0.0,0.0,0.0,0.0,0.0,0.00373611683093
1756813088780602000,161,1756813088780602000,map,-4.42753009252,-5.03785148687,0.0,0.0,0.0,-0.62539714408,0.780306614208,1.0915333065,0.03520963064,0.0,0.0,0.0,0.0,0.03520963064,0.130772459401,0.0,0.0,0.0,0.0,0.0,0.0,0.0,0.0,0.0,0.0,0.0,0.0,0.0,0.0,0.0,0.0,0.0,0.0,0.0,0.0,0.0,0.0,0.0,0.0,0.0,0.0,0.0,0.00433638178991
1756813089713954000,162,1756813089713954000,map,-4.53320267192,-4.37691551712,0.0,0.0,0.0,-0.630598319783,0.776109373147,1.11241311116,0.0286464185023,0.0,0.0,0.0,0.0,0.0286464185023,0.131664867152,0.0,0.0,0.0,0.0,0.0,0.0,0.0,0.0,0.0,0.0,0.0,0.0,0.0,0.0,0.0,0.0,0.0,0.0,0.0,0.0,0.0,0.0,0.0,0.0,0.0,0.0,0.0,0.00357373481795
1756813090113555000,163,1756813090113555000,map,-4.56282074186,-4.1599188947,0.0,0.0,0.0,-0.629589289864,0.776928134443,1.20343375903,0.0248750023741,0.0,0.0,0.0,0.0,0.0248750023741,0.136742620439,0.0,0.0,0.0,0.0,0.0,0.0,0.0,0.0,0.0,0.0,0.0,0.0,0.0,0.0,0.0,0.0,0.0,0.0,0.0,0.0,0.0,0.0,0.0,0.0,0.0,0.0,0.0,0.010275810405
1756813091113980000,164,1756813091113980000,map,-4.6837445739,-3.56289394064,0.0,0.0,0.0,-0.625610760991,0.780135357315,1.26240753905,0.0299931549228,0.0,0.0,0.0,0.0,0.0299931549228,0.14029026362,0.0,0.0,0.0,0.0,0.0,0.0,0.0,0.0,0.0,0.0,0.0,0.0,0.0,0.0,0.0,0.0,0.0,0.0,0.0,0.0,0.0,0.0,0.0,0.0,0.0,0.0,0.0,0.00715958107175
1756813091846873000,165,1756813091846873000,map,-4.77937482385,-3.04926303249,0.0,0.0,0.0,-0.627754916758,0.778411051107,1.29028019942,0.0415247867072,0.0,0.0,0.0,0.0,0.0415247867072,0.145455726292,0.0,0.0,0.0,0.0,0.0,0.0,0.0,0.0,0.0,0.0,0.0,0.0,0.0,0.0,0.0,0.0,0.0,0.0,0.0,0.0,0.0,0.0,0.0,0.0,0.0,0.0,0.0,0.00430425775724
1756813092913948000,166,1756813092913948000,map,-4.89328965206,-2.33562541564,0.0,0.0,0.0,-0.647359501997,0.76218480382,1.38770452672,0.0501791676711,0.0,0.0,0.0,0.0,0.0501791676711,0.146263733844,0.0,0.0,0.0,0.0,0.0,0.0,0.0,0.0,0.0,0.0,0.0,0.0,0.0,0.0,0.0,0.0,0.0,0.0,0.0,0.0,0.0,0.0,0.0,0.0,0.0,0.0,0.0,0.00509785133301
1756813095247039000,167,1756813095247039000,map,-5.1564448164,-0.87047510514,0.0,0.0,0.0,-0.630457863342,0.776223474619,1.44037829174,0.0567025786394,0.0,0.0,0.0,0.0,0.0567025786394,0.17281173383,0.0,0.0,0.0,0.0,0.0,0.0,0.0,0.0,0.0,0.0,0.0,0.0,0.0,0.0,0.0,0.0,0.0,0.0,0.0,0.0,0.0,0.0,0.0,0.0,0.0,0.0,0.0,0.0524478514212
1756813096313294000,168,1756813096313294000,map,-5.18869046225,-0.272950068591,0.0,0.0,0.0,-0.650547139197,0.759465877892,1.43854752402,0.0647357984201,0.0,0.0,0.0,0.0,0.0647357984201,0.170267465405,0.0,0.0,0.0,0.0,0.0,0.0,0.0,0.0,0.0,0.0,0.0,0.0,0.0,0.0,0.0,0.0,0.0,0.0,0.0,0.0,0.0,0.0,0.0,0.0,0.0,0.0,0.0,0.0295792507101
1756813097180525000,169,1756813097180525000,map,-5.21870056203,0.355754069685,0.0,0.0,0.0,-0.659104335206,0.752051511076,1.36886524801,0.0574033157741,0.0,0.0,0.0,0.0,0.0574033157741,0.168189456166,0.0,0.0,0.0,0.0,0.0,0.0,0.0,0.0,0.0,0.0,0.0,0.0,0.0,0.0,0.0,0.0,0.0,0.0,0.0,0.0,0.0,0.0,0.0,0.0,0.0,0.0,0.0,0.0095991815658
1756813098313653000,170,1756813098313653000,map,-5.27025079721,1.14639216131,0.0,0.0,0.0,-0.670953031234,0.74149985157,1.27684693128,0.0598377244884,0.0,0.0,0.0,0.0,0.0598377244884,0.166016596304,0.0,0.0,0.0,0.0,0.0,0.0,0.0,0.0,0.0,0.0,0.0,0.0,0.0,0.0,0.0,0.0,0.0,0.0,0.0,0.0,0.0,0.0,0.0,0.0,0.0,0.0,0.0,0.00541215279319
1756813099647341000,171,1756813099647341000,map,-5.30202851234,2.00300801881,0.0,0.0,0.0,-0.67711807899,0.735874382694,1.30105527951,0.0567841576866,0.0,0.0,0.0,0.0,0.0567841576866,0.168327391387,0.0,0.0,0.0,0.0,0.0,0.0,0.0,0.0,0.0,0.0,0.0,0.0,0.0,0.0,0.0,0.0,0.0,0.0,0.0,0.0,0.0,0.0,0.0,0.0,0.0,0.0,0.0,0.0100711423125
1756813100448707000,172,1756813100448707000,map,-5.32670748816,2.52560997304,0.0,0.0,0.0,-0.64058429403,0.767887857856,1.28668401582,0.0647158367243,0.0,0.0,0.0,0.0,0.0647158367243,0.172448051388,0.0,0.0,0.0,0.0,0.0,0.0,0.0,0.0,0.0,0.0,0.0,0.0,0.0,0.0,0.0,0.0,0.0,0.0,0.0,0.0,0.0,0.0,0.0,0.0,0.0,0.0,0.0,0.00587603988018
1756813101246436000,173,1756813101246436000,map,-5.40281470739,3.07590189379,0.0,0.0,0.0,-0.638128960378,0.769929496725,1.36314334623,0.0712272813382,0.0,0.0,0.0,0.0,0.0712272813382,0.165189599851,0.0,0.0,0.0,0.0,0.0,0.0,0.0,0.0,0.0,0.0,0.0,0.0,0.0,0.0,0.0,0.0,0.0,0.0,0.0,0.0,0.0,0.0,0.0,0.0,0.0,0.0,0.0,0.00320641649409
1756813102380043000,174,1756813102380043000,map,-5.50673061318,3.80524494595,0.0,0.0,0.0,-0.639920014832,0.768441523226,1.3446454113,0.0779779918888,0.0,0.0,0.0,0.0,0.0779779918888,0.162170320012,0.0,0.0,0.0,0.0,0.0,0.0,0.0,0.0,0.0,0.0,0.0,0.0,0.0,0.0,0.0,0.0,0.0,0.0,0.0,0.0,0.0,0.0,0.0,0.0,0.0,0.0,0.0,0.0045779231702
1756813103313181000,175,1756813103313181000,map,-5.6164234823,4.39803914924,0.0,0.0,0.0,-0.635613446295,0.772007478519,1.3714448488,0.0981750035976,0.0,0.0,0.0,0.0,0.0981750035976,0.149291954849,0.0,0.0,0.0,0.0,0.0,0.0,0.0,0.0,0.0,0.0,0.0,0.0,0.0,0.0,0.0,0.0,0.0,0.0,0.0,0.0,0.0,0.0,0.0,0.0,0.0,0.0,0.0,0.00477236908904
1756813104179838000,176,1756813104179838000,map,-5.72357825777,4.91678120645,0.0,0.0,0.0,-0.628196702672,0.778054562837,1.38682146643,0.100947711335,0.0,0.0,0.0,0.0,0.100947711335,0.143710849048,0.0,0.0,0.0,0.0,0.0,0.0,0.0,0.0,0.0,0.0,0.0,0.0,0.0,0.0,0.0,0.0,0.0,0.0,0.0,0.0,0.0,0.0,0.0,0.0,0.0,0.0,0.0,0.0035001472893
1756813104846643000,177,1756813104846643000,map,-5.80103219796,5.34839513198,0.0,0.0,0.0,-0.625452230996,0.780262460164,1.4087217402,0.10117944896,0.0,0.0,0.0,0.0,0.10117944896,0.139223267119,0.0,0.0,0.0,0.0,0.0,0.0,0.0,0.0,0.0,0.0,0.0,0.0,0.0,0.0,0.0,0.0,0.0,0.0,0.0,0.0,0.0,0.0,0.0,0.0,0.0,0.0,0.0,0.00248524999452
1756813105846358000,178,1756813105846358000,map,-5.88646296391,5.95214102339,0.0,0.0,0.0,-0.636815030586,0.771016612545,1.47015159997,0.119665170725,0.0,0.0,0.0,0.0,0.119665170725,0.137963283607,0.0,0.0,0.0,0.0,0.0,0.0,0.0,0.0,0.0,0.0,0.0,0.0,0.0,0.0,0.0,0.0,0.0,0.0,0.0,0.0,0.0,0.0,0.0,0.0,0.0,0.0,0.0,0.00448226793355
1756813106512975000,179,1756813106512975000,map,-5.98211593692,6.31434324204,0.0,0.0,0.0,-0.629765615135,0.77678521484,1.49882369673,0.13841597726,0.0,0.0,0.0,0.0,0.13841597726,0.133758470494,0.0,0.0,0.0,0.0,0.0,0.0,0.0,0.0,0.0,0.0,0.0,0.0,0.0,0.0,0.0,0.0,0.0,0.0,0.0,0.0,0.0,0.0,0.0,0.0,0.0,0.0,0.0,0.00352652643912
1756813107313615000,180,1756813107313615000,map,-6.05331684936,6.7719855157,0.0,0.0,0.0,-0.636581307406,0.771209594768,1.5481833692,0.171345452838,0.0,0.0,0.0,0.0,0.171345452838,0.131666495703,0.0,0.0,0.0,0.0,0.0,0.0,0.0,0.0,0.0,0.0,0.0,0.0,0.0,0.0,0.0,0.0,0.0,0.0,0.0,0.0,0.0,0.0,0.0,0.0,0.0,0.0,0.0,0.00300694451172
