%time,field.header.seq,field.header.stamp,field.header.frame_id,field.pose.pose.position.x,field.pose.pose.position.y,field.pose.pose.position.z,field.pose.pose.orientation.x,field.pose.pose.orientation.y,field.pose.pose.orientation.z,field.pose.pose.orientation.w,field.pose.covariance0,field.pose.covariance1,field.pose.covariance2,field.pose.covariance3,field.pose.covariance4,field.pose.covariance5,field.pose.covariance6,field.pose.covariance7,field.pose.covariance8,field.pose.covariance9,field.pose.covariance10,field.pose.covariance11,field.pose.covariance12,field.pose.covariance13,field.pose.covariance14,field.pose.covariance15,field.pose.covariance16,field.pose.covariance17,field.pose.covariance18,field.pose.covariance19,field.pose.covariance20,field.pose.covariance21,field.pose.covariance22,field.pose.covariance23,field.pose.covariance24,field.pose.covariance25,field.pose.covariance26,field.pose.covariance27,field.pose.covariance28,field.pose.covariance29,field.pose.covariance30,field.pose.covariance31,field.pose.covariance32,field.pose.covariance33,field.pose.covariance34,field.pose.covariance35
1756813460378266000,0,1756813460378266000,map,10.8662517159,10.1990022625,0.0,0.0,0.0,0.759414073455,0.650607612189,0.247658505791,0.000359969453314,0.0,0.0,0.0,0.0,0.000359969453328,0.242900989266,0.0,0.0,0.0,0.0,0.0,0.0,0.0,0.0,0.0,0.0,0.0,0.0,0.0,0.0,0.0,0.0,0.0,0.0,0.0,0.0,0.0,0.0,0.0,0.0,0.0,0.0,0.0,0.0671656724325
1756813461112223000,1,1756813461112223000,map,11.0010652121,9.8187342429,0.0,0.0,0.0,0.757875369132,0.65239935995,0.182583948623,-0.0203429056734,0.0,0.0,0.0,0.0,-0.0203429056734,0.24281621513,0.0,0.0,0.0,0.0,0.0,0.0,0.0,0.0,0.0,0.0,0.0,0.0,0.0,0.0,0.0,0.0,0.0,0.0,0.0,0.0,0.0,0.0,0.0,0.0,0.0,0.0,0.0,0.0519017625863
1756813462845003000,2,1756813462845003000,map,11.2848471258,8.84655131877,0.0,0.0,0.0,0.792705962931,0.609604180049,0.232613788721,-0.0131533657905,0.0,0.0,0.0,0.0,-0.0131533657905,0.252575728474,0.0,0.0,0.0,0.0,0.0,0.0,0.0,0.0,0.0,0.0,0.0,0.0,0.0,0.0,0.0,0.0,0.0,0.0,0.0,0.0,0.0,0.0,0.0,0.0,0.0,0.0,0.0,0.062822347301
1756813464112269000,3,1756813464112269000,map,11.4720432287,8.06768569703,0.0,0.0,0.0,0.778030214441,0.628226858242,0.170601737223,-0.0117579079909,0.0,0.0,0.0,0.0,-0.0117579079909,0.266264159167,0.0,0.0,0.0,0.0,0.0,0.0,0.0,0.0,0.0,0.0,0.0,0.0,0.0,0.0,0.0,0.0,0.0,0.0,0.0,0.0,0.0,0.0,0.0,0.0,0.0,0.0,0.0,0.0369897226333
1756813465178840000,4,1756813465178840000,map,11.5758009806,7.33532085598,0.0,0.0,0.0,0.787205648648,0.61669057617,0.0689994472546,-0.0200853918301,0.0,0.0,0.0,0.0,-0.0200853918301,0.252971530286,0.0,0.0,0.0,0.0,0.0,0.0,0.0,0.0,0.0,0.0,0.0,0.0,0.0,0.0,0.0,0.0,0.0,0.0,0.0,0.0,0.0,0.0,0.0,0.0,0.0,0.0,0.0,0.0170537001362
1756813466045662000,5,1756813466045662000,map,11.6824095509,6.7667244989,0.0,0.0,0.0,0.784771725139,0.619784913839,0.0204705625875,-0.0339736524952,0.0,0.0,0.0,0.0,-0.0339736524952,0.248859835148,0.0,0.0,0.0,0.0,0.0,0.0,0.0,0.0,0.0,0.0,0.0,0.0,0.0,0.0,0.0,0.0,0.0,0.0,0.0,0.0,0.0,0.0,0.0,0.0,0.0,0.0,0.0,0.00701081793252
1756813466978916000,6,1756813466978916000,map,11.8107411714,6.17044137493,0.0,0.0,0.0,0.78324853577,0.621708718947,0.0138714856123,-0.0334202919318,0.0,0.0,0.0,0.0,-0.0334202919318,0.251101607839,0.0,0.0,0.0,0.0,0.0,0.0,0.0,0.0,0.0,0.0,0.0,0.0,0.0,0.0,0.0,0.0,0.0,0.0,0.0,0.0,0.0,0.0,0.0,0.0,0.0,0.0,0.0,0.00454316232483
1756813467712273000,7,1756813467712273000,map,11.9031676726,5.6891951677,0.0,0.0,0.0,0.782424909029,0.622744941152,0.011186462168,-0.0331269706035,0.0,0.0,0.0,0.0,-0.0331269706035,0.248329977188,0.0,0.0,0.0,0.0,0.0,0.0,0.0,0.0,0.0,0.0,0.0,0.0,0.0,0.0,0.0,0.0,0.0,0.0,0.0,0.0,0.0,0.0,0.0,0.0,0.0,0.0,0.0,0.00308204539525
1756813467978283000,8,1756813467978283000,map,11.9404283826,5.51770182259,0.0,0.0,0.0,0.779598761865,0.626279307098,0.00990213523662,-0.0346240585106,0.0,0.0,0.0,0.0,-0.0346240585106,0.25418971115,0.0,0.0,0.0,0.0,0.0,0.0,0.0,0.0,0.0,0.0,0.0,0.0,0.0,0.0,0.0,0.0,0.0,0.0,0.0,0.0,0.0,0.0,0.0,0.0,0.0,0.0,0.0,0.00395662108865
1756813469178370000,9,1756813469178370000,map,12.0930488557,4.72351157221,0.0,0.0,0.0,0.777824146286,0.628481978624,0.0120093856208,-0.0355857022502,0.0,0.0,0.0,0.0,-0.0355857022502,0.253786021859,0.0,0.0,0.0,0.0,0.0,0.0,0.0,0.0,0.0,0.0,0.0,0.0,0.0,0.0,0.0,0.0,0.0,0.0,0.0,0.0,0.0,0.0,0.0,0.0,0.0,0.0,0.0,0.00542478715901
1756813469978333000,10,1756813469978333000,map,12.1871023329,4.21844882691,0.0,0.0,0.0,0.770560695267,0.637366625192,0.0144212300099,-0.036004970411,0.0,0.0,0.0,0.0,-0.036004970411,0.262526600161,0.0,0.0,0.0,0.0,0.0,0.0,0.0,0.0,0.0,0.0,0.0,0.0,0.0,0.0,0.0,0.0,0.0,0.0,0.0,0.0,0.0,0.0,0.0,0.0,0.0,0.0,0.0,0.00428359551131
1756813470645015000,11,1756813470645015000,map,12.2523610481,3.84640493516,0.0,0.0,0.0,0.770166288161,0.637843153589,0.0123546513881,-0.0364950911683,0.0,0.0,0.0,0.0,-0.0364950911683,0.260721051953,0.0,0.0,0.0,0.0,0.0,0.0,0.0,0.0,0.0,0.0,0.0,0.0,0.0,0.0,0.0,0.0,0.0,0.0,0.0,0.0,0.0,0.0,0.0,0.0,0.0,0.0,0.0,0.00220806488474
1756813471378400000,12,1756813471378400000,map,12.3468572053,3.32422335999,0.0,0.0,0.0,0.772274612408,0.635288850076,0.0110666360937,-0.0381845796215,0.0,0.0,0.0,0.0,-0.0381845796215,0.264684649056,0.0,0.0,0.0,0.0,0.0,0.0,0.0,0.0,0.0,0.0,0.0,0.0,0.0,0.0,0.0,0.0,0.0,0.0,0.0,0.0,0.0,0.0,0.0,0.0,0.0,0.0,0.0,0.00172019691598
1756813472045046000,13,1756813472045046000,map,12.4138120431,2.89698477549,0.0,0.0,0.0,0.771618883901,0.636085134245,0.0103989681531,-0.0400402094231,0.0,0.0,0.0,0.0,-0.0400402094231,0.273431463246,0.0,0.0,0.0,0.0,0.0,0.0,0.0,0.0,0.0,0.0,0.0,0.0,0.0,0.0,0.0,0.0,0.0,0.0,0.0,0.0,0.0,0.0,0.0,0.0,0.0,0.0,0.0,0.00149778672836
1756813472845910000,14,1756813472845910000,map,12.5058484912,2.34886050261,0.0,0.0,0.0,0.771774663457,0.635896114822,0.0103436319073,-0.0411217523852,0.0,0.0,0.0,0.0,-0.0411217523852,0.280461242964,0.0,0.0,0.0,0.0,0.0,0.0,0.0,0.0,0.0,0.0,0.0,0.0,0.0,0.0,0.0,0.0,0.0,0.0,0.0,0.0,0.0,0.0,0.0,0.0,0.0,0.0,0.0,0.00170846310075
1756813473512351000,15,1756813473512351000,map,12.5779004767,1.91631010479,0.0,0.0,0.0,0.772238819651,0.635332358238,0.0104152086809,-0.0410367928301,0.0,0.0,0.0,0.0,-0.0410367928301,0.277809867394,0.0,0.0,0.0,0.0,0.0,0.0,0.0,0.0,0.0,0.0,0.0,0.0,0.0,0.0,0.0,0.0,0.0,0.0,0.0,0.0,0.0,0.0,0.0,0.0,0.0,0.0,0.0,0.00176295753664
1756813474378861000,16,1756813474378861000,map,12.6915637876,1.34933208576,0.0,0.0,0.0,0.774079177376,0.633088798789,0.011635230555,-0.0431377870324,0.0,0.0,0.0,0.0,-0.0431377870324,0.281826107949,0.0,0.0,0.0,0.0,0.0,0.0,0.0,0.0,0.0,0.0,0.0,0.0,0.0,0.0,0.0,0.0,0.0,0.0,0.0,0.0,0.0,0.0,0.0,0.0,0.0,0.0,0.0,0.00247106921441
1756813475045753000,17,1756813475045753000,map,12.7567934608,1.0084495343,0.0,0.0,0.0,0.779717010701,0.626132081293,0.011038917151,-0.0392333489366,0.0,0.0,0.0,0.0,-0.0392333489366,0.261300385758,0.0,0.0,0.0,0.0,0.0,0.0,0.0,0.0,0.0,0.0,0.0,0.0,0.0,0.0,0.0,0.0,0.0,0.0,0.0,0.0,0.0,0.0,0.0,0.0,0.0,0.0,0.0,0.00213036049148
1756813475978871000,18,1756813475978871000,map,12.8764165693,0.430788802071,0.0,0.0,0.0,0.779136915261,0.626853784608,0.0116169970928,-0.0380871053923,0.0,0.0,0.0,0.0,-0.0380871053923,0.263473318126,0.0,0.0,0.0,0.0,0.0,0.0,0.0,0.0,0.0,0.0,0.0,0.0,0.0,0.0,0.0,0.0,0.0,0.0,0.0,0.0,0.0,0.0,0.0,0.0,0.0,0.0,0.0,0.00281931938305
1756813476778366000,19,1756813476778366000,map,12.9739101233,-0.0947634213825,0.0,0.0,0.0,0.776915880193,0.629604411598,0.012582005104,-0.0373181206268,0.0,0.0,0.0,0.0,-0.0373181206268,0.261988089791,0.0,0.0,0.0,0.0,0.0,0.0,0.0,0.0,0.0,0.0,0.0,0.0,0.0,0.0,0.0,0.0,0.0,0.0,0.0,0.0,0.0,0.0,0.0,0.0,0.0,0.0,0.0,0.00259335359101
1756813477579124000,20,1756813477579124000,map,13.0661202129,-0.562540126611,0.0,0.0,0.0,0.779485212784,0.626420627894,0.0137425509853,-0.0385336022767,0.0,0.0,0.0,0.0,-0.0385336022767,0.274354192451,0.0,0.0,0.0,0.0,0.0,0.0,0.0,0.0,0.0,0.0,0.0,0.0,0.0,0.0,0.0,0.0,0.0,0.0,0.0,0.0,0.0,0.0,0.0,0.0,0.0,0.0,0.0,0.00247260250787
1756813478447511000,21,1756813478447511000,map,13.1507110162,-1.1573416948,0.0,0.0,0.0,0.773696547866,0.633556352521,0.0132878163399,-0.0382553704163,0.0,0.0,0.0,0.0,-0.0382553704163,0.26784486118,0.0,0.0,0.0,0.0,0.0,0.0,0.0,0.0,0.0,0.0,0.0,0.0,0.0,0.0,0.0,0.0,0.0,0.0,0.0,0.0,0.0,0.0,0.0,0.0,0.0,0.0,0.0,0.0022530527929
1756813479178499000,22,1756813479178499000,map,13.2065991549,-1.49981392618,0.0,0.0,0.0,0.775132559537,0.631798634966,0.01330940898,-0.0377472962316,0.0,0.0,0.0,0.0,-0.0377472962316,0.265572994486,0.0,0.0,0.0,0.0,0.0,0.0,0.0,0.0,0.0,0.0,0.0,0.0,0.0,0.0,0.0,0.0,0.0,0.0,0.0,0.0,0.0,0.0,0.0,0.0,0.0,0.0,0.0,0.00199640741993
1756813479845280000,23,1756813479845280000,map,13.2735981079,-1.92873589467,0.0,0.0,0.0,0.769610604372,0.638513521892,0.0122331302047,-0.035108291373,0.0,0.0,0.0,0.0,-0.035108291373,0.258940831416,0.0,0.0,0.0,0.0,0.0,0.0,0.0,0.0,0.0,0.0,0.0,0.0,0.0,0.0,0.0,0.0,0.0,0.0,0.0,0.0,0.0,0.0,0.0,0.0,0.0,0.0,0.0,0.0018789846984
1756813480711917000,24,1756813480711917000,map,13.3461440627,-2.49034952907,0.0,0.0,0.0,0.761333693753,0.648360244584,0.0111735842967,-0.0342530859795,0.0,0.0,0.0,0.0,-0.0342530859795,0.256883174603,0.0,0.0,0.0,0.0,0.0,0.0,0.0,0.0,0.0,0.0,0.0,0.0,0.0,0.0,0.0,0.0,0.0,0.0,0.0,0.0,0.0,0.0,0.0,0.0,0.0,0.0,0.0,0.0026207373217
1756813481977919000,25,1756813481977919000,map,13.4685996836,-3.33483805558,0.0,0.0,0.0,0.763218915304,0.646139990499,0.0151889485678,-0.0328600866616,0.0,0.0,0.0,0.0,-0.0328600866616,0.256339285172,0.0,0.0,0.0,0.0,0.0,0.0,0.0,0.0,0.0,0.0,0.0,0.0,0.0,0.0,0.0,0.0,0.0,0.0,0.0,0.0,0.0,0.0,0.0,0.0,0.0,0.0,0.0,0.00945862423356
1756813482978535000,26,1756813482978535000,map,13.5706798673,-3.87854546468,0.0,0.0,0.0,0.765550123233,0.64337625758,0.0219227977029,-0.0280064049078,0.0,0.0,0.0,0.0,-0.0280064049078,0.253972648071,0.0,0.0,0.0,0.0,0.0,0.0,0.0,0.0,0.0,0.0,0.0,0.0,0.0,0.0,0.0,0.0,0.0,0.0,0.0,0.0,0.0,0.0,0.0,0.0,0.0,0.0,0.0,0.00799190514009
1756813483711474000,27,1756813483711474000,map,13.6213380212,-4.40443287924,0.0,0.0,0.0,0.765195032418,0.643798541753,0.0240372565402,-0.0289954457707,0.0,0.0,0.0,0.0,-0.0289954457707,0.241839474304,0.0,0.0,0.0,0.0,0.0,0.0,0.0,0.0,0.0,0.0,0.0,0.0,0.0,0.0,0.0,0.0,0.0,0.0,0.0,0.0,0.0,0.0,0.0,0.0,0.0,0.0,0.0,0.00639342363549
1756813486511854000,28,1756813486511854000,map,13.7961643074,-5.94282234622,0.0,0.0,0.0,0.746396539847,0.665501469047,0.408643420551,0.0158100342863,0.0,0.0,0.0,0.0,0.0158100342863,0.455201183216,0.0,0.0,0.0,0.0,0.0,0.0,0.0,0.0,0.0,0.0,0.0,0.0,0.0,0.0,0.0,0.0,0.0,0.0,0.0,0.0,0.0,0.0,0.0,0.0,0.0,0.0,0.0,0.271507143385
1756813487578779000,29,1756813487578779000,map,13.9520552252,-6.65594693121,0.0,0.0,0.0,0.77011215896,0.637908506467,0.722073841277,0.0625834498337,0.0,0.0,0.0,0.0,0.0625834498337,0.526535889905,0.0,0.0,0.0,0.0,0.0,0.0,0.0,0.0,0.0,0.0,0.0,0.0,0.0,0.0,0.0,0.0,0.0,0.0,0.0,0.0,0.0,0.0,0.0,0.0,0.0,0.0,0.0,0.225314692044
1756813488644791000,30,1756813488644791000,map,14.0493909137,-7.18263470898,0.0,0.0,0.0,0.766344369231,0.642430002216,0.921745346884,0.120423837552,0.0,0.0,0.0,0.0,0.120423837552,0.562988804143,0.0,0.0,0.0,0.0,0.0,0.0,0.0,0.0,0.0,0.0,0.0,0.0,0.0,0.0,0.0,0.0,0.0,0.0,0.0,0.0,0.0,0.0,0.0,0.0,0.0,0.0,0.0,0.170213288726
1756813489912054000,31,1756813489912054000,map,14.2164678807,-7.91432953617,0.0,0.0,0.0,0.753826083953,0.657073995188,1.36103078885,0.192355221536,0.0,0.0,0.0,0.0,0.192355221536,0.637970506194,0.0,0.0,0.0,0.0,0.0,0.0,0.0,0.0,0.0,0.0,0.0,0.0,0.0,0.0,0.0,0.0,0.0,0.0,0.0,0.0,0.0,0.0,0.0,0.0,0.0,0.0,0.0,0.1580583394
1756813491245467000,32,1756813491245467000,map,14.0895827068,-8.67592826915,0.0,0.0,0.0,0.728408600747,0.685142985338,1.92101665188,0.159911863004,0.0,0.0,0.0,0.0,0.159911863004,0.69733811801,0.0,0.0,0.0,0.0,0.0,0.0,0.0,0.0,0.0,0.0,0.0,0.0,0.0,0.0,0.0,0.0,0.0,0.0,0.0,0.0,0.0,0.0,0.0,0.0,0.0,0.0,0.0,0.155529731475
1756813491911664000,33,1756813491911664000,map,13.9129739922,-9.04144890721,0.0,0.0,0.0,0.668304344905,0.743887963729,1.40268848305,0.0140614271991,0.0,0.0,0.0,0.0,0.0140614271991,0.569640349718,0.0,0.0,0.0,0.0,0.0,0.0,0.0,0.0,0.0,0.0,0.0,0.0,0.0,0.0,0.0,0.0,0.0,0.0,0.0,0.0,0.0,0.0,0.0,0.0,0.0,0.0,0.0,0.0983690203279
1756813492911474000,34,1756813492911474000,map,13.694825264,-9.61472291466,0.0,0.0,0.0,0.620052415014,0.784560388138,2.00768687227,-0.275749627488,0.0,0.0,0.0,0.0,-0.275749627488,0.70736889326,0.0,0.0,0.0,0.0,0.0,0.0,0.0,0.0,0.0,0.0,0.0,0.0,0.0,0.0,0.0,0.0,0.0,0.0,0.0,0.0,0.0,0.0,0.0,0.0,0.0,0.0,0.0,0.116575957989
1756813494111069000,35,1756813494111069000,map,13.5555169367,-10.2866224262,0.0,0.0,0.0,0.428134733833,0.903714916158,4.75386055964,-1.96940716871,0.0,0.0,0.0,0.0,-1.96940716871,1.82105537691,0.0,0.0,0.0,0.0,0.0,0.0,0.0,0.0,0.0,0.0,0.0,0.0,0.0,0.0,0.0,0.0,0.0,0.0,0.0,0.0,0.0,0.0,0.0,0.0,0.0,0.0,0.0,0.251349613774
1756813495111635000,36,1756813495111635000,map,12.9927810794,-10.6184755059,0.0,0.0,0.0,0.042900939912,0.999079330862,6.02934171061,-3.70143627739,0.0,0.0,0.0,0.0,-3.70143627739,3.79740769749,0.0,0.0,0.0,0.0,0.0,0.0,0.0,0.0,0.0,0.0,0.0,0.0,0.0,0.0,0.0,0.0,0.0,0.0,0.0,0.0,0.0,0.0,0.0,0.0,0.0,0.0,0.0,0.363617703121
1756813496245177000,37,1756813496245177000,map,12.2101239019,-10.3460796015,0.0,0.0,0.0,-0.40412884251,0.914702070978,6.27286099884,-5.68858832465,0.0,0.0,0.0,0.0,-5.68858832465,7.54227088749,0.0,0.0,0.0,0.0,0.0,0.0,0.0,0.0,0.0,0.0,0.0,0.0,0.0,0.0,0.0,0.0,0.0,0.0,0.0,0.0,0.0,0.0,0.0,0.0,0.0,0.0,0.0,0.659362192028
1756813497111711000,38,1756813497111711000,map,7.43852606195,-5.90176899225,0.0,0.0,0.0,-0.931875641581,0.362777877808,4.1754239102,-4.33197765033,0.0,0.0,0.0,0.0,-4.33197765033,6.86420780518,0.0,0.0,0.0,0.0,0.0,0.0,0.0,0.0,0.0,0.0,0.0,0.0,0.0,0.0,0.0,0.0,0.0,0.0,0.0,0.0,0.0,0.0,0.0,0.0,0.0,0.0,0.0,0.624056244207
1756813498045514000,39,1756813498045514000,map,8.38336428214,-5.11921688919,0.0,0.0,0.0,-0.997753203568,0.0669966026724,2.31724536365,-2.122414473,0.0,0.0,0.0,0.0,-2.122414473,3.47744684152,0.0,0.0,0.0,0.0,0.0,0.0,0.0,0.0,0.0,0.0,0.0,0.0,0.0,0.0,0.0,0.0,0.0,0.0,0.0,0.0,0.0,0.0,0.0,0.0,0.0,0.0,0.0,0.399964797124
1756813499244543000,40,1756813499244543000,map,9.20274939144,-4.98739727512,0.0,0.0,0.0,0.999584731101,0.0288160606043,0.754097805067,-0.509514737592,0.0,0.0,0.0,0.0,-0.509514737592,1.23705898209,0.0,0.0,0.0,0.0,0.0,0.0,0.0,0.0,0.0,0.0,0.0,0.0,0.0,0.0,0.0,0.0,0.0,0.0,0.0,0.0,0.0,0.0,0.0,0.0,0.0,0.0,0.0,0.226928691174
1756813500177976000,41,1756813500177976000,map,9.82590762601,-4.89100925337,0.0,0.0,0.0,0.990376405826,0.138400053409,0.446917374128,-0.276981874021,0.0,0.0,0.0,0.0,-0.276981874021,0.829848536423,0.0,0.0,0.0,0.0,0.0,0.0,0.0,0.0,0.0,0.0,0.0,0.0,0.0,0.0,0.0,0.0,0.0,0.0,0.0,0.0,0.0,0.0,0.0,0.0,0.0,0.0,0.0,0.217254927551
1756813501178445000,42,1756813501178445000,map,10.3938286682,-5.07053750453,0.0,0.0,0.0,0.991687098089,0.128672838955,0.418533511365,-0.291216908884,0.0,0.0,0.0,0.0,-0.291216908884,0.633510413414,0.0,0.0,0.0,0.0,0.0,0.0,0.0,0.0,0.0,0.0,0.0,0.0,0.0,0.0,0.0,0.0,0.0,0.0,0.0,0.0,0.0,0.0,0.0,0.0,0.0,0.0,0.0,0.241354036613
1756813502378200000,43,1756813502378200000,map,11.2525658308,-5.30555076704,0.0,0.0,0.0,0.993721660825,0.111880564924,0.331815412319,-0.258529428721,0.0,0.0,0.0,0.0,-0.258529428721,0.596300884689,0.0,0.0,0.0,0.0,0.0,0.0,0.0,0.0,0.0,0.0,0.0,0.0,0.0,0.0,0.0,0.0,0.0,0.0,0.0,0.0,0.0,0.0,0.0,0.0,0.0,0.0,0.0,0.220446060293
1756813503845304000,44,1756813503845304000,map,12.1087518702,-5.50641968608,0.0,0.0,0.0,0.997301849311,0.0734099540945,0.303548511444,-0.199667627342,0.0,0.0,0.0,0.0,-0.199667627342,0.834968201603,0.0,0.0,0.0,0.0,0.0,0.0,0.0,0.0,0.0,0.0,0.0,0.0,0.0,0.0,0.0,0.0,0.0,0.0,0.0,0.0,0.0,0.0,0.0,0.0,0.0,0.0,0.0,0.207598045529
1756813505178147000,45,1756813505178147000,map,12.6315481627,-5.4486880164,0.0,0.0,0.0,0.998949591583,0.0458226306176,0.450459161904,-0.245890348402,0.0,0.0,0.0,0.0,-0.245890348402,1.61020557635,0.0,0.0,0.0,0.0,0.0,0.0,0.0,0.0,0.0,0.0,0.0,0.0,0.0,0.0,0.0,0.0,0.0,0.0,0.0,0.0,0.0,0.0,0.0,0.0,0.0,0.0,0.0,0.259283315214
1756813506178662000,46,1756813506178662000,map,13.093407901,-4.75776238704,0.0,0.0,0.0,-0.997500223767,0.0706633114423,0.610624536661,-0.514094993041,0.0,0.0,0.0,0.0,-0.514094993041,2.94130398038,0.0,0.0,0.0,0.0,0.0,0.0,0.0,0.0,0.0,0.0,0.0,0.0,0.0,0.0,0.0,0.0,0.0,0.0,0.0,0.0,0.0,0.0,0.0,0.0,0.0,0.0,0.0,0.362647312364
1756813507578355000,47,1756813507578355000,map,13.5955187589,-4.1968806741,0.0,0.0,0.0,-0.991668991412,0.128812311025,0.901953399522,-1.11235111002,0.0,0.0,0.0,0.0,-1.11235111002,5.08984675274,0.0,0.0,0.0,0.0,0.0,0.0,0.0,0.0,0.0,0.0,0.0,0.0,0.0,0.0,0.0,0.0,0.0,0.0,0.0,0.0,0.0,0.0,0.0,0.0,0.0,0.0,0.0,0.585655522323
1756813509178305000,48,1756813509178305000,map,14.3902333502,-4.0348696008,0.0,0.0,0.0,-0.991497964781,0.130122195783,1.12578085809,-1.7010245807,0.0,0.0,0.0,0.0,-1.7010245807,7.53910642822,0.0,0.0,0.0,0.0,0.0,0.0,0.0,0.0,0.0,0.0,0.0,0.0,0.0,0.0,0.0,0.0,0.0,0.0,0.0,0.0,0.0,0.0,0.0,0.0,0.0,0.0,0.0,0.76405521222
1756813510111665000,49,1756813510111665000,map,12.9682062486,-1.43304930755,0.0,0.0,0.0,-0.702969976388,0.711219524688,1.11999417476,-1.76382055849,0.0,0.0,0.0,0.0,-1.76382055849,6.6084620139,0.0,0.0,0.0,0.0,0.0,0.0,0.0,0.0,0.0,0.0,0.0,0.0,0.0,0.0,0.0,0.0,0.0,0.0,0.0,0.0,0.0,0.0,0.0,0.0,0.0,0.0,0.0,0.677739727394
1756813510978110000,50,1756813510978110000,map,12.8695432909,-0.964827720866,0.0,0.0,0.0,-0.677264405313,0.735739713007,0.867427003232,-1.39715863398,0.0,0.0,0.0,0.0,-1.39715863398,5.17737141182,0.0,0.0,0.0,0.0,0.0,0.0,0.0,0.0,0.0,0.0,0.0,0.0,0.0,0.0,0.0,0.0,0.0,0.0,0.0,0.0,0.0,0.0,0.0,0.0,0.0,0.0,0.0,0.406675498718
1756813511911508000,51,1756813511911508000,map,12.7745321964,-0.351731390463,0.0,0.0,0.0,-0.660862357044,0.750507125245,0.595298884264,-0.79234526373,0.0,0.0,0.0,0.0,-0.79234526373,2.63688091737,0.0,0.0,0.0,0.0,0.0,0.0,0.0,0.0,0.0,0.0,0.0,0.0,0.0,0.0,0.0,0.0,0.0,0.0,0.0,0.0,0.0,0.0,0.0,0.0,0.0,0.0,0.0,0.172165922679
1756813512845270000,52,1756813512845270000,map,12.6629684601,0.077064288601,0.0,0.0,0.0,-0.651974462394,0.758240925027,0.172586650001,-0.23328218978,0.0,0.0,0.0,0.0,-0.23328218978,0.872550247467,0.0,0.0,0.0,0.0,0.0,0.0,0.0,0.0,0.0,0.0,0.0,0.0,0.0,0.0,0.0,0.0,0.0,0.0,0.0,0.0,0.0,0.0,0.0,0.0,0.0,0.0,0.0,0.0354575437517
1756813513978244000,53,1756813513978244000,map,12.5492139852,0.799618095434,0.0,0.0,0.0,-0.649088582772,0.760712831307,0.0546598793687,-0.0933387378862,0.0,0.0,0.0,0.0,-0.0933387378862,0.428931385026,0.0,0.0,0.0,0.0,0.0,0.0,0.0,0.0,0.0,0.0,0.0,0.0,0.0,0.0,0.0,0.0,0.0,0.0,0.0,0.0,0.0,0.0,0.0,0.0,0.0,0.0,0.0,0.00930391150734
1756813514844595000,54,1756813514844595000,map,12.4757539103,1.41749928361,0.0,0.0,0.0,-0.651604039275,0.758559276524,0.015012627094,-0.0455713194387,0.0,0.0,0.0,0.0,-0.0455713194387,0.31316149053,0.0,0.0,0.0,0.0,0.0,0.0,0.0,0.0,0.0,0.0,0.0,0.0,0.0,0.0,0.0,0.0,0.0,0.0,0.0,0.0,0.0,0.0,0.0,0.0,0.0,0.0,0.0,0.00390366757052
1756813516111430000,55,1756813516111430000,map,12.3439751696,2.17857614421,0.0,0.0,0.0,-0.652396015593,0.75787824803,0.0142791633442,-0.0451664330185,0.0,0.0,0.0,0.0,-0.0451664330185,0.314206092665,0.0,0.0,0.0,0.0,0.0,0.0,0.0,0.0,0.0,0.0,0.0,0.0,0.0,0.0,0.0,0.0,0.0,0.0,0.0,0.0,0.0,0.0,0.0,0.0,0.0,0.0,0.0,0.00892372074161
1756813517378554000,56,1756813517378554000,map,12.1869700257,3.02610863268,0.0,0.0,0.0,-0.647085336936,0.762417580282,0.0140772489256,-0.0457451888067,0.0,0.0,0.0,0.0,-0.0457451888067,0.319705861004,0.0,0.0,0.0,0.0,0.0,0.0,0.0,0.0,0.0,0.0,0.0,0.0,0.0,0.0,0.0,0.0,0.0,0.0,0.0,0.0,0.0,0.0,0.0,0.0,0.0,0.0,0.0,0.00549873815669
1756813518377959000,57,1756813518377959000,map,12.0717990309,3.56305833568,0.0,0.0,0.0,-0.650624321536,0.759399757852,0.0133484913604,-0.0474760876067,0.0,0.0,0.0,0.0,-0.0474760876067,0.323170180287,0.0,0.0,0.0,0.0,0.0,0.0,0.0,0.0,0.0,0.0,0.0,0.0,0.0,0.0,0.0,0.0,0.0,0.0,0.0,0.0,0.0,0.0,0.0,0.0,0.0,0.0,0.0,0.00353552521516
1756813519578354000,58,1756813519578354000,map,11.9728202504,4.31891840676,0.0,0.0,0.0,-0.669592306865,0.74272884863,0.0129788089311,-0.049108946945,0.0,0.0,0.0,0.0,-0.049108946945,0.329470675182,0.0,0.0,0.0,0.0,0.0,0.0,0.0,0.0,0.0,0.0,0.0,0.0,0.0,0.0,0.0,0.0,0.0,0.0,0.0,0.0,0.0,0.0,0.0,0.0,0.0,0.0,0.0,0.00345449507643
1756813520778434000,59,1756813520778434000,map,11.8769125217,5.05382764009,0.0,0.0,0.0,-0.665408267229,0.746479629932,0.0122331640735,-0.0491161055346,0.0,0.0,0.0,0.0,-0.0491161055346,0.329882961198,0.0,0.0,0.0,0.0,0.0,0.0,0.0,0.0,0.0,0.0,0.0,0.0,0.0,0.0,0.0,0.0,0.0,0.0,0.0,0.0,0.0,0.0,0.0,0.0,0.0,0.0,0.0,0.00351442622549
1756813521777899000,60,1756813521777899000,map,11.7745424569,5.705234845,0.0,0.0,0.0,-0.65786023908,0.753140030696,0.011589554933,-0.0487992886977,0.0,0.0,0.0,0.0,-0.0487992886977,0.330731994062,0.0,0.0,0.0,0.0,0.0,0.0,0.0,0.0,0.0,0.0,0.0,0.0,0.0,0.0,0.0,0.0,0.0,0.0,0.0,0.0,0.0,0.0,0.0,0.0,0.0,0.0,0.0,0.00280998084727
1756813522778437000,61,1756813522778437000,map,11.6896959302,6.30157211982,0.0,0.0,0.0,-0.662406375638,0.749144707993,0.0103595587806,-0.0490655072227,0.0,0.0,0.0,0.0,-0.0490655072227,0.336523081429,0.0,0.0,0.0,0.0,0.0,0.0,0.0,0.0,0.0,0.0,0.0,0.0,0.0,0.0,0.0,0.0,0.0,0.0,0.0,0.0,0.0,0.0,0.0,0.0,0.0,0.0,0.0,0.00244063796686
1756813523911932000,62,1756813523911932000,map,11.6337683535,7.00152701279,0.0,0.0,0.0,-0.662763327831,0.748828933256,0.0112604270308,-0.0486083146435,0.0,0.0,0.0,0.0,-0.0486083146435,0.338237344259,0.0,0.0,0.0,0.0,0.0,0.0,0.0,0.0,0.0,0.0,0.0,0.0,0.0,0.0,0.0,0.0,0.0,0.0,0.0,0.0,0.0,0.0,0.0,0.0,0.0,0.0,0.0,0.00394706615395
1756813524845118000,63,1756813524845118000,map,11.5494363288,7.60305912738,0.0,0.0,0.0,-0.671629552362,0.74088713337,0.0133497277709,-0.0466178014596,0.0,0.0,0.0,0.0,-0.0466178014596,0.334449767792,0.0,0.0,0.0,0.0,0.0,0.0,0.0,0.0,0.0,0.0,0.0,0.0,0.0,0.0,0.0,0.0,0.0,0.0,0.0,0.0,0.0,0.0,0.0,0.0,0.0,0.0,0.0,0.0047132681423
1756813525777888000,64,1756813525777888000,map,11.4606903503,8.22541108802,0.0,0.0,0.0,-0.664896203639,0.746935765904,0.0128027525187,-0.0465134918226,0.0,0.0,0.0,0.0,-0.0465134918226,0.341691131387,0.0,0.0,0.0,0.0,0.0,0.0,0.0,0.0,0.0,0.0,0.0,0.0,0.0,0.0,0.0,0.0,0.0,0.0,0.0,0.0,0.0,0.0,0.0,0.0,0.0,0.0,0.0,0.00334120771581
1756813527045344000,65,1756813527045344000,map,11.3683982045,9.01482012886,0.0,0.0,0.0,-0.669801373928,0.742540315056,0.0144131511203,-0.0492650001332,0.0,0.0,0.0,0.0,-0.0492650001332,0.349529824717,0.0,0.0,0.0,0.0,0.0,0.0,0.0,0.0,0.0,0.0,0.0,0.0,0.0,0.0,0.0,0.0,0.0,0.0,0.0,0.0,0.0,0.0,0.0,0.0,0.0,0.0,0.0,0.00522436536932
1756813528378393000,66,1756813528378393000,map,11.27889135,9.73427512501,0.0,0.0,0.0,-0.675183619091,0.737649700407,0.0216174270644,-0.0496318431584,0.0,0.0,0.0,0.0,-0.0496318431584,0.3414285185,0.0,0.0,0.0,0.0,0.0,0.0,0.0,0.0,0.0,0.0,0.0,0.0,0.0,0.0,0.0,0.0,0.0,0.0,0.0,0.0,0.0,0.0,0.0,0.0,0.0,0.0,0.0,0.0108067473779
1756813530845096000,67,1756813530845096000,map,10.9641769298,11.2810802458,0.0,0.0,0.0,-0.573837186054,0.81896940352,0.122753663796,-0.0532718982518,0.0,0.0,0.0,0.0,-0.0532718982518,0.390591407132,0.0,0.0,0.0,0.0,0.0,0.0,0.0,0.0,0.0,0.0,0.0,0.0,0.0,0.0,0.0,0.0,0.0,0.0,0.0,0.0,0.0,0.0,0.0,0.0,0.0,0.0,0.0,0.0864709084171
1756813532245463000,68,1756813532245463000,map,10.6468141827,12.0044340371,0.0,0.0,0.0,-0.440190377208,0.897904466975,0.290942787057,-0.0182082369566,0.0,0.0,0.0,0.0,-0.0182082369566,0.391963061855,0.0,0.0,0.0,0.0,0.0,0.0,0.0,0.0,0.0,0.0,0.0,0.0,0.0,0.0,0.0,0.0,0.0,0.0,0.0,0.0,0.0,0.0,0.0,0.0,0.0,0.0,0.0,0.0919101442903
1756813533111774000,69,1756813533111774000,map,10.1929602517,12.2694575411,0.0,0.0,0.0,-0.19852196931,0.98009643796,0.389638218131,0.0410252170444,0.0,0.0,0.0,0.0,0.0410252170444,0.402363523084,0.0,0.0,0.0,0.0,0.0,0.0,0.0,0.0,0.0,0.0,0.0,0.0,0.0,0.0,0.0,0.0,0.0,0.0,0.0,0.0,0.0,0.0,0.0,0.0,0.0,0.0,0.0,0.0874826035019
1756813534577815000,70,1756813534577815000,map,9.29984451458,12.2640432076,0.0,0.0,0.0,0.271849362447,0.962339817392,0.405247987393,0.167819488515,0.0,0.0,0.0,0.0,0.167819488515,0.549762920183,0.0,0.0,0.0,0.0,0.0,0.0,0.0,0.0,0.0,0.0,0.0,0.0,0.0,0.0,0.0,0.0,0.0,0.0,0.0,0.0,0.0,0.0,0.0,0.0,0.0,0.0,0.0,0.117778833234
1756813535311102000,71,1756813535311102000,map,9.00873762771,11.9668567596,0.0,0.0,0.0,0.491662700156,0.870785730978,0.314885864511,0.167897284645,0.0,0.0,0.0,0.0,0.167897284645,0.667097694027,0.0,0.0,0.0,0.0,0.0,0.0,0.0,0.0,0.0,0.0,0.0,0.0,0.0,0.0,0.0,0.0,0.0,0.0,0.0,0.0,0.0,0.0,0.0,0.0,0.0,0.0,0.0,0.129066167172
1756813536311566000,72,1756813536311566000,map,8.81706922986,11.346675628,0.0,0.0,0.0,0.657966162842,0.753047494222,0.229338094017,0.0814529118527,0.0,0.0,0.0,0.0,0.0814529118527,0.806527596106,0.0,0.0,0.0,0.0,0.0,0.0,0.0,0.0,0.0,0.0,0.0,0.0,0.0,0.0,0.0,0.0,0.0,0.0,0.0,0.0,0.0,0.0,0.0,0.0,0.0,0.0,0.0,0.143037109217
1756813538177813000,73,1756813538177813000,map,8.94606794469,10.5900368445,0.0,0.0,0.0,0.858400547751,0.512980018735,0.21442554715,-0.0829360196714,0.0,0.0,0.0,0.0,-0.0829360196714,0.817078420821,0.0,0.0,0.0,0.0,0.0,0.0,0.0,0.0,0.0,0.0,0.0,0.0,0.0,0.0,0.0,0.0,0.0,0.0,0.0,0.0,0.0,0.0,0.0,0.0,0.0,0.0,0.0,0.153510749826
1756813539644980000,74,1756813539644980000,map,9.30306936232,10.1849994448,0.0,0.0,0.0,0.949485852592,0.313809840075,0.29300100364,-0.148006272767,0.0,0.0,0.0,0.0,-0.148006272767,0.648331135328,0.0,0.0,0.0,0.0,0.0,0.0,0.0,0.0,0.0,0.0,0.0,0.0,0.0,0.0,0.0,0.0,0.0,0.0,0.0,0.0,0.0,0.0,0.0,0.0,0.0,0.0,0.0,0.169105347501
1756813540311571000,75,1756813540311571000,map,9.36337570994,10.1661146141,0.0,0.0,0.0,0.923532024483,0.383521315907,0.38953365777,-0.134209398469,0.0,0.0,0.0,0.0,-0.134209398469,0.502973225085,0.0,0.0,0.0,0.0,0.0,0.0,0.0,0.0,0.0,0.0,0.0,0.0,0.0,0.0,0.0,0.0,0.0,0.0,0.0,0.0,0.0,0.0,0.0,0.0,0.0,0.0,0.0,0.177375017062
1756813541178108000,76,1756813541178108000,map,9.33930930378,9.82686626311,0.0,0.0,0.0,0.865064289613,0.501661015862,0.574439567469,-0.123598244385,0.0,0.0,0.0,0.0,-0.123598244385,0.391747999372,0.0,0.0,0.0,0.0,0.0,0.0,0.0,0.0,0.0,0.0,0.0,0.0,0.0,0.0,0.0,0.0,0.0,0.0,0.0,0.0,0.0,0.0,0.0,0.0,0.0,0.0,0.0,0.18453123716
1756813542111721000,77,1756813542111721000,map,9.13087719409,9.43294583864,0.0,0.0,0.0,0.80797650829,0.589214699453,0.695776638252,-0.0453312714749,0.0,0.0,0.0,0.0,-0.0453312714749,0.218436659232,0.0,0.0,0.0,0.0,0.0,0.0,0.0,0.0,0.0,0.0,0.0,0.0,0.0,0.0,0.0,0.0,0.0,0.0,0.0,0.0,0.0,0.0,0.0,0.0,0.0,0.0,0.0,0.137991623851
1756813542845164000,78,1756813542845164000,map,9.12896245744,8.85216959881,0.0,0.0,0.0,0.78138149632,0.624053649303,0.501220391831,-0.00106591442703,0.0,0.0,0.0,0.0,-0.00106591442703,0.142494877706,0.0,0.0,0.0,0.0,0.0,0.0,0.0,0.0,0.0,0.0,0.0,0.0,0.0,0.0,0.0,0.0,0.0,0.0,0.0,0.0,0.0,0.0,0.0,0.0,0.0,0.0,0.0,0.069320942485
1756813543577748000,79,1756813543577748000,map,8.97247850936,8.41895128217,0.0,0.0,0.0,0.755949871214,0.654629507593,0.189707435322,0.00618669609101,0.0,0.0,0.0,0.0,0.00618669609101,0.104478489608,0.0,0.0,0.0,0.0,0.0,0.0,0.0,0.0,0.0,0.0,0.0,0.0,0.0,0.0,0.0,0.0,0.0,0.0,0.0,0.0,0.0,0.0,0.0,0.0,0.0,0.0,0.0,0.0214460971761
1756813544511512000,80,1756813544511512000,map,9.02560643418,7.85594835496,0.0,0.0,0.0,0.756751378508,0.653702800305,0.0339599064381,-0.00730648714404,0.0,0.0,0.0,0.0,-0.00730648714404,0.0828493141961,0.0,0.0,0.0,0.0,0.0,0.0,0.0,0.0,0.0,0.0,0.0,0.0,0.0,0.0,0.0,0.0,0.0,0.0,0.0,0.0,0.0,0.0,0.0,0.0,0.0,0.0,0.0,0.00472073342963
1756813545177789000,81,1756813545177789000,map,9.08118486601,7.3615911538,0.0,0.0,0.0,0.752934708424,0.658095224758,0.0118041115122,-0.00908146890153,0.0,0.0,0.0,0.0,-0.00908146890153,0.0796463440938,0.0,0.0,0.0,0.0,0.0,0.0,0.0,0.0,0.0,0.0,0.0,0.0,0.0,0.0,0.0,0.0,0.0,0.0,0.0,0.0,0.0,0.0,0.0,0.0,0.0,0.0,0.0,0.00277333756925
1756813546244827000,82,1756813546244827000,map,9.19026754854,6.66050402959,0.0,0.0,0.0,0.766796851223,0.641889857339,0.0118996800915,-0.0105711300602,0.0,0.0,0.0,0.0,-0.0105711300602,0.0766378744189,0.0,0.0,0.0,0.0,0.0,0.0,0.0,0.0,0.0,0.0,0.0,0.0,0.0,0.0,0.0,0.0,0.0,0.0,0.0,0.0,0.0,0.0,0.0,0.0,0.0,0.0,0.0,0.00408749709116
1756813546978051000,83,1756813546978051000,map,9.2483685267,6.17184192754,0.0,0.0,0.0,0.767194769853,0.641414207131,0.010282194547,-0.0108540915741,0.0,0.0,0.0,0.0,-0.0108540915741,0.0739849586056,0.0,0.0,0.0,0.0,0.0,0.0,0.0,0.0,0.0,0.0,0.0,0.0,0.0,0.0,0.0,0.0,0.0,0.0,0.0,0.0,0.0,0.0,0.0,0.0,0.0,0.0,0.0,0.00286000447337
1756813547778308000,84,1756813547778308000,map,9.3134588491,5.6573916301,0.0,0.0,0.0,0.766150435028,0.642661272294,0.00972429251091,-0.0107590572137,0.0,0.0,0.0,0.0,-0.0107590572137,0.072167572498,0.0,0.0,0.0,0.0,0.0,0.0,0.0,0.0,0.0,0.0,0.0,0.0,0.0,0.0,0.0,0.0,0.0,0.0,0.0,0.0,0.0,0.0,0.0,0.0,0.0,0.0,0.0,0.00238362036709
1756813548447204000,85,1756813548447204000,map,9.37024286401,5.25448894116,0.0,0.0,0.0,0.770071447039,0.637957652556,0.00826515088738,-0.0110282120412,0.0,0.0,0.0,0.0,-0.0110282120412,0.0721295809856,0.0,0.0,0.0,0.0,0.0,0.0,0.0,0.0,0.0,0.0,0.0,0.0,0.0,0.0,0.0,0.0,0.0,0.0,0.0,0.0,0.0,0.0,0.0,0.0,0.0,0.0,0.0,0.00153125875137
1756813549244208000,86,1756813549244208000,map,9.42344189848,4.79590342026,0.0,0.0,0.0,0.775013953523,0.631944120825,0.00862760240334,-0.0112013826578,0.0,0.0,0.0,0.0,-0.0112013826578,0.0744076097383,0.0,0.0,0.0,0.0,0.0,0.0,0.0,0.0,0.0,0.0,0.0,0.0,0.0,0.0,0.0,0.0,0.0,0.0,0.0,0.0,0.0,0.0,0.0,0.0,0.0,0.0,0.0,0.00207299620647
1756813550178231000,87,1756813550178231000,map,9.50338924161,4.27282275924,0.0,0.0,0.0,0.775548986773,0.631287390271,0.00921472161835,-0.0103236003797,0.0,0.0,0.0,0.0,-0.0103236003797,0.0742449864929,0.0,0.0,0.0,0.0,0.0,0.0,0.0,0.0,0.0,0.0,0.0,0.0,0.0,0.0,0.0,0.0,0.0,0.0,0.0,0.0,0.0,0.0,0.0,0.0,0.0,0.0,0.0,0.0026978421432
1756813551578292000,88,1756813551578292000,map,9.7067983555,3.29613462015,0.0,0.0,0.0,0.778020994681,0.628238276322,0.0155389131753,-0.00933964746742,0.0,0.0,0.0,0.0,-0.00933964746741,0.0768505861886,0.0,0.0,0.0,0.0,0.0,0.0,0.0,0.0,0.0,0.0,0.0,0.0,0.0,0.0,0.0,0.0,0.0,0.0,0.0,0.0,0.0,0.0,0.0,0.0,0.0,0.0,0.0,0.0100698078828
1756813552377783000,89,1756813552377783000,map,9.75051837608,2.81143183935,0.0,0.0,0.0,0.775554578891,0.631280520182,0.0142808751375,-0.00823781702775,0.0,0.0,0.0,0.0,-0.00823781702775,0.073934334604,0.0,0.0,0.0,0.0,0.0,0.0,0.0,0.0,0.0,0.0,0.0,0.0,0.0,0.0,0.0,0.0,0.0,0.0,0.0,0.0,0.0,0.0,0.0,0.0,0.0,0.0,0.0,0.00615697698984
1756813553178196000,90,1756813553178196000,map,9.82102602685,2.24018453375,0.0,0.0,0.0,0.775556501216,0.631278158517,0.0125157284909,-0.00815374928047,0.0,0.0,0.0,0.0,-0.00815374928047,0.0708964593914,0.0,0.0,0.0,0.0,0.0,0.0,0.0,0.0,0.0,0.0,0.0,0.0,0.0,0.0,0.0,0.0,0.0,0.0,0.0,0.0,0.0,0.0,0.0,0.0,0.0,0.0,0.0,0.00398401078509
1756813554377664000,91,1756813554377664000,map,9.95861876499,1.44728079633,0.0,0.0,0.0,0.777937193632,0.628342042811,0.0160960534014,-0.00745173167991,0.0,0.0,0.0,0.0,-0.00745173167991,0.0724382370108,0.0,0.0,0.0,0.0,0.0,0.0,0.0,0.0,0.0,0.0,0.0,0.0,0.0,0.0,0.0,0.0,0.0,0.0,0.0,0.0,0.0,0.0,0.0,0.0,0.0,0.0,0.0,0.00546393275687
1756813555110928000,92,1756813555110928000,map,10.0415033445,1.0035106295,0.0,0.0,0.0,0.780392059051,0.625290519815,0.0225080551549,-0.0054965048206,0.0,0.0,0.0,0.0,-0.0054965048206,0.072235667047,0.0,0.0,0.0,0.0,0.0,0.0,0.0,0.0,0.0,0.0,0.0,0.0,0.0,0.0,0.0,0.0,0.0,0.0,0.0,0.0,0.0,0.0,0.0,0.0,0.0,0.0,0.0,0.00573017869347
1756813555777542000,93,1756813555777542000,map,10.1101110412,0.554701846117,0.0,0.0,0.0,0.778403418314,0.627764381243,0.0191100868898,-0.00656259158796,0.0,0.0,0.0,0.0,-0.00656259158796,0.0732222179525,0.0,0.0,0.0,0.0,0.0,0.0,0.0,0.0,0.0,0.0,0.0,0.0,0.0,0.0,0.0,0.0,0.0,0.0,0.0,0.0,0.0,0.0,0.0,0.0,0.0,0.0,0.0,0.00390205845759
1756813556511539000,94,1756813556511539000,map,10.1596748327,0.232891107819,0.0,0.0,0.0,0.776433657741,0.630198996451,0.0229315526627,-0.00573856485407,0.0,0.0,0.0,0.0,-0.00573856485407,0.0743375958593,0.0,0.0,0.0,0.0,0.0,0.0,0.0,0.0,0.0,0.0,0.0,0.0,0.0,0.0,0.0,0.0,0.0,0.0,0.0,0.0,0.0,0.0,0.0,0.0,0.0,0.0,0.0,0.00354047864795
1756813557244886000,95,1756813557244886000,map,10.1666158814,-0.268551968719,0.0,0.0,0.0,0.761490192483,0.648176431808,0.0134890096749,-0.0070885153607,0.0,0.0,0.0,0.0,-0.0070885153607,0.0796145218521,0.0,0.0,0.0,0.0,0.0,0.0,0.0,0.0,0.0,0.0,0.0,0.0,0.0,0.0,0.0,0.0,0.0,0.0,0.0,0.0,0.0,0.0,0.0,0.0,0.0,0.0,0.0,0.002328788586
1756813557977646000,96,1756813557977646000,map,10.2152770067,-0.781603683694,0.0,0.0,0.0,0.759926673366,0.650008808484,0.00956437124762,-0.00953362745893,0.0,0.0,0.0,0.0,-0.00953362745893,0.0836359124643,0.0,0.0,0.0,0.0,0.0,0.0,0.0,0.0,0.0,0.0,0.0,0.0,0.0,0.0,0.0,0.0,0.0,0.0,0.0,0.0,0.0,0.0,0.0,0.0,0.0,0.0,0.0,0.00191653895455
1756813558644417000,97,1756813558644417000,map,10.2630893952,-1.20483718659,0.0,0.0,0.0,0.759974851632,0.649952478945,0.00634905430864,-0.0115008456795,0.0,0.0,0.0,0.0,-0.0115008456795,0.0892939177021,0.0,0.0,0.0,0.0,0.0,0.0,0.0,0.0,0.0,0.0,0.0,0.0,0.0,0.0,0.0,0.0,0.0,0.0,0.0,0.0,0.0,0.0,0.0,0.0,0.0,0.0,0.0,0.00148279223154
1756813559447344000,98,1756813559447344000,map,10.3522628951,-1.72743093787,0.0,0.0,0.0,0.764117486612,0.645077101326,0.00616943277564,-0.0122489105937,0.0,0.0,0.0,0.0,-0.0122489105937,0.091772529862,0.0,0.0,0.0,0.0,0.0,0.0,0.0,0.0,0.0,0.0,0.0,0.0,0.0,0.0,0.0,0.0,0.0,0.0,0.0,0.0,0.0,0.0,0.0,0.0,0.0,0.0,0.0,0.00153083830499
1756813560244520000,99,1756813560244520000,map,10.4440456803,-2.22785284886,0.0,0.0,0.0,0.767161818552,0.641453618086,0.00615633047475,-0.0131497944345,0.0,0.0,0.0,0.0,-0.0131497944345,0.0920961452401,0.0,0.0,0.0,0.0,0.0,0.0,0.0,0.0,0.0,0.0,0.0,0.0,0.0,0.0,0.0,0.0,0.0,0.0,0.0,0.0,0.0,0.0,0.0,0.0,0.0,0.0,0.0,0.00188241517718
1756813561177652000,100,1756813561177652000,map,10.5473283545,-2.84186490051,0.0,0.0,0.0,0.759247215638,0.650802324478,0.00763588285436,-0.0132679661291,0.0,0.0,0.0,0.0,-0.0132679661291,0.0958855681589,0.0,0.0,0.0,0.0,0.0,0.0,0.0,0.0,0.0,0.0,0.0,0.0,0.0,0.0,0.0,0.0,0.0,0.0,0.0,0.0,0.0,0.0,0.0,0.0,0.0,0.0,0.0,0.00319648201593
1756813562111450000,101,1756813562111450000,map,10.6427860617,-3.47643514058,0.0,0.0,0.0,0.761228918897,0.648483255786,0.00813010094448,-0.0122494102831,0.0,0.0,0.0,0.0,-0.0122494102831,0.0897808172959,0.0,0.0,0.0,0.0,0.0,0.0,0.0,0.0,0.0,0.0,0.0,0.0,0.0,0.0,0.0,0.0,0.0,0.0,0.0,0.0,0.0,0.0,0.0,0.0,0.0,0.0,0.0,0.00292001592976
1756813563177842000,102,1756813563177842000,map,10.7153949775,-4.12716149792,0.0,0.0,0.0,0.761427948951,0.648249549599,0.00941225655792,-0.0117166992209,0.0,0.0,0.0,0.0,-0.0117166992209,0.0917289721374,0.0,0.0,0.0,0.0,0.0,0.0,0.0,0.0,0.0,0.0,0.0,0.0,0.0,0.0,0.0,0.0,0.0,0.0,0.0,0.0,0.0,0.0,0.0,0.0,0.0,0.0,0.0,0.00340553037311
1756813563911573000,103,1756813563911573000,map,10.7989874306,-4.63823022555,0.0,0.0,0.0,0.763919606877,0.64531142422,0.0110188379427,-0.0114407460822,0.0,0.0,0.0,0.0,-0.0114407460822,0.0915062160909,0.0,0.0,0.0,0.0,0.0,0.0,0.0,0.0,0.0,0.0,0.0,0.0,0.0,0.0,0.0,0.0,0.0,0.0,0.0,0.0,0.0,0.0,0.0,0.0,0.0,0.0,0.0,0.00314901309721
1756813564777698000,104,1756813564777698000,map,10.8435787409,-5.21561919462,0.0,0.0,0.0,0.760096649061,0.649810036923,0.0109451763385,-0.0101125316335,0.0,0.0,0.0,0.0,-0.0101125316335,0.0895146748646,0.0,0.0,0.0,0.0,0.0,0.0,0.0,0.0,0.0,0.0,0.0,0.0,0.0,0.0,0.0,0.0,0.0,0.0,0.0,0.0,0.0,0.0,0.0,0.0,0.0,0.0,0.0,0.00316733810037
1756813565444780000,105,1756813565444780000,map,10.9078494532,-5.61222766154,0.0,0.0,0.0,0.761616722009,0.648027753076,0.0100596541384,-0.00891304412762,0.0,0.0,0.0,0.0,-0.00891304412762,0.0887783861757,0.0,0.0,0.0,0.0,0.0,0.0,0.0,0.0,0.0,0.0,0.0,0.0,0.0,0.0,0.0,0.0,0.0,0.0,0.0,0.0,0.0,0.0,0.0,0.0,0.0,0.0,0.0,0.00264666404643
1756813566378305000,106,1756813566378305000,map,10.962117801,-6.09989686373,0.0,0.0,0.0,0.757856572772,0.652421194556,0.0109565129906,-0.00962390159512,0.0,0.0,0.0,0.0,-0.00962390159512,0.0861866766928,0.0,0.0,0.0,0.0,0.0,0.0,0.0,0.0,0.0,0.0,0.0,0.0,0.0,0.0,0.0,0.0,0.0,0.0,0.0,0.0,0.0,0.0,0.0,0.0,0.0,0.0,0.0,0.00306250302973
1756813567244166000,107,1756813567244166000,map,11.0487482265,-6.67098446113,0.0,0.0,0.0,0.757706895405,0.652595020404,0.0100673094317,-0.00924242784295,0.0,0.0,0.0,0.0,-0.00924242784295,0.084685815508,0.0,0.0,0.0,0.0,0.0,0.0,0.0,0.0,0.0,0.0,0.0,0.0,0.0,0.0,0.0,0.0,0.0,0.0,0.0,0.0,0.0,0.0,0.0,0.0,0.0,0.0,0.0,0.00312770321472
1756813568110814000,108,1756813568110814000,map,11.1336996577,-7.23158572066,0.0,0.0,0.0,0.752754097548,0.658301806639,0.0109607095493,-0.00927390272183,0.0,0.0,0.0,0.0,-0.00927390272183,0.0845093181714,0.0,0.0,0.0,0.0,0.0,0.0,0.0,0.0,0.0,0.0,0.0,0.0,0.0,0.0,0.0,0.0,0.0,0.0,0.0,0.0,0.0,0.0,0.0,0.0,0.0,0.0,0.0,0.00334005275148
1756813568777406000,109,1756813568777406000,map,11.1879712631,-7.6283690307,0.0,0.0,0.0,0.753561962929,0.657376884311,0.0117968769792,-0.00834246326708,0.0,0.0,0.0,0.0,-0.00834246326708,0.083484209025,0.0,0.0,0.0,0.0,0.0,0.0,0.0,0.0,0.0,0.0,0.0,0.0,0.0,0.0,0.0,0.0,0.0,0.0,0.0,0.0,0.0,0.0,0.0,0.0,0.0,0.0,0.0,0.0034255546368
1756813569510686000,110,1756813569510686000,map,11.2454063989,-7.99000149679,0.0,0.0,0.0,0.756262427058,0.654268401667,0.0122686652124,-0.00715331469478,0.0,0.0,0.0,0.0,-0.00715331469476,0.0719682817626,0.0,0.0,0.0,0.0,0.0,0.0,0.0,0.0,0.0,0.0,0.0,0.0,0.0,0.0,0.0,0.0,0.0,0.0,0.0,0.0,0.0,0.0,0.0,0.0,0.0,0.0,0.0,0.00349021209033
1756813570777670000,111,1756813570777670000,map,11.3385448083,-8.65529846258,0.0,0.0,0.0,0.758254710452,0.651958429715,0.0192229062971,-0.00488177256915,0.0,0.0,0.0,0.0,-0.00488177256915,0.0697001798531,0.0,0.0,0.0,0.0,0.0,0.0,0.0,0.0,0.0,0.0,0.0,0.0,0.0,0.0,0.0,0.0,0.0,0.0,0.0,0.0,0.0,0.0,0.0,0.0,0.0,0.0,0.0,0.00722959819109
1756813572177211000,112,1756813572177211000,map,11.4058336735,-9.20123400378,0.0,0.0,0.0,0.718833685721,0.695182085696,0.0277162997327,-0.000663983706204,0.0,0.0,0.0,0.0,-0.000663983706204,0.0612977928905,0.0,0.0,0.0,0.0,0.0,0.0,0.0,0.0,0.0,0.0,0.0,0.0,0.0,0.0,0.0,0.0,0.0,0.0,0.0,0.0,0.0,0.0,0.0,0.0,0.0,0.0,0.0,0.00735953078246
1756813574044728000,113,1756813574044728000,map,11.2455956038,-9.77694519152,0.0,0.0,0.0,0.486230860295,0.873830390005,0.0451092525549,0.00099267737653,0.0,0.0,0.0,0.0,0.00099267737653,0.0613510548373,0.0,0.0,0.0,0.0,0.0,0.0,0.0,0.0,0.0,0.0,0.0,0.0,0.0,0.0,0.0,0.0,0.0,0.0,0.0,0.0,0.0,0.0,0.0,0.0,0.0,0.0,0.0,0.012469422855
1756813576177719000,114,1756813576177719000,map,10.8257495461,-10.1284423275,0.0,0.0,0.0,0.153565387744,0.988138488111,0.0569413931103,-0.00739938959801,0.0,0.0,0.0,0.0,-0.00739938959799,0.0555830230092,0.0,0.0,0.0,0.0,0.0,0.0,0.0,0.0,0.0,0.0,0.0,0.0,0.0,0.0,0.0,0.0,0.0,0.0,0.0,0.0,0.0,0.0,0.0,0.0,0.0,0.0,0.0,0.0122894925584
1756813577445029000,115,1756813577445029000,map,10.3224827999,-10.1135987318,0.0,0.0,0.0,-0.200658940921,0.979661160518,0.0581439537042,-0.0198900179303,0.0,0.0,0.0,0.0,-0.0198900179303,0.0652686523633,0.0,0.0,0.0,0.0,0.0,0.0,0.0,0.0,0.0,0.0,0.0,0.0,0.0,0.0,0.0,0.0,0.0,0.0,0.0,0.0,0.0,0.0,0.0,0.0,0.0,0.0,0.0,0.0147698668922
1756813579844464000,116,1756813579844464000,map,9.6952838478,-9.09801552876,0.0,0.0,0.0,-0.70027192661,0.713876199913,0.145226224338,-0.0074884990597,0.0,0.0,0.0,0.0,-0.00748849905972,0.157183380574,0.0,0.0,0.0,0.0,0.0,0.0,0.0,0.0,0.0,0.0,0.0,0.0,0.0,0.0,0.0,0.0,0.0,0.0,0.0,0.0,0.0,0.0,0.0,0.0,0.0,0.0,0.0,0.151389405609
1756813580910768000,117,1756813580910768000,map,9.54797626589,-8.54747728583,0.0,0.0,0.0,-0.771287169509,0.636487314996,0.333744107697,0.0309581260983,0.0,0.0,0.0,0.0,0.0309581260983,0.144497010096,0.0,0.0,0.0,0.0,0.0,0.0,0.0,0.0,0.0,0.0,0.0,0.0,0.0,0.0,0.0,0.0,0.0,0.0,0.0,0.0,0.0,0.0,0.0,0.0,0.0,0.0,0.0,0.171514697426
1756813582110963000,118,1756813582110963000,map,9.31692674326,-7.94757487105,0.0,0.0,0.0,-0.707674595693,0.706538510352,0.63301072228,0.0181144581174,0.0,0.0,0.0,0.0,0.0181144581174,0.116128393054,0.0,0.0,0.0,0.0,0.0,0.0,0.0,0.0,0.0,0.0,0.0,0.0,0.0,0.0,0.0,0.0,0.0,0.0,0.0,0.0,0.0,0.0,0.0,0.0,0.0,0.0,0.0,0.169045989921
1756813583311719000,119,1756813583311719000,map,8.91929972171,-7.37749408282,0.0,0.0,0.0,-0.652928629601,0.757419437727,0.581351137448,-0.0138129321105,0.0,0.0,0.0,0.0,-0.0138129321105,0.103323388697,0.0,0.0,0.0,0.0,0.0,0.0,0.0,0.0,0.0,0.0,0.0,0.0,0.0,0.0,0.0,0.0,0.0,0.0,0.0,0.0,0.0,0.0,0.0,0.0,0.0,0.0,0.0,0.0896622491586
1756813584445145000,120,1756813584445145000,map,8.64857868511,-6.71177602045,0.0,0.0,0.0,-0.641913098729,0.766777395129,0.290222791587,-0.0161213642142,0.0,0.0,0.0,0.0,-0.0161213642142,0.0897255995597,0.0,0.0,0.0,0.0,0.0,0.0,0.0,0.0,0.0,0.0,0.0,0.0,0.0,0.0,0.0,0.0,0.0,0.0,0.0,0.0,0.0,0.0,0.0,0.0,0.0,0.0,0.0,0.0304201276022
1756813585578191000,121,1756813585578191000,map,8.53840675726,-6.05187909893,0.0,0.0,0.0,-0.646996287758,0.762493149889,0.0986671311783,-0.0167194682826,0.0,0.0,0.0,0.0,-0.0167194682826,0.0862956543931,0.0,0.0,0.0,0.0,0.0,0.0,0.0,0.0,0.0,0.0,0.0,0.0,0.0,0.0,0.0,0.0,0.0,0.0,0.0,0.0,0.0,0.0,0.0,0.0,0.0,0.0,0.0,0.0103789228506
1756813586711586000,122,1756813586711586000,map,8.43887756155,-5.38154792738,0.0,0.0,0.0,-0.646885874007,0.762586825227,0.0327361619587,-0.00983009907336,0.0,0.0,0.0,0.0,-0.00983009907336,0.0829322675693,0.0,0.0,0.0,0.0,0.0,0.0,0.0,0.0,0.0,0.0,0.0,0.0,0.0,0.0,0.0,0.0,0.0,0.0,0.0,0.0,0.0,0.0,0.0,0.0,0.0,0.0,0.0,0.00503229236528
1756813587644291000,123,1756813587644291000,map,8.32706736391,-4.85549202375,0.0,0.0,0.0,-0.628911486192,0.77747690804,0.0173044893605,-0.0104405639074,0.0,0.0,0.0,0.0,-0.0104405639074,0.0847531408281,0.0,0.0,0.0,0.0,0.0,0.0,0.0,0.0,0.0,0.0,0.0,0.0,0.0,0.0,0.0,0.0,0.0,0.0,0.0,0.0,0.0,0.0,0.0,0.0,0.0,0.0,0.0,0.0031831317204
1756813588911489000,124,1756813588911489000,map,8.18534802659,-4.09067998737,0.0,0.0,0.0,-0.6299795215,0.776611745012,0.0143999924069,-0.0113589857284,0.0,0.0,0.0,0.0,-0.0113589857284,0.0912561538942,0.0,0.0,0.0,0.0,0.0,0.0,0.0,0.0,0.0,0.0,0.0,0.0,0.0,0.0,0.0,0.0,0.0,0.0,0.0,0.0,0.0,0.0,0.0,0.0,0.0,0.0,0.0,0.00477608010808
1756813590177794000,125,1756813590177794000,map,8.04315583718,-3.27790986685,0.0,0.0,0.0,-0.619529730566,0.784973192501,0.0126075116692,-0.010195769748,0.0,0.0,0.0,0.0,-0.010195769748,0.0959160570232,0.0,0.0,0.0,0.0,0.0,0.0,0.0,0.0,0.0,0.0,0.0,0.0,0.0,0.0,0.0,0.0,0.0,0.0,0.0,0.0,0.0,0.0,0.0,0.0,0.0,0.0,0.0,0.00698990767349
1756813591578165000,126,1756813591578165000,map,7.9138322552,-2.49522493298,0.0,0.0,0.0,-0.636677042021,0.771130562332,0.0159994183603,-0.00998674972076,0.0,0.0,0.0,0.0,-0.00998674972076,0.099647147337,0.0,0.0,0.0,0.0,0.0,0.0,0.0,0.0,0.0,0.0,0.0,0.0,0.0,0.0,0.0,0.0,0.0,0.0,0.0,0.0,0.0,0.0,0.0,0.0,0.0,0.0,0.0,0.00814394590204
1756813592577741000,127,1756813592577741000,map,7.80389496741,-1.86072711699,0.0,0.0,0.0,-0.627027553833,0.778997077488,0.0110205303649,-0.0116699563482,0.0,0.0,0.0,0.0,-0.0116699563482,0.103317916362,0.0,0.0,0.0,0.0,0.0,0.0,0.0,0.0,0.0,0.0,0.0,0.0,0.0,0.0,0.0,0.0,0.0,0.0,0.0,0.0,0.0,0.0,0.0,0.0,0.0,0.0,0.0,0.00389896890837
1756813593577604000,128,1756813593577604000,map,7.714569079,-1.31227439585,0.0,0.0,0.0,-0.625222985195,0.780446166487,0.00880058911031,-0.013096437017,0.0,0.0,0.0,0.0,-0.013096437017,0.105653381861,0.0,0.0,0.0,0.0,0.0,0.0,0.0,0.0,0.0,0.0,0.0,0.0,0.0,0.0,0.0,0.0,0.0,0.0,0.0,0.0,0.0,0.0,0.0,0.0,0.0,0.0,0.0,0.00301135875966
1756813594511329000,129,1756813594511329000,map,7.59944817219,-0.69371732882,0.0,0.0,0.0,-0.633192092268,0.773994686215,0.00728542547277,-0.0146108174706,0.0,0.0,0.0,0.0,-0.0146108174706,0.112818907693,0.0,0.0,0.0,0.0,0.0,0.0,0.0,0.0,0.0,0.0,0.0,0.0,0.0,0.0,0.0,0.0,0.0,0.0,0.0,0.0,0.0,0.0,0.0,0.0,0.0,0.0,0.0,0.00257667174714
1756813595911382000,130,1756813595911382000,map,7.46062182988,0.145375592071,0.0,0.0,0.0,-0.641687272434,0.766966390656,0.00977137752206,-0.0141056787937,0.0,0.0,0.0,0.0,-0.0141056787937,0.112480823456,0.0,0.0,0.0,0.0,0.0,0.0,0.0,0.0,0.0,0.0,0.0,0.0,0.0,0.0,0.0,0.0,0.0,0.0,0.0,0.0,0.0,0.0,0.0,0.0,0.0,0.0,0.0,0.00680148957183
1756813597177610000,131,1756813597177610000,map,7.34808967454,0.887644556934,0.0,0.0,0.0,-0.64554970999,0.763718254287,0.0155646704236,-0.0133055750947,0.0,0.0,0.0,0.0,-0.0133055750947,0.115284704771,0.0,0.0,0.0,0.0,0.0,0.0,0.0,0.0,0.0,0.0,0.0,0.0,0.0,0.0,0.0,0.0,0.0,0.0,0.0,0.0,0.0,0.0,0.0,0.0,0.0,0.0,0.0,0.00737631008169
1756813599445115000,132,1756813599445115000,map,7.13131483415,2.32096792134,0.0,0.0,0.0,-0.64048019039,0.767974690805,0.0577983290584,-0.00971796233869,0.0,0.0,0.0,0.0,-0.00971796233869,0.137803913131,0.0,0.0,0.0,0.0,0.0,0.0,0.0,0.0,0.0,0.0,0.0,0.0,0.0,0.0,0.0,0.0,0.0,0.0,0.0,0.0,0.0,0.0,0.0,0.0,0.0,0.0,0.0,0.0342809374433
1756813600710952000,133,1756813600710952000,map,7.07046533793,3.07137019399,0.0,0.0,0.0,-0.645003559285,0.764179565619,0.065876492932,-0.00821301554529,0.0,0.0,0.0,0.0,-0.00821301554529,0.136017704259,0.0,0.0,0.0,0.0,0.0,0.0,0.0,0.0,0.0,0.0,0.0,0.0,0.0,0.0,0.0,0.0,0.0,0.0,0.0,0.0,0.0,0.0,0.0,0.0,0.0,0.0,0.0,0.019794854905
1756813601711655000,134,1756813601711655000,map,7.00026594673,3.74006336559,0.0,0.0,0.0,-0.650366673888,0.759620424618,0.0519779239779,-0.0101496043024,0.0,0.0,0.0,0.0,-0.0101496043024,0.135633986847,0.0,0.0,0.0,0.0,0.0,0.0,0.0,0.0,0.0,0.0,0.0,0.0,0.0,0.0,0.0,0.0,0.0,0.0,0.0,0.0,0.0,0.0,0.0,0.0,0.0,0.0,0.0,0.0103561355613
1756813602644645000,135,1756813602644645000,map,6.97052775741,4.27223706885,0.0,0.0,0.0,-0.652105073377,0.758128599431,0.0178410190608,-0.0172624846034,0.0,0.0,0.0,0.0,-0.0172624846034,0.134851687699,0.0,0.0,0.0,0.0,0.0,0.0,0.0,0.0,0.0,0.0,0.0,0.0,0.0,0.0,0.0,0.0,0.0,0.0,0.0,0.0,0.0,0.0,0.0,0.0,0.0,0.0,0.0,0.00417723937938
1756813603644097000,136,1756813603644097000,map,6.89935156053,4.81114225305,0.0,0.0,0.0,-0.641054023729,0.767495758074,0.0111160308864,-0.0203469649124,0.0,0.0,0.0,0.0,-0.0203469649124,0.137347270322,0.0,0.0,0.0,0.0,0.0,0.0,0.0,0.0,0.0,0.0,0.0,0.0,0.0,0.0,0.0,0.0,0.0,0.0,0.0,0.0,0.0,0.0,0.0,0.0,0.0,0.0,0.0,0.0030079520249
1756813604711225000,137,1756813604711225000,map,6.78041372759,5.42157534525,0.0,0.0,0.0,-0.630900218225,0.775863979473,0.0112741936478,-0.0193228490121,0.0,0.0,0.0,0.0,-0.0193228490121,0.13607085062,0.0,0.0,0.0,0.0,0.0,0.0,0.0,0.0,0.0,0.0,0.0,0.0,0.0,0.0,0.0,0.0,0.0,0.0,0.0,0.0,0.0,0.0,0.0,0.0,0.0,0.0,0.0,0.00270212898592
1756813605844106000,138,1756813605844106000,map,6.67401864209,6.03142363197,0.0,0.0,0.0,-0.632605884557,0.774473882596,0.0129625342167,-0.0190709494706,0.0,0.0,0.0,0.0,-0.0190709494706,0.138497696257,0.0,0.0,0.0,0.0,0.0,0.0,0.0,0.0,0.0,0.0,0.0,0.0,0.0,0.0,0.0,0.0,0.0,0.0,0.0,0.0,0.0,0.0,0.0,0.0,0.0,0.0,0.0,0.00378789212761
1756813606977460000,139,1756813606977460000,map,6.55182161658,6.67753137832,0.0,0.0,0.0,-0.634061048509,0.773282992677,0.0146995590959,-0.0170461256348,0.0,0.0,0.0,0.0,-0.0170461256348,0.141574863893,0.0,0.0,0.0,0.0,0.0,0.0,0.0,0.0,0.0,0.0,0.0,0.0,0.0,0.0,0.0,0.0,0.0,0.0,0.0,0.0,0.0,0.0,0.0,0.0,0.0,0.0,0.0,0.00479417344395
1756813608044722000,140,1756813608044722000,map,6.46941256327,7.26878121069,0.0,0.0,0.0,-0.623274571597,0.782003074419,0.0110824858972,-0.0184854925071,0.0,0.0,0.0,0.0,-0.0184854925071,0.140083772745,0.0,0.0,0.0,0.0,0.0,0.0,0.0,0.0,0.0,0.0,0.0,0.0,0.0,0.0,0.0,0.0,0.0,0.0,0.0,0.0,0.0,0.0,0.0,0.0,0.0,0.0,0.0,0.00315003248958
1756813609110867000,141,1756813609110867000,map,6.34202666078,7.89486729516,0.0,0.0,0.0,-0.619821730733,0.784742647058,0.0111611902483,-0.0183133327928,0.0,0.0,0.0,0.0,-0.0183133327928,0.136427609644,0.0,0.0,0.0,0.0,0.0,0.0,0.0,0.0,0.0,0.0,0.0,0.0,0.0,0.0,0.0,0.0,0.0,0.0,0.0,0.0,0.0,0.0,0.0,0.0,0.0,0.0,0.0,0.00355205693458
1756813610577751000,142,1756813610577751000,map,6.19647103133,8.61170610826,0.0,0.0,0.0,-0.619707934207,0.784832514796,0.0143401878625,-0.0169114767708,0.0,0.0,0.0,0.0,-0.0169114767708,0.135230545716,0.0,0.0,0.0,0.0,0.0,0.0,0.0,0.0,0.0,0.0,0.0,0.0,0.0,0.0,0.0,0.0,0.0,0.0,0.0,0.0,0.0,0.0,0.0,0.0,0.0,0.0,0.0,0.00655560529467
1756813612311323000,143,1756813612311323000,map,5.99767964052,9.58207991378,0.0,0.0,0.0,-0.614721211482,0.788744465689,0.0221868150059,-0.0140655636133,0.0,0.0,0.0,0.0,-0.0140655636133,0.122105995245,0.0,0.0,0.0,0.0,0.0,0.0,0.0,0.0,0.0,0.0,0.0,0.0,0.0,0.0,0.0,0.0,0.0,0.0,0.0,0.0,0.0,0.0,0.0,0.0,0.0,0.0,0.0,0.015728567174
1756813613110723000,144,1756813613110723000,map,5.89329988585,9.99310248474,0.0,0.0,0.0,-0.609767725168,0.79258016714,0.0264384818529,-0.0140641561563,0.0,0.0,0.0,0.0,-0.0140641561563,0.122689843979,0.0,0.0,0.0,0.0,0.0,0.0,0.0,0.0,0.0,0.0,0.0,0.0,0.0,0.0,0.0,0.0,0.0,0.0,0.0,0.0,0.0,0.0,0.0,0.0,0.0,0.0,0.0,0.0116282338832
1756813613911300000,145,1756813613911300000,map,5.78420301387,10.3899523968,0.0,0.0,0.0,-0.605585616684,0.795780158627,0.0325598613566,-0.0162973404262,0.0,0.0,0.0,0.0,-0.0162973404262,0.105416002374,0.0,0.0,0.0,0.0,0.0,0.0,0.0,0.0,0.0,0.0,0.0,0.0,0.0,0.0,0.0,0.0,0.0,0.0,0.0,0.0,0.0,0.0,0.0,0.0,0.0,0.0,0.0,0.0101845236208
1756813614978159000,146,1756813614978159000,map,5.69244187414,10.9026817488,0.0,0.0,0.0,-0.605985962736,0.795475337749,0.033697065254,-0.0122568227543,0.0,0.0,0.0,0.0,-0.0122568227543,0.0772511886553,0.0,0.0,0.0,0.0,0.0,0.0,0.0,0.0,0.0,0.0,0.0,0.0,0.0,0.0,0.0,0.0,0.0,0.0,0.0,0.0,0.0,0.0,0.0,0.0,0.0,0.0,0.0,0.00939688036257
1756813615911271000,147,1756813615911271000,map,5.52415703381,11.3461238544,0.0,0.0,0.0,-0.536432362344,0.843943316005,0.0412697401289,-0.0105802427867,0.0,0.0,0.0,0.0,-0.0105802427867,0.0746238330402,0.0,0.0,0.0,0.0,0.0,0.0,0.0,0.0,0.0,0.0,0.0,0.0,0.0,0.0,0.0,0.0,0.0,0.0,0.0,0.0,0.0,0.0,0.0,0.0,0.0,0.0,0.0,0.00833990143275
1756813617044618000,148,1756813617044618000,map,5.25040101877,11.7643252343,0.0,0.0,0.0,-0.41583125144,0.90944179051,0.0491467747893,-0.00347408173669,0.0,0.0,0.0,0.0,-0.00347408173668,0.0720605186132,0.0,0.0,0.0,0.0,0.0,0.0,0.0,0.0,0.0,0.0,0.0,0.0,0.0,0.0,0.0,0.0,0.0,0.0,0.0,0.0,0.0,0.0,0.0,0.0,0.0,0.0,0.0,0.00925945359702
1756813618044022000,149,1756813618044022000,map,4.81987058245,12.1195685081,0.0,0.0,0.0,-0.221092917988,0.975252747556,0.065471426454,0.00564384223318,0.0,0.0,0.0,0.0,0.00564384223317,0.0779383118094,0.0,0.0,0.0,0.0,0.0,0.0,0.0,0.0,0.0,0.0,0.0,0.0,0.0,0.0,0.0,0.0,0.0,0.0,0.0,0.0,0.0,0.0,0.0,0.0,0.0,0.0,0.0,0.0125237398836
1756813619311066000,150,1756813619311066000,map,4.19537797583,12.2615949591,0.0,0.0,0.0,0.117187137088,0.99310985037,0.0768533414089,0.0214796120743,0.0,0.0,0.0,0.0,0.0214796120743,0.0915702866365,0.0,0.0,0.0,0.0,0.0,0.0,0.0,0.0,0.0,0.0,0.0,0.0,0.0,0.0,0.0,0.0,0.0,0.0,0.0,0.0,0.0,0.0,0.0,0.0,0.0,0.0,0.0,0.0210747056547
1756813622244406000,151,1756813622244406000,map,3.54790501726,11.0901916247,0.0,0.0,0.0,0.847443474675,0.530885634794,0.344772115981,0.00307973876107,0.0,0.0,0.0,0.0,0.00307973876107,0.289785823038,0.0,0.0,0.0,0.0,0.0,0.0,0.0,0.0,0.0,0.0,0.0,0.0,0.0,0.0,0.0,0.0,0.0,0.0,0.0,0.0,0.0,0.0,0.0,0.0,0.0,0.0,0.0,0.293259224999
1756813623243853000,152,1756813623243853000,map,3.67890730495,10.5665792842,0.0,0.0,0.0,0.881590488151,0.472015053999,0.493839938505,0.0445187160376,0.0,0.0,0.0,0.0,0.0445187160376,0.270178487903,0.0,0.0,0.0,0.0,0.0,0.0,0.0,0.0,0.0,0.0,0.0,0.0,0.0,0.0,0.0,0.0,0.0,0.0,0.0,0.0,0.0,0.0,0.0,0.0,0.0,0.0,0.0,0.28229696113
1756813624510597000,153,1756813624510597000,map,3.71995156545,10.1232180019,0.0,0.0,0.0,0.837700262124,0.54613026911,0.637992766324,0.145044937711,0.0,0.0,0.0,0.0,0.145044937711,0.305526164751,0.0,0.0,0.0,0.0,0.0,0.0,0.0,0.0,0.0,0.0,0.0,0.0,0.0,0.0,0.0,0.0,0.0,0.0,0.0,0.0,0.0,0.0,0.0,0.0,0.0,0.0,0.0,0.219327621913
1756813625443968000,154,1756813625443968000,map,3.84377497498,9.4239027081,0.0,0.0,0.0,0.833025551571,0.553234516665,0.500509644486,0.156711799425,0.0,0.0,0.0,0.0,0.156711799425,0.305661508266,0.0,0.0,0.0,0.0,0.0,0.0,0.0,0.0,0.0,0.0,0.0,0.0,0.0,0.0,0.0,0.0,0.0,0.0,0.0,0.0,0.0,0.0,0.0,0.0,0.0,0.0,0.0,0.122569660552
1756813626244639000,155,1756813626244639000,map,3.68448861744,8.93811527201,0.0,0.0,0.0,0.781038113831,0.624483358259,0.171140534818,0.0454608626542,0.0,0.0,0.0,0.0,0.0454608626542,0.236240485563,0.0,0.0,0.0,0.0,0.0,0.0,0.0,0.0,0.0,0.0,0.0,0.0,0.0,0.0,0.0,0.0,0.0,0.0,0.0,0.0,0.0,0.0,0.0,0.0,0.0,0.0,0.0,0.0356546896014
1756813627177966000,156,1756813627177966000,map,3.83884640833,8.31085974602,0.0,0.0,0.0,0.785209330637,0.619230415177,0.0736901241794,0.00629030931088,0.0,0.0,0.0,0.0,0.00629030931088,0.214474700401,0.0,0.0,0.0,0.0,0.0,0.0,0.0,0.0,0.0,0.0,0.0,0.0,0.0,0.0,0.0,0.0,0.0,0.0,0.0,0.0,0.0,0.0,0.0,0.0,0.0,0.0,0.0,0.013068869854
1756813628044505000,157,1756813628044505000,map,3.88952556167,7.96611290678,0.0,0.0,0.0,0.778502830159,0.627641094444,0.0272409068885,-0.0164264075128,0.0,0.0,0.0,0.0,-0.0164264075128,0.195718323284,0.0,0.0,0.0,0.0,0.0,0.0,0.0,0.0,0.0,0.0,0.0,0.0,0.0,0.0,0.0,0.0,0.0,0.0,0.0,0.0,0.0,0.0,0.0,0.0,0.0,0.0,0.0,0.00539896953657
1756813629043885000,158,1756813629043885000,map,4.0380744882,7.2436383968,0.0,0.0,0.0,0.779248866457,0.626714611387,0.0231357335898,-0.0209909725663,0.0,0.0,0.0,0.0,-0.0209909725663,0.188875109303,0.0,0.0,0.0,0.0,0.0,0.0,0.0,0.0,0.0,0.0,0.0,0.0,0.0,0.0,0.0,0.0,0.0,0.0,0.0,0.0,0.0,0.0,0.0,0.0,0.0,0.0,0.0,0.00490315196745
1756813630111078000,159,1756813630111078000,map,4.20509680306,6.55283462354,0.0,0.0,0.0,0.782335332054,0.622857470229,0.0188239970697,-0.023569668095,0.0,0.0,0.0,0.0,-0.023569668095,0.180423470101,0.0,0.0,0.0,0.0,0.0,0.0,0.0,0.0,0.0,0.0,0.0,0.0,0.0,0.0,0.0,0.0,0.0,0.0,0.0,0.0,0.0,0.0,0.0,0.0,0.0,0.0,0.0,0.00543141236755
1756813631110323000,160,1756813631110323000,map,4.32018056221,5.88934589272,0.0,0.0,0.0,0.777134692993,0.629334306189,0.016558945185,-0.0250433550005,0.0,0.0,0.0,0.0,-0.0250433550005,0.179312010469,0.0,0.0,0.0,0.0,0.0,0.0,0.0,0.0,0.0,0.0,0.0,0.0,0.0,0.0,0.0,0.0,0.0,0.0,0.0,0.0,0.0,0.0,0.0,0.0,0.0,0.0,0.0,0.00410134988513
1756813632311005000,161,1756813632311005000,map,4.45608824063,5.16337479851,0.0,0.0,0.0,0.773239903382,0.634113595358,0.0153068208571,-0.0262414450995,0.0,0.0,0.0,0.0,-0.0262414450995,0.176419274363,0.0,0.0,0.0,0.0,0.0,0.0,0.0,0.0,0.0,0.0,0.0,0.0,0.0,0.0,0.0,0.0,0.0,0.0,0.0,0.0,0.0,0.0,0.0,0.0,0.0,0.0,0.0,0.00466935735877
1756813632977912000,162,1756813632977912000,map,4.50649221016,4.7558550325,0.0,0.0,0.0,0.761126019287,0.648604026171,0.0147149798339,-0.0266042487495,0.0,0.0,0.0,0.0,-0.0266042487495,0.173321643959,0.0,0.0,0.0,0.0,0.0,0.0,0.0,0.0,0.0,0.0,0.0,0.0,0.0,0.0,0.0,0.0,0.0,0.0,0.0,0.0,0.0,0.0,0.0,0.0,0.0,0.0,0.0,0.00307897656122
1756813633844103000,163,1756813633844103000,map,4.56785934042,4.18472111755,0.0,0.0,0.0,0.756833015296,0.653608282504,0.0123900649523,-0.0268237667154,0.0,0.0,0.0,0.0,-0.0268237667154,0.178630690179,0.0,0.0,0.0,0.0,0.0,0.0,0.0,0.0,0.0,0.0,0.0,0.0,0.0,0.0,0.0,0.0,0.0,0.0,0.0,0.0,0.0,0.0,0.0,0.0,0.0,0.0,0.0,0.00309046529135
1756813634710556000,164,1756813634710556000,map,4.64837507839,3.62902091895,0.0,0.0,0.0,0.748544073027,0.66308504035,0.0125869662146,-0.026742313161,0.0,0.0,0.0,0.0,-0.026742313161,0.182696738753,0.0,0.0,0.0,0.0,0.0,0.0,0.0,0.0,0.0,0.0,0.0,0.0,0.0,0.0,0.0,0.0,0.0,0.0,0.0,0.0,0.0,0.0,0.0,0.0,0.0,0.0,0.0,0.00251364946365
1756813635377524000,165,1756813635377524000,map,4.67937452708,3.26001027609,0.0,0.0,0.0,0.744366039873,0.66777181633,0.0124358089575,-0.0266880939949,0.0,0.0,0.0,0.0,-0.0266880939949,0.186067465446,0.0,0.0,0.0,0.0,0.0,0.0,0.0,0.0,0.0,0.0,0.0,0.0,0.0,0.0,0.0,0.0,0.0,0.0,0.0,0.0,0.0,0.0,0.0,0.0,0.0,0.0,0.0,0.00259340266848
1756813636377976000,166,1756813636377976000,map,4.73880860844,2.59218087449,0.0,0.0,0.0,0.748790210266,0.662807076766,0.0123968766465,-0.0252819574543,0.0,0.0,0.0,0.0,-0.0252819574543,0.179580707196,0.0,0.0,0.0,0.0,0.0,0.0,0.0,0.0,0.0,0.0,0.0,0.0,0.0,0.0,0.0,0.0,0.0,0.0,0.0,0.0,0.0,0.0,0.0,0.0,0.0,0.0,0.0,0.00316714361207
1756813637044486000,167,1756813637044486000,map,4.74802968042,2.25583916227,0.0,0.0,0.0,0.747423377801,0.664348021986,0.0111291157408,-0.0246532425243,0.0,0.0,0.0,0.0,-0.0246532425243,0.175754547215,0.0,0.0,0.0,0.0,0.0,0.0,0.0,0.0,0.0,0.0,0.0,0.0,0.0,0.0,0.0,0.0,0.0,0.0,0.0,0.0,0.0,0.0,0.0,0.0,0.0,0.0,0.0,0.00240816297803
1756813637977678000,168,1756813637977678000,map,4.80909705652,1.62131418553,0.0,0.0,0.0,0.751862833646,0.659319557864,0.0116397436569,-0.0242945588724,0.0,0.0,0.0,0.0,-0.0242945588724,0.1702258438,0.0,0.0,0.0,0.0,0.0,0.0,0.0,0.0,0.0,0.0,0.0,0.0,0.0,0.0,0.0,0.0,0.0,0.0,0.0,0.0,0.0,0.0,0.0,0.0,0.0,0.0,0.0,0.00258258354312
1756813638977146000,169,1756813638977146000,map,4.87259109641,0.926551699865,0.0,0.0,0.0,0.749330398261,0.662196310955,0.0112893380744,-0.0243177658573,0.0,0.0,0.0,0.0,-0.0243177658573,0.171623036842,0.0,0.0,0.0,0.0,0.0,0.0,0.0,0.0,0.0,0.0,0.0,0.0,0.0,0.0,0.0,0.0,0.0,0.0,0.0,0.0,0.0,0.0,0.0,0.0,0.0,0.0,0.0,0.00315124345264
1756813639977680000,170,1756813639977680000,map,4.94097295159,0.340858634332,0.0,0.0,0.0,0.748289221983,0.663372625501,0.0104690809529,-0.0236306079768,0.0,0.0,0.0,0.0,-0.0236306079768,0.170165017587,0.0,0.0,0.0,0.0,0.0,0.0,0.0,0.0,0.0,0.0,0.0,0.0,0.0,0.0,0.0,0.0,0.0,0.0,0.0,0.0,0.0,0.0,0.0,0.0,0.0,0.0,0.0,0.00294705750559
1756813641043834000,171,1756813641043834000,map,5.00717730431,-0.343086656236,0.0,0.0,0.0,0.748825366925,0.66276735726,0.0118888862361,-0.0230377892659,0.0,0.0,0.0,0.0,-0.0230377892659,0.167404610459,0.0,0.0,0.0,0.0,0.0,0.0,0.0,0.0,0.0,0.0,0.0,0.0,0.0,0.0,0.0,0.0,0.0,0.0,0.0,0.0,0.0,0.0,0.0,0.0,0.0,0.0,0.0,0.00377389823485
1756813641978026000,172,1756813641978026000,map,5.09995135493,-1.00787202971,0.0,0.0,0.0,0.758692597199,0.65144880302,0.0123523719105,-0.0238872191445,0.0,0.0,0.0,0.0,-0.0238872191445,0.167064312595,0.0,0.0,0.0,0.0,0.0,0.0,0.0,0.0,0.0,0.0,0.0,0.0,0.0,0.0,0.0,0.0,0.0,0.0,0.0,0.0,0.0,0.0,0.0,0.0,0.0,0.0,0.0,0.00362260984237
1756813642911044000,173,1756813642911044000,map,5.13391468773,-1.57086943904,0.0,0.0,0.0,0.75313299095,0.657868298326,0.0102093543642,-0.023816813738,0.0,0.0,0.0,0.0,-0.023816813738,0.165208979769,0.0,0.0,0.0,0.0,0.0,0.0,0.0,0.0,0.0,0.0,0.0,0.0,0.0,0.0,0.0,0.0,0.0,0.0,0.0,0.0,0.0,0.0,0.0,0.0,0.0,0.0,0.0,0.00296933585752
1756813644044392000,174,1756813644044392000,map,5.24161486627,-2.28859334153,0.0,0.0,0.0,0.762024834347,0.647547798883,0.0110381028729,-0.0232609867709,0.0,0.0,0.0,0.0,-0.0232609867709,0.163929676091,0.0,0.0,0.0,0.0,0.0,0.0,0.0,0.0,0.0,0.0,0.0,0.0,0.0,0.0,0.0,0.0,0.0,0.0,0.0,0.0,0.0,0.0,0.0,0.0,0.0,0.0,0.0,0.00417868625446
1756813645243600000,175,1756813645243600000,map,5.32477122699,-3.00717964102,0.0,0.0,0.0,0.753980901556,0.656896338922,0.0137461092558,-0.0219463804681,0.0,0.0,0.0,0.0,-0.0219463804681,0.160902323468,0.0,0.0,0.0,0.0,0.0,0.0,0.0,0.0,0.0,0.0,0.0,0.0,0.0,0.0,0.0,0.0,0.0,0.0,0.0,0.0,0.0,0.0,0.0,0.0,0.0,0.0,0.0,0.00565273999525
1756813646310962000,176,1756813646310962000,map,5.37819322348,-3.63035628162,0.0,0.0,0.0,0.76190881436,0.647684304735,0.0146773181721,-0.0217585116207,0.0,0.0,0.0,0.0,-0.0217585116207,0.153641981913,0.0,0.0,0.0,0.0,0.0,0.0,0.0,0.0,0.0,0.0,0.0,0.0,0.0,0.0,0.0,0.0,0.0,0.0,0.0,0.0,0.0,0.0,0.0,0.0,0.0,0.0,0.0,0.00441637505872
1756813647043676000,177,1756813647043676000,map,5.39860560234,-4.16459308005,0.0,0.0,0.0,0.774081798287,0.633085594183,0.011173353251,-0.0222181153753,0.0,0.0,0.0,0.0,-0.0222181153753,0.151463480204,0.0,0.0,0.0,0.0,0.0,0.0,0.0,0.0,0.0,0.0,0.0,0.0,0.0,0.0,0.0,0.0,0.0,0.0,0.0,0.0,0.0,0.0,0.0,0.0,0.0,0.0,0.0,0.00297976281138
1756813647977122000,178,1756813647977122000,map,5.48140875525,-4.74561882605,0.0,0.0,0.0,0.769525010013,0.638616676078,0.0126258663086,-0.0225672676759,0.0,0.0,0.0,0.0,-0.0225672676759,0.149803710931,0.0,0.0,0.0,0.0,0.0,0.0,0.0,0.0,0.0,0.0,0.0,0.0,0.0,0.0,0.0,0.0,0.0,0.0,0.0,0.0,0.0,0.0,0.0,0.0,0.0,0.0,0.0,0.00315958790543
1756813648643758000,179,1756813648643758000,map,5.50498700684,-5.07612406673,0.0,0.0,0.0,0.768911538455,0.639355179873,0.0112171734878,-0.0218967590977,0.0,0.0,0.0,0.0,-0.0218967590977,0.142134121948,0.0,0.0,0.0,0.0,0.0,0.0,0.0,0.0,0.0,0.0,0.0,0.0,0.0,0.0,0.0,0.0,0.0,0.0,0.0,0.0,0.0,0.0,0.0,0.0,0.0,0.0,0.0,0.00259389759283
1756813649577156000,180,1756813649577156000,map,5.6014755332,-5.56870001858,0.0,0.0,0.0,0.777153317107,0.62931130747,0.012475921945,-0.0212386675372,0.0,0.0,0.0,0.0,-0.0212386675372,0.123704526833,0.0,0.0,0.0,0.0,0.0,0.0,0.0,0.0,0.0,0.0,0.0,0.0,0.0,0.0,0.0,0.0,0.0,0.0,0.0,0.0,0.0,0.0,0.0,0.0,0.0,0.0,0.0,0.00296013765936
1756813650243765000,181,1756813650243765000,map,5.6460499353,-6.06121837167,0.0,0.0,0.0,0.772368113872,0.63517517007,0.0103143894106,-0.0201175226374,0.0,0.0,0.0,0.0,-0.0201175226374,0.119648049725,0.0,0.0,0.0,0.0,0.0,0.0,0.0,0.0,0.0,0.0,0.0,0.0,0.0,0.0,0.0,0.0,0.0,0.0,0.0,0.0,0.0,0.0,0.0,0.0,0.0,0.0,0.0,0.00211346326347
