%time,field.header.seq,field.header.stamp,field.header.frame_id,field.pose.pose.position.x,field.pose.pose.position.y,field.pose.pose.position.z,field.pose.pose.orientation.x,field.pose.pose.orientation.y,field.pose.pose.orientation.z,field.pose.pose.orientation.w,field.pose.covariance0,field.pose.covariance1,field.pose.covariance2,field.pose.covariance3,field.pose.covariance4,field.pose.covariance5,field.pose.covariance6,field.pose.covariance7,field.pose.covariance8,field.pose.covariance9,field.pose.covariance10,field.pose.covariance11,field.pose.covariance12,field.pose.covariance13,field.pose.covariance14,field.pose.covariance15,field.pose.covariance16,field.pose.covariance17,field.pose.covariance18,field.pose.covariance19,field.pose.covariance20,field.pose.covariance21,field.pose.covariance22,field.pose.covariance23,field.pose.covariance24,field.pose.covariance25,field.pose.covariance26,field.pose.covariance27,field.pose.covariance28,field.pose.covariance29,field.pose.covariance30,field.pose.covariance31,field.pose.covariance32,field.pose.covariance33,field.pose.covariance34,field.pose.covariance35
1756813888176212000,410,1756813888176212000,map,-6.14853854101,-10.6888555444,0.0,0.0,0.0,0.788569176445,0.614946057765,0.0376396803058,-0.0114074464139,0.0,0.0,0.0,0.0,-0.0114074464139,0.0919762367745,0.0,0.0,0.0,0.0,0.0,0.0,0.0,0.0,0.0,0.0,0.0,0.0,0.0,0.0,0.0,0.0,0.0,0.0,0.0,0.0,0.0,0.0,0.0,0.0,0.0,0.0,0.0,0.0144593781488
1756813460378266000,411,1756813460378266000,map,11.2196775247,9.98449245676,0.0,0.0,0.0,0.744882634727,0.667195518931,0.242789130535,0.00314380267901,0.0,0.0,0.0,0.0,0.00314380267901,0.242599893943,0.0,0.0,0.0,0.0,0.0,0.0,0.0,0.0,0.0,0.0,0.0,0.0,0.0,0.0,0.0,0.0,0.0,0.0,0.0,0.0,0.0,0.0,0.0,0.0,0.0,0.0,0.0,0.0650658130277
1756813461112223000,412,1756813461112223000,map,11.2430065596,9.58639736936,0.0,0.0,0.0,0.737810464112,0.675007939988,0.144738699217,-0.017280956273,0.0,0.0,0.0,0.0,-0.017280956273,0.237588839725,0.0,0.0,0.0,0.0,0.0,0.0,0.0,0.0,0.0,0.0,0.0,0.0,0.0,0.0,0.0,0.0,0.0,0.0,0.0,0.0,0.0,0.0,0.0,0.0,0.0,0.0,0.0,0.04997550033
1756813462845003000,413,1756813462845003000,map,11.451157716,8.61163773622,0.0,0.0,0.0,0.779082389645,0.626921550232,0.20186645238,-0.0039570994681,0.0,0.0,0.0,0.0,-0.0039570994681,0.223939981271,0.0,0.0,0.0,0.0,0.0,0.0,0.0,0.0,0.0,0.0,0.0,0.0,0.0,0.0,0.0,0.0,0.0,0.0,0.0,0.0,0.0,0.0,0.0,0.0,0.0,0.0,0.0,0.0602284456818
1756813464112269000,414,1756813464112269000,map,11.519590709,7.79115107051,0.0,0.0,0.0,0.769696464382,0.638410019281,0.13844127301,-0.00562639568037,0.0,0.0,0.0,0.0,-0.00562639568037,0.216272631825,0.0,0.0,0.0,0.0,0.0,0.0,0.0,0.0,0.0,0.0,0.0,0.0,0.0,0.0,0.0,0.0,0.0,0.0,0.0,0.0,0.0,0.0,0.0,0.0,0.0,0.0,0.0,0.0321411388876
1756813465178840000,415,1756813465178840000,map,11.589976112,7.10836976079,0.0,0.0,0.0,0.774311982428,0.632804040655,0.0678009642004,-0.0230000089293,0.0,0.0,0.0,0.0,-0.0230000089293,0.229254074812,0.0,0.0,0.0,0.0,0.0,0.0,0.0,0.0,0.0,0.0,0.0,0.0,0.0,0.0,0.0,0.0,0.0,0.0,0.0,0.0,0.0,0.0,0.0,0.0,0.0,0.0,0.0,0.0149856057743
1756813466045662000,416,1756813466045662000,map,11.7055629934,6.59350505764,0.0,0.0,0.0,0.780974067546,0.624563452197,0.0184261232995,-0.0308216749795,0.0,0.0,0.0,0.0,-0.0308216749795,0.22156975384,0.0,0.0,0.0,0.0,0.0,0.0,0.0,0.0,0.0,0.0,0.0,0.0,0.0,0.0,0.0,0.0,0.0,0.0,0.0,0.0,0.0,0.0,0.0,0.0,0.0,0.0,0.0,0.00621503496571
1756813466978916000,417,1756813466978916000,map,11.8261284055,6.01021357878,0.0,0.0,0.0,0.780414894404,0.625262019151,0.0154516357907,-0.0341181427661,0.0,0.0,0.0,0.0,-0.0341181427661,0.231442781566,0.0,0.0,0.0,0.0,0.0,0.0,0.0,0.0,0.0,0.0,0.0,0.0,0.0,0.0,0.0,0.0,0.0,0.0,0.0,0.0,0.0,0.0,0.0,0.0,0.0,0.0,0.0,0.00409803495024
1756813467712273000,418,1756813467712273000,map,11.9163639169,5.54260423764,0.0,0.0,0.0,0.780977270171,0.624559447512,0.0126856720778,-0.0356420250581,0.0,0.0,0.0,0.0,-0.0356420250581,0.238296484459,0.0,0.0,0.0,0.0,0.0,0.0,0.0,0.0,0.0,0.0,0.0,0.0,0.0,0.0,0.0,0.0,0.0,0.0,0.0,0.0,0.0,0.0,0.0,0.0,0.0,0.0,0.0,0.00273590505669
1756813467978283000,419,1756813467978283000,map,11.9546524715,5.38233674653,0.0,0.0,0.0,0.780066388948,0.625696754693,0.0109882774114,-0.0370240773205,0.0,0.0,0.0,0.0,-0.0370240773205,0.242834966082,0.0,0.0,0.0,0.0,0.0,0.0,0.0,0.0,0.0,0.0,0.0,0.0,0.0,0.0,0.0,0.0,0.0,0.0,0.0,0.0,0.0,0.0,0.0,0.0,0.0,0.0,0.0,0.00376377172187
1756813469178370000,420,1756813469178370000,map,12.1140423021,4.61770927211,0.0,0.0,0.0,0.777838561225,0.628464137936,0.0120892142911,-0.036300703544,0.0,0.0,0.0,0.0,-0.036300703544,0.245580804423,0.0,0.0,0.0,0.0,0.0,0.0,0.0,0.0,0.0,0.0,0.0,0.0,0.0,0.0,0.0,0.0,0.0,0.0,0.0,0.0,0.0,0.0,0.0,0.0,0.0,0.0,0.0,0.00496419182229
1756813469978333000,421,1756813469978333000,map,12.207640241,4.10970957954,0.0,0.0,0.0,0.771832243345,0.635826224792,0.0147088566866,-0.0373400244008,0.0,0.0,0.0,0.0,-0.0373400244008,0.248920799956,0.0,0.0,0.0,0.0,0.0,0.0,0.0,0.0,0.0,0.0,0.0,0.0,0.0,0.0,0.0,0.0,0.0,0.0,0.0,0.0,0.0,0.0,0.0,0.0,0.0,0.0,0.0,0.00415716986389
1756813470645015000,422,1756813470645015000,map,12.2876827984,3.65419342111,0.0,0.0,0.0,0.771202052351,0.63659044483,0.0134500428842,-0.036329655207,0.0,0.0,0.0,0.0,-0.036329655207,0.245205477589,0.0,0.0,0.0,0.0,0.0,0.0,0.0,0.0,0.0,0.0,0.0,0.0,0.0,0.0,0.0,0.0,0.0,0.0,0.0,0.0,0.0,0.0,0.0,0.0,0.0,0.0,0.0,0.00241655337128
1756813471378400000,423,1756813471378400000,map,12.3676724667,3.18872085719,0.0,0.0,0.0,0.771419899161,0.636326440735,0.0114698376527,-0.036190598387,0.0,0.0,0.0,0.0,-0.036190598387,0.247992633427,0.0,0.0,0.0,0.0,0.0,0.0,0.0,0.0,0.0,0.0,0.0,0.0,0.0,0.0,0.0,0.0,0.0,0.0,0.0,0.0,0.0,0.0,0.0,0.0,0.0,0.0,0.0,0.00187000830551
1756813472045046000,424,1756813472045046000,map,12.4298539056,2.77292054991,0.0,0.0,0.0,0.771631682278,0.636069608537,0.0100116777465,-0.03688356511,0.0,0.0,0.0,0.0,-0.03688356511,0.255011392021,0.0,0.0,0.0,0.0,0.0,0.0,0.0,0.0,0.0,0.0,0.0,0.0,0.0,0.0,0.0,0.0,0.0,0.0,0.0,0.0,0.0,0.0,0.0,0.0,0.0,0.0,0.0,0.00149602887839
1756813472845910000,425,1756813472845910000,map,12.508600148,2.28536699399,0.0,0.0,0.0,0.769658830819,0.638455389313,0.0100635684395,-0.0380744401855,0.0,0.0,0.0,0.0,-0.0380744401855,0.262279027292,0.0,0.0,0.0,0.0,0.0,0.0,0.0,0.0,0.0,0.0,0.0,0.0,0.0,0.0,0.0,0.0,0.0,0.0,0.0,0.0,0.0,0.0,0.0,0.0,0.0,0.0,0.0,0.00173675454408
1756813473512351000,426,1756813473512351000,map,12.5912016176,1.84079548062,0.0,0.0,0.0,0.771868500006,0.635782210115,0.0101802696414,-0.0358656069293,0.0,0.0,0.0,0.0,-0.0358656069293,0.250514775033,0.0,0.0,0.0,0.0,0.0,0.0,0.0,0.0,0.0,0.0,0.0,0.0,0.0,0.0,0.0,0.0,0.0,0.0,0.0,0.0,0.0,0.0,0.0,0.0,0.0,0.0,0.0,0.00190600690225
1756813474378861000,427,1756813474378861000,map,12.7029039104,1.24604080648,0.0,0.0,0.0,0.772358079273,0.635187371869,0.0109845734106,-0.0344838795062,0.0,0.0,0.0,0.0,-0.0344838795062,0.241481552335,0.0,0.0,0.0,0.0,0.0,0.0,0.0,0.0,0.0,0.0,0.0,0.0,0.0,0.0,0.0,0.0,0.0,0.0,0.0,0.0,0.0,0.0,0.0,0.0,0.0,0.0,0.0,0.00249366272454
1756813475045753000,428,1756813475045753000,map,12.7778501359,0.838845824289,0.0,0.0,0.0,0.778500605781,0.62764385347,0.0108149107981,-0.0342370933224,0.0,0.0,0.0,0.0,-0.0342370933224,0.236596887304,0.0,0.0,0.0,0.0,0.0,0.0,0.0,0.0,0.0,0.0,0.0,0.0,0.0,0.0,0.0,0.0,0.0,0.0,0.0,0.0,0.0,0.0,0.0,0.0,0.0,0.0,0.0,0.00207848837484
1756813475978871000,429,1756813475978871000,map,12.8962064578,0.265218524544,0.0,0.0,0.0,0.777959450798,0.62831448568,0.0119471336853,-0.0336938930324,0.0,0.0,0.0,0.0,-0.0336938930324,0.234222145903,0.0,0.0,0.0,0.0,0.0,0.0,0.0,0.0,0.0,0.0,0.0,0.0,0.0,0.0,0.0,0.0,0.0,0.0,0.0,0.0,0.0,0.0,0.0,0.0,0.0,0.0,0.0,0.00287169045483
1756813476778366000,430,1756813476778366000,map,13.0038720816,-0.253222041594,0.0,0.0,0.0,0.77709876316,0.629378671624,0.0123866362812,-0.0330474162212,0.0,0.0,0.0,0.0,-0.0330474162212,0.231151967059,0.0,0.0,0.0,0.0,0.0,0.0,0.0,0.0,0.0,0.0,0.0,0.0,0.0,0.0,0.0,0.0,0.0,0.0,0.0,0.0,0.0,0.0,0.0,0.0,0.0,0.0,0.0,0.00261717522887
1756813477579124000,431,1756813477579124000,map,13.0932610686,-0.721229340825,0.0,0.0,0.0,0.781713855599,0.623637272751,0.0136965977158,-0.0327308559835,0.0,0.0,0.0,0.0,-0.0327308559835,0.226335486242,0.0,0.0,0.0,0.0,0.0,0.0,0.0,0.0,0.0,0.0,0.0,0.0,0.0,0.0,0.0,0.0,0.0,0.0,0.0,0.0,0.0,0.0,0.0,0.0,0.0,0.0,0.0,0.00254051141031
1756813478447511000,432,1756813478447511000,map,13.157053559,-1.23178136307,0.0,0.0,0.0,0.772947518433,0.634469962842,0.0132883624895,-0.0329341175091,0.0,0.0,0.0,0.0,-0.0329341175091,0.224035493433,0.0,0.0,0.0,0.0,0.0,0.0,0.0,0.0,0.0,0.0,0.0,0.0,0.0,0.0,0.0,0.0,0.0,0.0,0.0,0.0,0.0,0.0,0.0,0.0,0.0,0.0,0.0,0.0023922675503
1756813479178499000,433,1756813479178499000,map,13.2407587784,-1.75991683044,0.0,0.0,0.0,0.772562802085,0.634938356721,0.013237539273,-0.0325228613465,0.0,0.0,0.0,0.0,-0.0325228613465,0.219690334309,0.0,0.0,0.0,0.0,0.0,0.0,0.0,0.0,0.0,0.0,0.0,0.0,0.0,0.0,0.0,0.0,0.0,0.0,0.0,0.0,0.0,0.0,0.0,0.0,0.0,0.0,0.0,0.0020056614473
1756813479845280000,434,1756813479845280000,map,13.3265310693,-2.23593501966,0.0,0.0,0.0,0.770773748897,0.637108960862,0.0118900271862,-0.0314482047486,0.0,0.0,0.0,0.0,-0.0314482047486,0.214409477384,0.0,0.0,0.0,0.0,0.0,0.0,0.0,0.0,0.0,0.0,0.0,0.0,0.0,0.0,0.0,0.0,0.0,0.0,0.0,0.0,0.0,0.0,0.0,0.0,0.0,0.0,0.0,0.00182875123547
1756813480711917000,435,1756813480711917000,map,13.3853511037,-2.69549917973,0.0,0.0,0.0,0.762928181384,0.646483248082,0.0106151871762,-0.0313357706941,0.0,0.0,0.0,0.0,-0.0313357706941,0.212478049621,0.0,0.0,0.0,0.0,0.0,0.0,0.0,0.0,0.0,0.0,0.0,0.0,0.0,0.0,0.0,0.0,0.0,0.0,0.0,0.0,0.0,0.0,0.0,0.0,0.0,0.0,0.0,0.00249988968671
1756813481977919000,436,1756813481977919000,map,13.4907308402,-3.4863988215,0.0,0.0,0.0,0.765746994074,0.643141929178,0.0138775466309,-0.0327549601776,0.0,0.0,0.0,0.0,-0.0327549601776,0.225256646582,0.0,0.0,0.0,0.0,0.0,0.0,0.0,0.0,0.0,0.0,0.0,0.0,0.0,0.0,0.0,0.0,0.0,0.0,0.0,0.0,0.0,0.0,0.0,0.0,0.0,0.0,0.0,0.00867051605217
1756813482978535000,437,1756813482978535000,map,13.5903558003,-4.08720539512,0.0,0.0,0.0,0.763611371013,0.64567613713,0.0196718084078,-0.0314438099906,0.0,0.0,0.0,0.0,-0.0314438099907,0.227262993018,0.0,0.0,0.0,0.0,0.0,0.0,0.0,0.0,0.0,0.0,0.0,0.0,0.0,0.0,0.0,0.0,0.0,0.0,0.0,0.0,0.0,0.0,0.0,0.0,0.0,0.0,0.0,0.00718614716498
1756813483711474000,438,1756813483711474000,map,13.6606994401,-4.55120552907,0.0,0.0,0.0,0.766562199621,0.642170066347,0.0211616457813,-0.0314031003239,0.0,0.0,0.0,0.0,-0.0314031003239,0.231395301954,0.0,0.0,0.0,0.0,0.0,0.0,0.0,0.0,0.0,0.0,0.0,0.0,0.0,0.0,0.0,0.0,0.0,0.0,0.0,0.0,0.0,0.0,0.0,0.0,0.0,0.0,0.0,0.00567306194821
1756813486511854000,439,1756813486511854000,map,13.7991180457,-6.09579167682,0.0,0.0,0.0,0.750993480082,0.660309618947,0.386316719982,-0.0075604612298,0.0,0.0,0.0,0.0,-0.0075604612298,0.413128427987,0.0,0.0,0.0,0.0,0.0,0.0,0.0,0.0,0.0,0.0,0.0,0.0,0.0,0.0,0.0,0.0,0.0,0.0,0.0,0.0,0.0,0.0,0.0,0.0,0.0,0.0,0.0,0.263378022325
1756813487578779000,440,1756813487578779000,map,14.1079850792,-6.78987299501,0.0,0.0,0.0,0.784950463409,0.619558528304,0.718413184033,0.0387946999314,0.0,0.0,0.0,0.0,0.0387946999314,0.465929341361,0.0,0.0,0.0,0.0,0.0,0.0,0.0,0.0,0.0,0.0,0.0,0.0,0.0,0.0,0.0,0.0,0.0,0.0,0.0,0.0,0.0,0.0,0.0,0.0,0.0,0.0,0.0,0.21532468871
1756813488644791000,441,1756813488644791000,map,14.1202189324,-7.34624160963,0.0,0.0,0.0,0.769462847748,0.638691573403,0.905055241445,0.127729363218,0.0,0.0,0.0,0.0,0.127729363218,0.53356661784,0.0,0.0,0.0,0.0,0.0,0.0,0.0,0.0,0.0,0.0,0.0,0.0,0.0,0.0,0.0,0.0,0.0,0.0,0.0,0.0,0.0,0.0,0.0,0.0,0.0,0.0,0.0,0.167003598614
1756813489912054000,442,1756813489912054000,map,14.0663377508,-8.05808712778,0.0,0.0,0.0,0.734765685157,0.678321006542,1.37553385598,0.189157736499,0.0,0.0,0.0,0.0,0.189157736499,0.635211199872,0.0,0.0,0.0,0.0,0.0,0.0,0.0,0.0,0.0,0.0,0.0,0.0,0.0,0.0,0.0,0.0,0.0,0.0,0.0,0.0,0.0,0.0,0.0,0.0,0.0,0.0,0.0,0.160087401612
1756813491245467000,443,1756813491245467000,map,14.3778749456,-8.95753212191,0.0,0.0,0.0,0.742525521012,0.669817774208,1.92587002831,0.207336978844,0.0,0.0,0.0,0.0,0.207336978844,0.726020363968,0.0,0.0,0.0,0.0,0.0,0.0,0.0,0.0,0.0,0.0,0.0,0.0,0.0,0.0,0.0,0.0,0.0,0.0,0.0,0.0,0.0,0.0,0.0,0.0,0.0,0.0,0.0,0.162016662449
1756813491911664000,444,1756813491911664000,map,13.9913855932,-9.30752309655,0.0,0.0,0.0,0.667704967056,0.744426005033,1.76607015654,-0.0808633478203,0.0,0.0,0.0,0.0,-0.0808633478203,0.660069030067,0.0,0.0,0.0,0.0,0.0,0.0,0.0,0.0,0.0,0.0,0.0,0.0,0.0,0.0,0.0,0.0,0.0,0.0,0.0,0.0,0.0,0.0,0.0,0.0,0.0,0.0,0.0,0.119963898146
1756813492911474000,445,1756813492911474000,map,13.6694369099,-9.80688268144,0.0,0.0,0.0,0.614048757728,0.78926809332,2.48373930883,-0.511123525426,0.0,0.0,0.0,0.0,-0.511123525426,0.866829457397,0.0,0.0,0.0,0.0,0.0,0.0,0.0,0.0,0.0,0.0,0.0,0.0,0.0,0.0,0.0,0.0,0.0,0.0,0.0,0.0,0.0,0.0,0.0,0.0,0.0,0.0,0.0,0.138915709943
1756813494111069000,446,1756813494111069000,map,13.1613162085,-10.4918889063,0.0,0.0,0.0,0.381521550036,0.924359944426,6.49356311349,-3.07137464069,0.0,0.0,0.0,0.0,-3.07137464069,2.54423998786,0.0,0.0,0.0,0.0,0.0,0.0,0.0,0.0,0.0,0.0,0.0,0.0,0.0,0.0,0.0,0.0,0.0,0.0,0.0,0.0,0.0,0.0,0.0,0.0,0.0,0.0,0.0,0.305396899937
1756813495111635000,447,1756813495111635000,map,7.66151426886,-6.85593889803,0.0,0.0,0.0,-0.453746588238,0.891130761259,7.61137413978,-4.85390214924,0.0,0.0,0.0,0.0,-4.85390214924,4.31659314423,0.0,0.0,0.0,0.0,0.0,0.0,0.0,0.0,0.0,0.0,0.0,0.0,0.0,0.0,0.0,0.0,0.0,0.0,0.0,0.0,0.0,0.0,0.0,0.0,0.0,0.0,0.0,0.37133139984
1756813496245177000,448,1756813496245177000,map,7.52164037458,-6.18157070212,0.0,0.0,0.0,-0.796097038061,0.605168989614,6.19684125343,-5.36477086016,0.0,0.0,0.0,0.0,-5.36477086016,6.01603631041,0.0,0.0,0.0,0.0,0.0,0.0,0.0,0.0,0.0,0.0,0.0,0.0,0.0,0.0,0.0,0.0,0.0,0.0,0.0,0.0,0.0,0.0,0.0,0.0,0.0,0.0,0.0,0.428620804959
1756813497111711000,449,1756813497111711000,map,7.77720427511,-5.73533655887,0.0,0.0,0.0,-0.946467649487,0.322798681031,3.31117941943,-3.12733059822,0.0,0.0,0.0,0.0,-3.12733059822,4.13151348608,0.0,0.0,0.0,0.0,0.0,0.0,0.0,0.0,0.0,0.0,0.0,0.0,0.0,0.0,0.0,0.0,0.0,0.0,0.0,0.0,0.0,0.0,0.0,0.0,0.0,0.0,0.0,0.287301889035
1756813498045514000,450,1756813498045514000,map,8.26001865409,-5.47466973339,0.0,0.0,0.0,-0.984914277488,0.173042959983,1.59489402849,-1.39101351174,0.0,0.0,0.0,0.0,-1.39101351174,1.99296409597,0.0,0.0,0.0,0.0,0.0,0.0,0.0,0.0,0.0,0.0,0.0,0.0,0.0,0.0,0.0,0.0,0.0,0.0,0.0,0.0,0.0,0.0,0.0,0.0,0.0,0.0,0.0,0.185853922574
1756813499244543000,451,1756813499244543000,map,9.07158949584,-5.30363590828,0.0,0.0,0.0,-0.996555657023,0.0829266088512,0.519172314606,-0.371212090453,0.0,0.0,0.0,0.0,-0.371212090453,0.681042360408,0.0,0.0,0.0,0.0,0.0,0.0,0.0,0.0,0.0,0.0,0.0,0.0,0.0,0.0,0.0,0.0,0.0,0.0,0.0,0.0,0.0,0.0,0.0,0.0,0.0,0.0,0.0,0.127616238135
1756813500177976000,452,1756813500177976000,map,9.6751276252,-5.25492989399,0.0,0.0,0.0,-0.999020581642,0.044247909049,0.369550331727,-0.249342562366,0.0,0.0,0.0,0.0,-0.249342562366,0.514445102038,0.0,0.0,0.0,0.0,0.0,0.0,0.0,0.0,0.0,0.0,0.0,0.0,0.0,0.0,0.0,0.0,0.0,0.0,0.0,0.0,0.0,0.0,0.0,0.0,0.0,0.0,0.0,0.141107533433
1756813501178445000,453,1756813501178445000,map,10.2619299819,-5.17285155962,0.0,0.0,0.0,-0.999079436325,0.0428984838045,0.326536777757,-0.273480256,0.0,0.0,0.0,0.0,-0.273480256,0.547361922374,0.0,0.0,0.0,0.0,0.0,0.0,0.0,0.0,0.0,0.0,0.0,0.0,0.0,0.0,0.0,0.0,0.0,0.0,0.0,0.0,0.0,0.0,0.0,0.0,0.0,0.0,0.0,0.139377621982
1756813502378200000,454,1756813502378200000,map,11.031525421,-5.06533160743,0.0,0.0,0.0,-0.998164422387,0.0605622479894,0.276104350292,-0.287884106859,0.0,0.0,0.0,0.0,-0.287884106859,0.672643613496,0.0,0.0,0.0,0.0,0.0,0.0,0.0,0.0,0.0,0.0,0.0,0.0,0.0,0.0,0.0,0.0,0.0,0.0,0.0,0.0,0.0,0.0,0.0,0.0,0.0,0.0,0.0,0.148381240288
1756813503845304000,455,1756813503845304000,map,11.9291129661,-4.95233578785,0.0,0.0,0.0,-0.994979343503,0.10008049761,0.2907490694,-0.395957663989,0.0,0.0,0.0,0.0,-0.395957663989,1.1167346251,0.0,0.0,0.0,0.0,0.0,0.0,0.0,0.0,0.0,0.0,0.0,0.0,0.0,0.0,0.0,0.0,0.0,0.0,0.0,0.0,0.0,0.0,0.0,0.0,0.0,0.0,0.0,0.149997590186
1756813505178147000,456,1756813505178147000,map,12.628696689,-4.57769202627,0.0,0.0,0.0,-0.98880369226,0.149222177213,0.468096693872,-0.648135371876,0.0,0.0,0.0,0.0,-0.648135371876,1.81101390788,0.0,0.0,0.0,0.0,0.0,0.0,0.0,0.0,0.0,0.0,0.0,0.0,0.0,0.0,0.0,0.0,0.0,0.0,0.0,0.0,0.0,0.0,0.0,0.0,0.0,0.0,0.0,0.185947745946
1756813506178662000,457,1756813506178662000,map,12.9903526468,-3.98778149935,0.0,0.0,0.0,-0.978730412492,0.205150626769,0.850311533178,-0.836475241901,0.0,0.0,0.0,0.0,-0.836475241901,2.12808835925,0.0,0.0,0.0,0.0,0.0,0.0,0.0,0.0,0.0,0.0,0.0,0.0,0.0,0.0,0.0,0.0,0.0,0.0,0.0,0.0,0.0,0.0,0.0,0.0,0.0,0.0,0.0,0.267895980781
1756813507578355000,458,1756813507578355000,map,13.578635181,-3.44565218885,0.0,0.0,0.0,-0.979476907391,0.201556413661,2.48648692047,-1.11258606879,0.0,0.0,0.0,0.0,-1.11258606879,2.18642342364,0.0,0.0,0.0,0.0,0.0,0.0,0.0,0.0,0.0,0.0,0.0,0.0,0.0,0.0,0.0,0.0,0.0,0.0,0.0,0.0,0.0,0.0,0.0,0.0,0.0,0.0,0.0,0.518416832624
1756813509178305000,459,1756813509178305000,map,10.4688432565,-2.17582376629,0.0,0.0,0.0,-0.659177175287,0.751987667173,3.78432210095,-1.2395117252,0.0,0.0,0.0,0.0,-1.2395117252,1.84154182966,0.0,0.0,0.0,0.0,0.0,0.0,0.0,0.0,0.0,0.0,0.0,0.0,0.0,0.0,0.0,0.0,0.0,0.0,0.0,0.0,0.0,0.0,0.0,0.0,0.0,0.0,0.0,0.43936150057
1756813510111665000,460,1756813510111665000,map,10.4171107143,-1.54265947602,0.0,0.0,0.0,-0.656232030173,0.75455915777,2.28523737495,-0.501459293893,0.0,0.0,0.0,0.0,-0.501459293893,0.580397721519,0.0,0.0,0.0,0.0,0.0,0.0,0.0,0.0,0.0,0.0,0.0,0.0,0.0,0.0,0.0,0.0,0.0,0.0,0.0,0.0,0.0,0.0,0.0,0.0,0.0,0.0,0.0,0.138483017485
1756813510978110000,461,1756813510978110000,map,10.3232324532,-0.982657730142,0.0,0.0,0.0,-0.645148153466,0.764057497888,1.07168440932,-0.228245104349,0.0,0.0,0.0,0.0,-0.228245104349,0.207819249556,0.0,0.0,0.0,0.0,0.0,0.0,0.0,0.0,0.0,0.0,0.0,0.0,0.0,0.0,0.0,0.0,0.0,0.0,0.0,0.0,0.0,0.0,0.0,0.0,0.0,0.0,0.0,0.0361434377657
1756813511911508000,462,1756813511911508000,map,10.2278557957,-0.408628697585,0.0,0.0,0.0,-0.636872838956,0.770968862536,0.521994880009,-0.120449295457,0.0,0.0,0.0,0.0,-0.120449295457,0.105250531575,0.0,0.0,0.0,0.0,0.0,0.0,0.0,0.0,0.0,0.0,0.0,0.0,0.0,0.0,0.0,0.0,0.0,0.0,0.0,0.0,0.0,0.0,0.0,0.0,0.0,0.0,0.0,0.0113998324145
1756813512845270000,463,1756813512845270000,map,10.1348116533,0.217645164263,0.0,0.0,0.0,-0.643482087485,0.765461170202,0.261451177833,-0.0649203421988,0.0,0.0,0.0,0.0,-0.0649203421988,0.054751812864,0.0,0.0,0.0,0.0,0.0,0.0,0.0,0.0,0.0,0.0,0.0,0.0,0.0,0.0,0.0,0.0,0.0,0.0,0.0,0.0,0.0,0.0,0.0,0.0,0.0,0.0,0.0,0.0037635525759
1756813513978244000,464,1756813513978244000,map,10.0095939171,0.972148484858,0.0,0.0,0.0,-0.647490543231,0.762073484926,0.17118195637,-0.0427192479197,0.0,0.0,0.0,0.0,-0.0427192479197,0.0404160643084,0.0,0.0,0.0,0.0,0.0,0.0,0.0,0.0,0.0,0.0,0.0,0.0,0.0,0.0,0.0,0.0,0.0,0.0,0.0,0.0,0.0,0.0,0.0,0.0,0.0,0.0,0.0,0.00353785976324
1756813514844595000,465,1756813514844595000,map,9.94125865252,1.48540607652,0.0,0.0,0.0,-0.644791671212,0.764358358845,0.104362390316,-0.0270580353492,0.0,0.0,0.0,0.0,-0.0270580353492,0.0374535835646,0.0,0.0,0.0,0.0,0.0,0.0,0.0,0.0,0.0,0.0,0.0,0.0,0.0,0.0,0.0,0.0,0.0,0.0,0.0,0.0,0.0,0.0,0.0,0.0,0.0,0.0,0.0,0.00300422578859
1756813516111430000,466,1756813516111430000,map,9.80140465458,2.29454414414,0.0,0.0,0.0,-0.649579875403,0.760293354878,0.080204672599,-0.0224454957419,0.0,0.0,0.0,0.0,-0.0224454957419,0.0387762861159,0.0,0.0,0.0,0.0,0.0,0.0,0.0,0.0,0.0,0.0,0.0,0.0,0.0,0.0,0.0,0.0,0.0,0.0,0.0,0.0,0.0,0.0,0.0,0.0,0.0,0.0,0.0,0.00732777727923
1756813517378554000,467,1756813517378554000,map,9.64364792163,3.09688157689,0.0,0.0,0.0,-0.642450941758,0.766326815031,0.0643740754533,-0.0183458731523,0.0,0.0,0.0,0.0,-0.0183458731523,0.0391491198399,0.0,0.0,0.0,0.0,0.0,0.0,0.0,0.0,0.0,0.0,0.0,0.0,0.0,0.0,0.0,0.0,0.0,0.0,0.0,0.0,0.0,0.0,0.0,0.0,0.0,0.0,0.0,0.00447248679948
1756813518377959000,468,1756813518377959000,map,9.52949395775,3.70265024962,0.0,0.0,0.0,-0.651628101405,0.758538606439,0.0612118449063,-0.0170753619183,0.0,0.0,0.0,0.0,-0.0170753619183,0.03937504916,0.0,0.0,0.0,0.0,0.0,0.0,0.0,0.0,0.0,0.0,0.0,0.0,0.0,0.0,0.0,0.0,0.0,0.0,0.0,0.0,0.0,0.0,0.0,0.0,0.0,0.0,0.0,0.00308210615283
1756813519578354000,469,1756813519578354000,map,9.41674575481,4.47357447961,0.0,0.0,0.0,-0.667415561135,0.74468548311,0.0570619857255,-0.0154949565307,0.0,0.0,0.0,0.0,-0.0154949565307,0.0416779642689,0.0,0.0,0.0,0.0,0.0,0.0,0.0,0.0,0.0,0.0,0.0,0.0,0.0,0.0,0.0,0.0,0.0,0.0,0.0,0.0,0.0,0.0,0.0,0.0,0.0,0.0,0.0,0.00375614904475
1756813520778434000,470,1756813520778434000,map,9.31381853453,5.24313128757,0.0,0.0,0.0,-0.661736394821,0.749736582921,0.0590047694881,-0.0146083773722,0.0,0.0,0.0,0.0,-0.0146083773722,0.0446191029733,0.0,0.0,0.0,0.0,0.0,0.0,0.0,0.0,0.0,0.0,0.0,0.0,0.0,0.0,0.0,0.0,0.0,0.0,0.0,0.0,0.0,0.0,0.0,0.0,0.0,0.0,0.0,0.0035955044278
1756813521777899000,471,1756813521777899000,map,9.224397533,5.86785236631,0.0,0.0,0.0,-0.656381578568,0.754429071097,0.0484814292763,-0.0131282103352,0.0,0.0,0.0,0.0,-0.0131282103352,0.0453244382097,0.0,0.0,0.0,0.0,0.0,0.0,0.0,0.0,0.0,0.0,0.0,0.0,0.0,0.0,0.0,0.0,0.0,0.0,0.0,0.0,0.0,0.0,0.0,0.0,0.0,0.0,0.0,0.00289833895317
1756813522778437000,472,1756813522778437000,map,9.1326885575,6.48857394023,0.0,0.0,0.0,-0.660800448446,0.7505616346,0.0501026974776,-0.0133553249477,0.0,0.0,0.0,0.0,-0.0133553249477,0.0474138590404,0.0,0.0,0.0,0.0,0.0,0.0,0.0,0.0,0.0,0.0,0.0,0.0,0.0,0.0,0.0,0.0,0.0,0.0,0.0,0.0,0.0,0.0,0.0,0.0,0.0,0.0,0.0,0.00258528429124
1756813523911932000,473,1756813523911932000,map,9.07765481129,7.20043943991,0.0,0.0,0.0,-0.656679749771,0.75416954741,0.0268324282854,-0.0102235849026,0.0,0.0,0.0,0.0,-0.0102235849026,0.0474493650455,0.0,0.0,0.0,0.0,0.0,0.0,0.0,0.0,0.0,0.0,0.0,0.0,0.0,0.0,0.0,0.0,0.0,0.0,0.0,0.0,0.0,0.0,0.0,0.0,0.0,0.0,0.0,0.00477060961384
1756813524845118000,474,1756813524845118000,map,8.98714734332,7.79581660018,0.0,0.0,0.0,-0.665903020318,0.746038315056,0.0203537751464,-0.00780223617575,0.0,0.0,0.0,0.0,-0.00780223617575,0.0448267844186,0.0,0.0,0.0,0.0,0.0,0.0,0.0,0.0,0.0,0.0,0.0,0.0,0.0,0.0,0.0,0.0,0.0,0.0,0.0,0.0,0.0,0.0,0.0,0.0,0.0,0.0,0.0,0.00449090403228
1756813525777888000,475,1756813525777888000,map,8.91496444113,8.36085456099,0.0,0.0,0.0,-0.660682037525,0.750665867941,0.0180548477923,-0.00761222813642,0.0,0.0,0.0,0.0,-0.00761222813642,0.0453180252723,0.0,0.0,0.0,0.0,0.0,0.0,0.0,0.0,0.0,0.0,0.0,0.0,0.0,0.0,0.0,0.0,0.0,0.0,0.0,0.0,0.0,0.0,0.0,0.0,0.0,0.0,0.0,0.00360998915719
1756813527045344000,476,1756813527045344000,map,8.81849954503,9.11212890528,0.0,0.0,0.0,-0.664104261743,0.747639973205,0.0108831355877,-0.00672087914877,0.0,0.0,0.0,0.0,-0.00672087914876,0.0440187126814,0.0,0.0,0.0,0.0,0.0,0.0,0.0,0.0,0.0,0.0,0.0,0.0,0.0,0.0,0.0,0.0,0.0,0.0,0.0,0.0,0.0,0.0,0.0,0.0,0.0,0.0,0.0,0.00512475441642
1756813528378393000,477,1756813528378393000,map,8.72015703372,9.91487670977,0.0,0.0,0.0,-0.674486296538,0.738287366669,0.0154681393224,-0.00654465091094,0.0,0.0,0.0,0.0,-0.00654465091094,0.0456718267796,0.0,0.0,0.0,0.0,0.0,0.0,0.0,0.0,0.0,0.0,0.0,0.0,0.0,0.0,0.0,0.0,0.0,0.0,0.0,0.0,0.0,0.0,0.0,0.0,0.0,0.0,0.0,0.0105139852068
1756813530845096000,478,1756813530845096000,map,8.51171999357,11.436472302,0.0,0.0,0.0,-0.605164004116,0.796100827862,0.117655904928,0.00358352615807,0.0,0.0,0.0,0.0,0.00358352615807,0.0842831121416,0.0,0.0,0.0,0.0,0.0,0.0,0.0,0.0,0.0,0.0,0.0,0.0,0.0,0.0,0.0,0.0,0.0,0.0,0.0,0.0,0.0,0.0,0.0,0.0,0.0,0.0,0.0,0.0857690218769
1756813532245463000,479,1756813532245463000,map,8.04046998252,12.1838477114,0.0,0.0,0.0,-0.420530063839,0.907278604073,0.27593314294,0.0481316160808,0.0,0.0,0.0,0.0,0.0481316160808,0.103674606661,0.0,0.0,0.0,0.0,0.0,0.0,0.0,0.0,0.0,0.0,0.0,0.0,0.0,0.0,0.0,0.0,0.0,0.0,0.0,0.0,0.0,0.0,0.0,0.0,0.0,0.0,0.0,0.0881913031807
1756813533111774000,480,1756813533111774000,map,7.55547932446,12.4783761958,0.0,0.0,0.0,-0.183794137065,0.982964757853,0.322866948709,0.099467991212,0.0,0.0,0.0,0.0,0.099467991212,0.122407706598,0.0,0.0,0.0,0.0,0.0,0.0,0.0,0.0,0.0,0.0,0.0,0.0,0.0,0.0,0.0,0.0,0.0,0.0,0.0,0.0,0.0,0.0,0.0,0.0,0.0,0.0,0.0,0.0662567462711
1756813534577815000,481,1756813534577815000,map,6.73630187139,12.5005164046,0.0,0.0,0.0,0.259883713584,0.965639920164,0.335589021255,0.201073346956,0.0,0.0,0.0,0.0,0.201073346956,0.264306422203,0.0,0.0,0.0,0.0,0.0,0.0,0.0,0.0,0.0,0.0,0.0,0.0,0.0,0.0,0.0,0.0,0.0,0.0,0.0,0.0,0.0,0.0,0.0,0.0,0.0,0.0,0.0,0.093648233904
1756813535311102000,482,1756813535311102000,map,6.35704299038,12.1998517272,0.0,0.0,0.0,0.488588730145,0.872514213509,0.267036319284,0.186420550658,0.0,0.0,0.0,0.0,0.186420550658,0.347200404592,0.0,0.0,0.0,0.0,0.0,0.0,0.0,0.0,0.0,0.0,0.0,0.0,0.0,0.0,0.0,0.0,0.0,0.0,0.0,0.0,0.0,0.0,0.0,0.0,0.0,0.0,0.0,0.0967788023173
1756813536311566000,483,1756813536311566000,map,6.17867166724,11.7850011424,0.0,0.0,0.0,0.620234609259,0.784416362322,0.208028487348,0.12561749327,0.0,0.0,0.0,0.0,0.12561749327,0.42542173309,0.0,0.0,0.0,0.0,0.0,0.0,0.0,0.0,0.0,0.0,0.0,0.0,0.0,0.0,0.0,0.0,0.0,0.0,0.0,0.0,0.0,0.0,0.0,0.0,0.0,0.0,0.0,0.106276543832
1756813538177813000,484,1756813538177813000,map,6.19304435352,11.1519096756,0.0,0.0,0.0,0.812945693312,0.582339505551,0.209901990609,0.0168019334459,0.0,0.0,0.0,0.0,0.0168019334459,0.434632710468,0.0,0.0,0.0,0.0,0.0,0.0,0.0,0.0,0.0,0.0,0.0,0.0,0.0,0.0,0.0,0.0,0.0,0.0,0.0,0.0,0.0,0.0,0.0,0.0,0.0,0.0,0.0,0.116992260738
1756813539644980000,485,1756813539644980000,map,6.36292174322,10.5739203729,0.0,0.0,0.0,0.915389139782,0.402570146396,0.289070662054,-0.043591005678,0.0,0.0,0.0,0.0,-0.043591005678,0.330212229204,0.0,0.0,0.0,0.0,0.0,0.0,0.0,0.0,0.0,0.0,0.0,0.0,0.0,0.0,0.0,0.0,0.0,0.0,0.0,0.0,0.0,0.0,0.0,0.0,0.0,0.0,0.0,0.117283325637
1756813540311571000,486,1756813540311571000,map,6.62714994105,10.2856681248,0.0,0.0,0.0,0.916645161684,0.399701948408,0.359265560288,-0.0287490501254,0.0,0.0,0.0,0.0,-0.0287490501254,0.259213211705,0.0,0.0,0.0,0.0,0.0,0.0,0.0,0.0,0.0,0.0,0.0,0.0,0.0,0.0,0.0,0.0,0.0,0.0,0.0,0.0,0.0,0.0,0.0,0.0,0.0,0.0,0.0,0.117492055601
1756813541178108000,487,1756813541178108000,map,6.68352061413,9.9376679149,0.0,0.0,0.0,0.88002181745,0.474933259324,0.534845936566,-0.0515373017135,0.0,0.0,0.0,0.0,-0.0515373017135,0.206793051496,0.0,0.0,0.0,0.0,0.0,0.0,0.0,0.0,0.0,0.0,0.0,0.0,0.0,0.0,0.0,0.0,0.0,0.0,0.0,0.0,0.0,0.0,0.0,0.0,0.0,0.0,0.0,0.13774493741
1756813542111721000,488,1756813542111721000,map,6.53116158972,9.58127457455,0.0,0.0,0.0,0.822045640336,0.569421605846,0.518980496402,-0.0109156711984,0.0,0.0,0.0,0.0,-0.0109156711984,0.113694314165,0.0,0.0,0.0,0.0,0.0,0.0,0.0,0.0,0.0,0.0,0.0,0.0,0.0,0.0,0.0,0.0,0.0,0.0,0.0,0.0,0.0,0.0,0.0,0.0,0.0,0.0,0.0,0.0881882298789
1756813542845164000,489,1756813542845164000,map,6.28256967586,9.1338966335,0.0,0.0,0.0,0.765033154837,0.643990894346,0.192643321213,0.00249130798695,0.0,0.0,0.0,0.0,0.00249130798695,0.065378643179,0.0,0.0,0.0,0.0,0.0,0.0,0.0,0.0,0.0,0.0,0.0,0.0,0.0,0.0,0.0,0.0,0.0,0.0,0.0,0.0,0.0,0.0,0.0,0.0,0.0,0.0,0.0,0.0244651585258
1756813543577748000,490,1756813543577748000,map,6.35703028155,8.67188029442,0.0,0.0,0.0,0.762207924202,0.647332279655,0.0668460222638,0.00211039549912,0.0,0.0,0.0,0.0,0.00211039549912,0.0533962796094,0.0,0.0,0.0,0.0,0.0,0.0,0.0,0.0,0.0,0.0,0.0,0.0,0.0,0.0,0.0,0.0,0.0,0.0,0.0,0.0,0.0,0.0,0.0,0.0,0.0,0.0,0.0,0.00801436847009
1756813544511512000,491,1756813544511512000,map,6.43531865013,8.07216418584,0.0,0.0,0.0,0.763402588271,0.645922973907,0.0126298052795,-0.00342499598916,0.0,0.0,0.0,0.0,-0.00342499598916,0.0381779078617,0.0,0.0,0.0,0.0,0.0,0.0,0.0,0.0,0.0,0.0,0.0,0.0,0.0,0.0,0.0,0.0,0.0,0.0,0.0,0.0,0.0,0.0,0.0,0.0,0.0,0.0,0.0,0.00288195024012
1756813545177789000,492,1756813545177789000,map,6.4956177365,7.64818977194,0.0,0.0,0.0,0.759094188961,0.650980807924,0.00533420141232,-0.00424328599405,0.0,0.0,0.0,0.0,-0.00424328599405,0.0355510536786,0.0,0.0,0.0,0.0,0.0,0.0,0.0,0.0,0.0,0.0,0.0,0.0,0.0,0.0,0.0,0.0,0.0,0.0,0.0,0.0,0.0,0.0,0.0,0.0,0.0,0.0,0.0,0.00199712668474
1756813546244827000,493,1756813546244827000,map,6.59450585424,6.95392464502,0.0,0.0,0.0,0.767806274954,0.640682077275,0.00660424602535,-0.00462962961856,0.0,0.0,0.0,0.0,-0.00462962961856,0.0387699517008,0.0,0.0,0.0,0.0,0.0,0.0,0.0,0.0,0.0,0.0,0.0,0.0,0.0,0.0,0.0,0.0,0.0,0.0,0.0,0.0,0.0,0.0,0.0,0.0,0.0,0.0,0.0,0.00360157548691
1756813546978051000,494,1756813546978051000,map,6.65103157299,6.47202897785,0.0,0.0,0.0,0.76843100003,0.639932651294,0.00642926953598,-0.00496608252015,0.0,0.0,0.0,0.0,-0.00496608252015,0.0406683550005,0.0,0.0,0.0,0.0,0.0,0.0,0.0,0.0,0.0,0.0,0.0,0.0,0.0,0.0,0.0,0.0,0.0,0.0,0.0,0.0,0.0,0.0,0.0,0.0,0.0,0.0,0.0,0.00255960170204
1756813547778308000,495,1756813547778308000,map,6.72767215048,5.95325861539,0.0,0.0,0.0,0.768521925811,0.639823451858,0.00623233668335,-0.00548679990146,0.0,0.0,0.0,0.0,-0.00548679990147,0.0417205407995,0.0,0.0,0.0,0.0,0.0,0.0,0.0,0.0,0.0,0.0,0.0,0.0,0.0,0.0,0.0,0.0,0.0,0.0,0.0,0.0,0.0,0.0,0.0,0.0,0.0,0.0,0.0,0.00208814087037
1756813548447204000,496,1756813548447204000,map,6.78202178264,5.52610158281,0.0,0.0,0.0,0.770164690866,0.637845082244,0.00512899553544,-0.00550153383322,0.0,0.0,0.0,0.0,-0.00550153383322,0.0430164881998,0.0,0.0,0.0,0.0,0.0,0.0,0.0,0.0,0.0,0.0,0.0,0.0,0.0,0.0,0.0,0.0,0.0,0.0,0.0,0.0,0.0,0.0,0.0,0.0,0.0,0.0,0.0,0.00137978041698
1756813549244208000,497,1756813549244208000,map,6.85648419438,5.04212311153,0.0,0.0,0.0,0.777238306235,0.629206337636,0.00535377521626,-0.00566742096555,0.0,0.0,0.0,0.0,-0.00566742096555,0.0449996586091,0.0,0.0,0.0,0.0,0.0,0.0,0.0,0.0,0.0,0.0,0.0,0.0,0.0,0.0,0.0,0.0,0.0,0.0,0.0,0.0,0.0,0.0,0.0,0.0,0.0,0.0,0.0,0.00179535905664
1756813550178231000,498,1756813550178231000,map,6.96652976308,4.43409659744,0.0,0.0,0.0,0.778151867293,0.6280761669,0.00569623056975,-0.0055798240822,0.0,0.0,0.0,0.0,-0.00557982408219,0.0444263644747,0.0,0.0,0.0,0.0,0.0,0.0,0.0,0.0,0.0,0.0,0.0,0.0,0.0,0.0,0.0,0.0,0.0,0.0,0.0,0.0,0.0,0.0,0.0,0.0,0.0,0.0,0.0,0.00231570598311
1756813551578292000,499,1756813551578292000,map,7.13222035819,3.57410395138,0.0,0.0,0.0,0.777878977269,0.628414112447,0.0122607521592,-0.00613801868307,0.0,0.0,0.0,0.0,-0.00613801868307,0.0504837412497,0.0,0.0,0.0,0.0,0.0,0.0,0.0,0.0,0.0,0.0,0.0,0.0,0.0,0.0,0.0,0.0,0.0,0.0,0.0,0.0,0.0,0.0,0.0,0.0,0.0,0.0,0.0,0.010024945973
1756813552377783000,500,1756813552377783000,map,7.18357012178,3.06376772403,0.0,0.0,0.0,0.776879304912,0.629649541888,0.0136632471735,-0.00547794764998,0.0,0.0,0.0,0.0,-0.00547794764998,0.0489056573192,0.0,0.0,0.0,0.0,0.0,0.0,0.0,0.0,0.0,0.0,0.0,0.0,0.0,0.0,0.0,0.0,0.0,0.0,0.0,0.0,0.0,0.0,0.0,0.0,0.0,0.0,0.0,0.00646604754682
1756813553178196000,501,1756813553178196000,map,7.24209429076,2.54084326575,0.0,0.0,0.0,0.772781628203,0.634672005931,0.0115953170644,-0.00416164229207,0.0,0.0,0.0,0.0,-0.00416164229207,0.0477248682108,0.0,0.0,0.0,0.0,0.0,0.0,0.0,0.0,0.0,0.0,0.0,0.0,0.0,0.0,0.0,0.0,0.0,0.0,0.0,0.0,0.0,0.0,0.0,0.0,0.0,0.0,0.0,0.0041089244483
1756813554377664000,502,1756813554377664000,map,7.37627107139,1.79685401415,0.0,0.0,0.0,0.777801844165,0.628509579253,0.0152789546727,-0.0021056674558,0.0,0.0,0.0,0.0,-0.0021056674558,0.0466988074211,0.0,0.0,0.0,0.0,0.0,0.0,0.0,0.0,0.0,0.0,0.0,0.0,0.0,0.0,0.0,0.0,0.0,0.0,0.0,0.0,0.0,0.0,0.0,0.0,0.0,0.0,0.0,0.00562442084395
1756813555110928000,503,1756813555110928000,map,7.46756163152,1.34174027115,0.0,0.0,0.0,0.780009095184,0.625768177067,0.0219488476861,0.000208239192572,0.0,0.0,0.0,0.0,0.000208239192572,0.0464839497274,0.0,0.0,0.0,0.0,0.0,0.0,0.0,0.0,0.0,0.0,0.0,0.0,0.0,0.0,0.0,0.0,0.0,0.0,0.0,0.0,0.0,0.0,0.0,0.0,0.0,0.0,0.0,0.00579976483176
1756813555777542000,504,1756813555777542000,map,7.5054024303,0.874637412959,0.0,0.0,0.0,0.775509734056,0.631335609944,0.0185214386298,-0.000904291812583,0.0,0.0,0.0,0.0,-0.000904291812583,0.0468207750943,0.0,0.0,0.0,0.0,0.0,0.0,0.0,0.0,0.0,0.0,0.0,0.0,0.0,0.0,0.0,0.0,0.0,0.0,0.0,0.0,0.0,0.0,0.0,0.0,0.0,0.0,0.0,0.0038279771687
1756813556511539000,505,1756813556511539000,map,7.57471265188,0.399311149732,0.0,0.0,0.0,0.77147649487,0.63625782342,0.020617862963,-0.000590414734652,0.0,0.0,0.0,0.0,-0.000590414734652,0.0480103825892,0.0,0.0,0.0,0.0,0.0,0.0,0.0,0.0,0.0,0.0,0.0,0.0,0.0,0.0,0.0,0.0,0.0,0.0,0.0,0.0,0.0,0.0,0.0,0.0,0.0,0.0,0.0,0.00335071713734
1756813557244886000,506,1756813557244886000,map,7.60756846485,-0.10694589086,0.0,0.0,0.0,0.760812366136,0.648971912747,0.00967517381713,-0.00472665942893,0.0,0.0,0.0,0.0,-0.00472665942893,0.0444268591905,0.0,0.0,0.0,0.0,0.0,0.0,0.0,0.0,0.0,0.0,0.0,0.0,0.0,0.0,0.0,0.0,0.0,0.0,0.0,0.0,0.0,0.0,0.0,0.0,0.0,0.0,0.0,0.0020240316861
1756813557977646000,507,1756813557977646000,map,7.66812843566,-0.57438913071,0.0,0.0,0.0,0.761272102961,0.648432560298,0.00765033113917,-0.00582925879494,0.0,0.0,0.0,0.0,-0.00582925879494,0.0453709419837,0.0,0.0,0.0,0.0,0.0,0.0,0.0,0.0,0.0,0.0,0.0,0.0,0.0,0.0,0.0,0.0,0.0,0.0,0.0,0.0,0.0,0.0,0.0,0.0,0.0,0.0,0.0,0.0017463736131
1756813558644417000,508,1756813558644417000,map,7.70879982963,-0.997431556745,0.0,0.0,0.0,0.75797726338,0.652280973353,0.00561481043346,-0.00604230597322,0.0,0.0,0.0,0.0,-0.00604230597322,0.0458325082659,0.0,0.0,0.0,0.0,0.0,0.0,0.0,0.0,0.0,0.0,0.0,0.0,0.0,0.0,0.0,0.0,0.0,0.0,0.0,0.0,0.0,0.0,0.0,0.0,0.0,0.0,0.0,0.00162441906757
1756813559447344000,509,1756813559447344000,map,7.78360413354,-1.42599480404,0.0,0.0,0.0,0.765477393368,0.643462788545,0.00537937380876,-0.00629723182326,0.0,0.0,0.0,0.0,-0.00629723182326,0.0460688205207,0.0,0.0,0.0,0.0,0.0,0.0,0.0,0.0,0.0,0.0,0.0,0.0,0.0,0.0,0.0,0.0,0.0,0.0,0.0,0.0,0.0,0.0,0.0,0.0,0.0,0.0,0.0,0.00169189720716
1756813560244520000,510,1756813560244520000,map,7.86806678881,-1.98338315177,0.0,0.0,0.0,0.763280999705,0.646066649418,0.00518700161407,-0.00653132056737,0.0,0.0,0.0,0.0,-0.00653132056737,0.047238901546,0.0,0.0,0.0,0.0,0.0,0.0,0.0,0.0,0.0,0.0,0.0,0.0,0.0,0.0,0.0,0.0,0.0,0.0,0.0,0.0,0.0,0.0,0.0,0.0,0.0,0.0,0.0,0.00185968245845
1756813561177652000,511,1756813561177652000,map,7.97147953387,-2.60600104023,0.0,0.0,0.0,0.756102151843,0.654453616369,0.00667461724139,-0.00689160657021,0.0,0.0,0.0,0.0,-0.00689160657022,0.0495722948542,0.0,0.0,0.0,0.0,0.0,0.0,0.0,0.0,0.0,0.0,0.0,0.0,0.0,0.0,0.0,0.0,0.0,0.0,0.0,0.0,0.0,0.0,0.0,0.0,0.0,0.0,0.0,0.00322310740951
1756813562111450000,512,1756813562111450000,map,8.06945273476,-3.19817600189,0.0,0.0,0.0,0.757320449171,0.653043442098,0.00766572316357,-0.00716114239091,0.0,0.0,0.0,0.0,-0.00716114239091,0.0512633035083,0.0,0.0,0.0,0.0,0.0,0.0,0.0,0.0,0.0,0.0,0.0,0.0,0.0,0.0,0.0,0.0,0.0,0.0,0.0,0.0,0.0,0.0,0.0,0.0,0.0,0.0,0.0,0.00328218710466
1756813563177842000,513,1756813563177842000,map,8.15525559235,-3.88311065423,0.0,0.0,0.0,0.758766552139,0.651362663464,0.00934372795152,-0.00734355774735,0.0,0.0,0.0,0.0,-0.00734355774735,0.0548491265896,0.0,0.0,0.0,0.0,0.0,0.0,0.0,0.0,0.0,0.0,0.0,0.0,0.0,0.0,0.0,0.0,0.0,0.0,0.0,0.0,0.0,0.0,0.0,0.0,0.0,0.0,0.0,0.00384371861591
1756813563911573000,514,1756813563911573000,map,8.21452766735,-4.32477082796,0.0,0.0,0.0,0.759628080495,0.650357731808,0.0115720810203,-0.006959077767,0.0,0.0,0.0,0.0,-0.006959077767,0.0536009973689,0.0,0.0,0.0,0.0,0.0,0.0,0.0,0.0,0.0,0.0,0.0,0.0,0.0,0.0,0.0,0.0,0.0,0.0,0.0,0.0,0.0,0.0,0.0,0.0,0.0,0.0,0.0,0.0036931796609
1756813564777698000,515,1756813564777698000,map,8.29069161621,-4.89511087979,0.0,0.0,0.0,0.761671894327,0.647962904333,0.0116037631967,-0.00647680711845,0.0,0.0,0.0,0.0,-0.00647680711845,0.0543019212872,0.0,0.0,0.0,0.0,0.0,0.0,0.0,0.0,0.0,0.0,0.0,0.0,0.0,0.0,0.0,0.0,0.0,0.0,0.0,0.0,0.0,0.0,0.0,0.0,0.0,0.0,0.0,0.00341896475686
1756813565444780000,516,1756813565444780000,map,8.33871351449,-5.30435125892,0.0,0.0,0.0,0.763201009956,0.646161139656,0.0130449511521,-0.00630797751157,0.0,0.0,0.0,0.0,-0.00630797751157,0.0517858461411,0.0,0.0,0.0,0.0,0.0,0.0,0.0,0.0,0.0,0.0,0.0,0.0,0.0,0.0,0.0,0.0,0.0,0.0,0.0,0.0,0.0,0.0,0.0,0.0,0.0,0.0,0.0,0.00301784764219
1756813566378305000,517,1756813566378305000,map,8.4179597495,-5.92991478571,0.0,0.0,0.0,0.760194933266,0.649695054188,0.0103169708484,-0.0067250770075,0.0,0.0,0.0,0.0,-0.0067250770075,0.0520267516626,0.0,0.0,0.0,0.0,0.0,0.0,0.0,0.0,0.0,0.0,0.0,0.0,0.0,0.0,0.0,0.0,0.0,0.0,0.0,0.0,0.0,0.0,0.0,0.0,0.0,0.0,0.0,0.00274096452482
1756813567244166000,518,1756813567244166000,map,8.49158236067,-6.4521603533,0.0,0.0,0.0,0.761598268151,0.648049440976,0.00890657810179,-0.00648795853569,0.0,0.0,0.0,0.0,-0.00648795853569,0.0530149193874,0.0,0.0,0.0,0.0,0.0,0.0,0.0,0.0,0.0,0.0,0.0,0.0,0.0,0.0,0.0,0.0,0.0,0.0,0.0,0.0,0.0,0.0,0.0,0.0,0.0,0.0,0.0,0.00293777842331
1756813568110814000,519,1756813568110814000,map,8.57729398844,-6.99442341349,0.0,0.0,0.0,0.754808043515,0.65594574276,0.00901747768697,-0.00562897566294,0.0,0.0,0.0,0.0,-0.00562897566294,0.0521252841273,0.0,0.0,0.0,0.0,0.0,0.0,0.0,0.0,0.0,0.0,0.0,0.0,0.0,0.0,0.0,0.0,0.0,0.0,0.0,0.0,0.0,0.0,0.0,0.0,0.0,0.0,0.0,0.00297796082624
1756813568777406000,520,1756813568777406000,map,8.64061312858,-7.41843479315,0.0,0.0,0.0,0.754130096462,0.656725054806,0.0104547422268,-0.00460618650189,0.0,0.0,0.0,0.0,-0.00460618650189,0.0511780389638,0.0,0.0,0.0,0.0,0.0,0.0,0.0,0.0,0.0,0.0,0.0,0.0,0.0,0.0,0.0,0.0,0.0,0.0,0.0,0.0,0.0,0.0,0.0,0.0,0.0,0.0,0.0,0.00312726141266
1756813569510686000,521,1756813569510686000,map,8.70697315697,-7.90666888386,0.0,0.0,0.0,0.752227852975,0.658903071178,0.0117701508247,-0.00410919135174,0.0,0.0,0.0,0.0,-0.00410919135174,0.0480667215995,0.0,0.0,0.0,0.0,0.0,0.0,0.0,0.0,0.0,0.0,0.0,0.0,0.0,0.0,0.0,0.0,0.0,0.0,0.0,0.0,0.0,0.0,0.0,0.0,0.0,0.0,0.0,0.00324869685993
1756813570777670000,522,1756813570777670000,map,8.81547431187,-8.69853361045,0.0,0.0,0.0,0.75668633282,0.65377809211,0.0176112467612,-0.00274235678418,0.0,0.0,0.0,0.0,-0.00274235678418,0.0491993536476,0.0,0.0,0.0,0.0,0.0,0.0,0.0,0.0,0.0,0.0,0.0,0.0,0.0,0.0,0.0,0.0,0.0,0.0,0.0,0.0,0.0,0.0,0.0,0.0,0.0,0.0,0.0,0.00729489979132
1756813572177211000,523,1756813572177211000,map,8.88907225517,-9.24292082741,0.0,0.0,0.0,0.721904857264,0.691992324422,0.0251939044998,-0.00156389654704,0.0,0.0,0.0,0.0,-0.00156389654704,0.0485496273011,0.0,0.0,0.0,0.0,0.0,0.0,0.0,0.0,0.0,0.0,0.0,0.0,0.0,0.0,0.0,0.0,0.0,0.0,0.0,0.0,0.0,0.0,0.0,0.0,0.0,0.0,0.0,0.00746887983445
1756813574044728000,524,1756813574044728000,map,8.76462061689,-9.8657265672,0.0,0.0,0.0,0.49894386287,0.86663430679,0.0421513912196,-0.00219208938488,0.0,0.0,0.0,0.0,-0.00219208938488,0.0487881781234,0.0,0.0,0.0,0.0,0.0,0.0,0.0,0.0,0.0,0.0,0.0,0.0,0.0,0.0,0.0,0.0,0.0,0.0,0.0,0.0,0.0,0.0,0.0,0.0,0.0,0.0,0.0,0.0124973988836
1756813576177719000,525,1756813576177719000,map,8.34659184331,-10.2350936005,0.0,0.0,0.0,0.160399155372,0.987052233145,0.0563555082829,-0.0126150343878,0.0,0.0,0.0,0.0,-0.0126150343878,0.0549841553882,0.0,0.0,0.0,0.0,0.0,0.0,0.0,0.0,0.0,0.0,0.0,0.0,0.0,0.0,0.0,0.0,0.0,0.0,0.0,0.0,0.0,0.0,0.0,0.0,0.0,0.0,0.0,0.0135044667771
1756813577445029000,526,1756813577445029000,map,7.79747970567,-10.091869033,0.0,0.0,0.0,-0.207208456829,0.978296813558,0.0558527169953,-0.0214162202439,0.0,0.0,0.0,0.0,-0.0214162202439,0.0682587036627,0.0,0.0,0.0,0.0,0.0,0.0,0.0,0.0,0.0,0.0,0.0,0.0,0.0,0.0,0.0,0.0,0.0,0.0,0.0,0.0,0.0,0.0,0.0,0.0,0.0,0.0,0.0,0.014982560115
1756813579844464000,527,1756813579844464000,map,7.18352639893,-9.10749008362,0.0,0.0,0.0,-0.742906935186,0.669394715884,0.147284150039,-0.0125068707391,0.0,0.0,0.0,0.0,-0.0125068707391,0.162180753502,0.0,0.0,0.0,0.0,0.0,0.0,0.0,0.0,0.0,0.0,0.0,0.0,0.0,0.0,0.0,0.0,0.0,0.0,0.0,0.0,0.0,0.0,0.0,0.0,0.0,0.0,0.0,0.148679452009
1756813580910768000,528,1756813580910768000,map,7.13542623484,-8.56043897641,0.0,0.0,0.0,-0.800862199562,0.598848676472,0.344954486183,0.0226349701405,0.0,0.0,0.0,0.0,0.0226349701405,0.161694232805,0.0,0.0,0.0,0.0,0.0,0.0,0.0,0.0,0.0,0.0,0.0,0.0,0.0,0.0,0.0,0.0,0.0,0.0,0.0,0.0,0.0,0.0,0.0,0.0,0.0,0.0,0.0,0.172124862517
1756813582110963000,529,1756813582110963000,map,6.85688502217,-8.05770549721,0.0,0.0,0.0,-0.716170095915,0.697925779519,0.60149815554,0.0152391968918,0.0,0.0,0.0,0.0,0.0152391968918,0.157640131792,0.0,0.0,0.0,0.0,0.0,0.0,0.0,0.0,0.0,0.0,0.0,0.0,0.0,0.0,0.0,0.0,0.0,0.0,0.0,0.0,0.0,0.0,0.0,0.0,0.0,0.0,0.0,0.162286985716
1756813583311719000,530,1756813583311719000,map,6.54465337849,-7.28744936735,0.0,0.0,0.0,-0.680471504908,0.732774543095,0.632976463651,-0.0270592810985,0.0,0.0,0.0,0.0,-0.0270592810985,0.156521044635,0.0,0.0,0.0,0.0,0.0,0.0,0.0,0.0,0.0,0.0,0.0,0.0,0.0,0.0,0.0,0.0,0.0,0.0,0.0,0.0,0.0,0.0,0.0,0.0,0.0,0.0,0.0,0.100228563176
1756813584445145000,531,1756813584445145000,map,6.10017474784,-6.69957534993,0.0,0.0,0.0,-0.64048838247,0.767967858651,0.376387093805,-0.037023915142,0.0,0.0,0.0,0.0,-0.037023915142,0.157494027836,0.0,0.0,0.0,0.0,0.0,0.0,0.0,0.0,0.0,0.0,0.0,0.0,0.0,0.0,0.0,0.0,0.0,0.0,0.0,0.0,0.0,0.0,0.0,0.0,0.0,0.0,0.0,0.0403059688138
1756813585578191000,532,1756813585578191000,map,6.00974896174,-6.06363867751,0.0,0.0,0.0,-0.649445167718,0.760408425865,0.122877094009,-0.0323255123044,0.0,0.0,0.0,0.0,-0.0323255123044,0.1623666674,0.0,0.0,0.0,0.0,0.0,0.0,0.0,0.0,0.0,0.0,0.0,0.0,0.0,0.0,0.0,0.0,0.0,0.0,0.0,0.0,0.0,0.0,0.0,0.0,0.0,0.0,0.0,0.0116541023096
1756813586711586000,533,1756813586711586000,map,5.89321798652,-5.31420574389,0.0,0.0,0.0,-0.650924184622,0.75914274407,0.0275773659374,-0.0244503323651,0.0,0.0,0.0,0.0,-0.0244503323651,0.158760603342,0.0,0.0,0.0,0.0,0.0,0.0,0.0,0.0,0.0,0.0,0.0,0.0,0.0,0.0,0.0,0.0,0.0,0.0,0.0,0.0,0.0,0.0,0.0,0.0,0.0,0.0,0.0,0.00421742216281
1756813587644291000,534,1756813587644291000,map,5.771144659,-4.75242136965,0.0,0.0,0.0,-0.631858888458,0.775083443944,0.0124109240043,-0.0231342917871,0.0,0.0,0.0,0.0,-0.0231342917871,0.157391434489,0.0,0.0,0.0,0.0,0.0,0.0,0.0,0.0,0.0,0.0,0.0,0.0,0.0,0.0,0.0,0.0,0.0,0.0,0.0,0.0,0.0,0.0,0.0,0.0,0.0,0.0,0.0,0.00269324741641
1756813588911489000,535,1756813588911489000,map,5.66235558791,-4.05274090837,0.0,0.0,0.0,-0.631929130454,0.775026176386,0.0138720966274,-0.0218527363879,0.0,0.0,0.0,0.0,-0.0218527363879,0.152461149079,0.0,0.0,0.0,0.0,0.0,0.0,0.0,0.0,0.0,0.0,0.0,0.0,0.0,0.0,0.0,0.0,0.0,0.0,0.0,0.0,0.0,0.0,0.0,0.0,0.0,0.0,0.0,0.00438047564138
1756813590177794000,536,1756813590177794000,map,5.51499924399,-3.29443804154,0.0,0.0,0.0,-0.62778206009,0.778389160401,0.0182102272472,-0.0199552735475,0.0,0.0,0.0,0.0,-0.0199552735475,0.155019010137,0.0,0.0,0.0,0.0,0.0,0.0,0.0,0.0,0.0,0.0,0.0,0.0,0.0,0.0,0.0,0.0,0.0,0.0,0.0,0.0,0.0,0.0,0.0,0.0,0.0,0.0,0.0,0.00694914289682
1756813591578165000,537,1756813591578165000,map,5.38816196693,-2.51646042401,0.0,0.0,0.0,-0.633202913902,0.773985833092,0.0185864988727,-0.0208172979441,0.0,0.0,0.0,0.0,-0.0208172979441,0.161500630454,0.0,0.0,0.0,0.0,0.0,0.0,0.0,0.0,0.0,0.0,0.0,0.0,0.0,0.0,0.0,0.0,0.0,0.0,0.0,0.0,0.0,0.0,0.0,0.0,0.0,0.0,0.0,0.00793042374315
1756813592577741000,538,1756813592577741000,map,5.29126904584,-1.88142946678,0.0,0.0,0.0,-0.628852015299,0.77752501108,0.0130116748521,-0.0224469608631,0.0,0.0,0.0,0.0,-0.0224469608631,0.162358773443,0.0,0.0,0.0,0.0,0.0,0.0,0.0,0.0,0.0,0.0,0.0,0.0,0.0,0.0,0.0,0.0,0.0,0.0,0.0,0.0,0.0,0.0,0.0,0.0,0.0,0.0,0.0,0.00367924836585
1756813593577604000,539,1756813593577604000,map,5.18817141963,-1.34736175139,0.0,0.0,0.0,-0.621515132422,0.783402157369,0.0106289158725,-0.0224061387001,0.0,0.0,0.0,0.0,-0.0224061387001,0.15852566384,0.0,0.0,0.0,0.0,0.0,0.0,0.0,0.0,0.0,0.0,0.0,0.0,0.0,0.0,0.0,0.0,0.0,0.0,0.0,0.0,0.0,0.0,0.0,0.0,0.0,0.0,0.0,0.00293585749336
1756813594511329000,540,1756813594511329000,map,5.08487509936,-0.771192051064,0.0,0.0,0.0,-0.632311236467,0.774714463681,0.00896637852187,-0.0233758763336,0.0,0.0,0.0,0.0,-0.0233758763336,0.155135124056,0.0,0.0,0.0,0.0,0.0,0.0,0.0,0.0,0.0,0.0,0.0,0.0,0.0,0.0,0.0,0.0,0.0,0.0,0.0,0.0,0.0,0.0,0.0,0.0,0.0,0.0,0.0,0.00244076123426
1756813595911382000,541,1756813595911382000,map,4.91215672517,0.163778436924,0.0,0.0,0.0,-0.639129324204,0.76909928289,0.0117811688154,-0.0241006110668,0.0,0.0,0.0,0.0,-0.0241006110668,0.163407465775,0.0,0.0,0.0,0.0,0.0,0.0,0.0,0.0,0.0,0.0,0.0,0.0,0.0,0.0,0.0,0.0,0.0,0.0,0.0,0.0,0.0,0.0,0.0,0.0,0.0,0.0,0.0,0.00673176728377
1756813597177610000,542,1756813597177610000,map,4.81204651053,0.926955407393,0.0,0.0,0.0,-0.648882405531,0.760888706574,0.0173102007593,-0.0233817139039,0.0,0.0,0.0,0.0,-0.0233817139039,0.1701942735,0.0,0.0,0.0,0.0,0.0,0.0,0.0,0.0,0.0,0.0,0.0,0.0,0.0,0.0,0.0,0.0,0.0,0.0,0.0,0.0,0.0,0.0,0.0,0.0,0.0,0.0,0.0,0.00746376587627
1756813599445115000,543,1756813599445115000,map,4.62468817079,2.30644585838,0.0,0.0,0.0,-0.647706299172,0.761890116758,0.0591500806411,-0.0208941076699,0.0,0.0,0.0,0.0,-0.0208941076699,0.190044853671,0.0,0.0,0.0,0.0,0.0,0.0,0.0,0.0,0.0,0.0,0.0,0.0,0.0,0.0,0.0,0.0,0.0,0.0,0.0,0.0,0.0,0.0,0.0,0.0,0.0,0.0,0.0,0.0367988000311
1756813600710952000,544,1756813600710952000,map,4.54805983428,3.0400903592,0.0,0.0,0.0,-0.645943478634,0.763385238533,0.0714377895622,-0.0182862093479,0.0,0.0,0.0,0.0,-0.0182862093479,0.18689438848,0.0,0.0,0.0,0.0,0.0,0.0,0.0,0.0,0.0,0.0,0.0,0.0,0.0,0.0,0.0,0.0,0.0,0.0,0.0,0.0,0.0,0.0,0.0,0.0,0.0,0.0,0.0,0.0214168753483
1756813601711655000,545,1756813601711655000,map,4.45839449188,3.67854315549,0.0,0.0,0.0,-0.647709273716,0.761887587996,0.0527330346712,-0.0177071991067,0.0,0.0,0.0,0.0,-0.0177071991067,0.175723829685,0.0,0.0,0.0,0.0,0.0,0.0,0.0,0.0,0.0,0.0,0.0,0.0,0.0,0.0,0.0,0.0,0.0,0.0,0.0,0.0,0.0,0.0,0.0,0.0,0.0,0.0,0.0,0.0103302777683
1756813602644645000,546,1756813602644645000,map,4.40975846472,4.33033107313,0.0,0.0,0.0,-0.655323612037,0.755348239891,0.023232018169,-0.0218144961864,0.0,0.0,0.0,0.0,-0.0218144961864,0.159464767499,0.0,0.0,0.0,0.0,0.0,0.0,0.0,0.0,0.0,0.0,0.0,0.0,0.0,0.0,0.0,0.0,0.0,0.0,0.0,0.0,0.0,0.0,0.0,0.0,0.0,0.0,0.0,0.004664974475
1756813603644097000,547,1756813603644097000,map,4.34795542357,4.7507130255,0.0,0.0,0.0,-0.640879568052,0.76764143925,0.0116235475191,-0.0211662152467,0.0,0.0,0.0,0.0,-0.0211662152467,0.154140879803,0.0,0.0,0.0,0.0,0.0,0.0,0.0,0.0,0.0,0.0,0.0,0.0,0.0,0.0,0.0,0.0,0.0,0.0,0.0,0.0,0.0,0.0,0.0,0.0,0.0,0.0,0.0,0.00335148475317
1756813604711225000,548,1756813604711225000,map,4.24500525101,5.36915355585,0.0,0.0,0.0,-0.635612872035,0.772007951321,0.0119956181389,-0.0188090200047,0.0,0.0,0.0,0.0,-0.0188090200047,0.143311459335,0.0,0.0,0.0,0.0,0.0,0.0,0.0,0.0,0.0,0.0,0.0,0.0,0.0,0.0,0.0,0.0,0.0,0.0,0.0,0.0,0.0,0.0,0.0,0.0,0.0,0.0,0.0,0.00306181173327
1756813605844106000,549,1756813605844106000,map,4.1304847389,6.02676485731,0.0,0.0,0.0,-0.632063178747,0.774916858813,0.0135872212261,-0.0169472661454,0.0,0.0,0.0,0.0,-0.0169472661454,0.137678786125,0.0,0.0,0.0,0.0,0.0,0.0,0.0,0.0,0.0,0.0,0.0,0.0,0.0,0.0,0.0,0.0,0.0,0.0,0.0,0.0,0.0,0.0,0.0,0.0,0.0,0.0,0.0,0.00374966169125
1756813606977460000,550,1756813606977460000,map,4.02655799323,6.65707356791,0.0,0.0,0.0,-0.634802647254,0.77267431628,0.0151484459087,-0.0152172358438,0.0,0.0,0.0,0.0,-0.0152172358438,0.136899931597,0.0,0.0,0.0,0.0,0.0,0.0,0.0,0.0,0.0,0.0,0.0,0.0,0.0,0.0,0.0,0.0,0.0,0.0,0.0,0.0,0.0,0.0,0.0,0.0,0.0,0.0,0.0,0.00481552730319
1756813608044722000,551,1756813608044722000,map,3.95141901748,7.22139602283,0.0,0.0,0.0,-0.622640477708,0.782508041824,0.0114827626789,-0.0172554215553,0.0,0.0,0.0,0.0,-0.0172554215553,0.132905819755,0.0,0.0,0.0,0.0,0.0,0.0,0.0,0.0,0.0,0.0,0.0,0.0,0.0,0.0,0.0,0.0,0.0,0.0,0.0,0.0,0.0,0.0,0.0,0.0,0.0,0.0,0.0,0.00328148224576
1756813609110867000,552,1756813609110867000,map,3.82018602568,7.82796976098,0.0,0.0,0.0,-0.625388232402,0.780313756622,0.0117439305307,-0.0176334846657,0.0,0.0,0.0,0.0,-0.0176334846657,0.129514126751,0.0,0.0,0.0,0.0,0.0,0.0,0.0,0.0,0.0,0.0,0.0,0.0,0.0,0.0,0.0,0.0,0.0,0.0,0.0,0.0,0.0,0.0,0.0,0.0,0.0,0.0,0.0,0.00371402872823
1756813610577751000,553,1756813610577751000,map,3.68667883486,8.57302613323,0.0,0.0,0.0,-0.624172657546,0.781286435037,0.0169753819072,-0.0188411493712,0.0,0.0,0.0,0.0,-0.0188411493712,0.133860660683,0.0,0.0,0.0,0.0,0.0,0.0,0.0,0.0,0.0,0.0,0.0,0.0,0.0,0.0,0.0,0.0,0.0,0.0,0.0,0.0,0.0,0.0,0.0,0.0,0.0,0.0,0.0,0.00697666676357
1756813612311323000,554,1756813612311323000,map,3.47091863205,9.52962532264,0.0,0.0,0.0,-0.61873149095,0.785602534432,0.0273126393917,-0.0190230048069,0.0,0.0,0.0,0.0,-0.0190230048069,0.123948129685,0.0,0.0,0.0,0.0,0.0,0.0,0.0,0.0,0.0,0.0,0.0,0.0,0.0,0.0,0.0,0.0,0.0,0.0,0.0,0.0,0.0,0.0,0.0,0.0,0.0,0.0,0.0,0.0150554301659
1756813613110723000,555,1756813613110723000,map,3.37007586942,9.8927863881,0.0,0.0,0.0,-0.613516839112,0.789681637197,0.0329113142593,-0.0178520089378,0.0,0.0,0.0,0.0,-0.0178520089378,0.120365752306,0.0,0.0,0.0,0.0,0.0,0.0,0.0,0.0,0.0,0.0,0.0,0.0,0.0,0.0,0.0,0.0,0.0,0.0,0.0,0.0,0.0,0.0,0.0,0.0,0.0,0.0,0.0,0.0119261178152
1756813613911300000,556,1756813613911300000,map,3.27536355049,10.2411189444,0.0,0.0,0.0,-0.605942076964,0.795508767623,0.0432967187586,-0.0191666558904,0.0,0.0,0.0,0.0,-0.0191666558904,0.112238178711,0.0,0.0,0.0,0.0,0.0,0.0,0.0,0.0,0.0,0.0,0.0,0.0,0.0,0.0,0.0,0.0,0.0,0.0,0.0,0.0,0.0,0.0,0.0,0.0,0.0,0.0,0.0,0.0114673456035
1756813614978159000,557,1756813614978159000,map,3.20642237025,10.7078524619,0.0,0.0,0.0,-0.609388542634,0.792871745055,0.0400065252046,-0.0120564323755,0.0,0.0,0.0,0.0,-0.0120564323756,0.072144535065,0.0,0.0,0.0,0.0,0.0,0.0,0.0,0.0,0.0,0.0,0.0,0.0,0.0,0.0,0.0,0.0,0.0,0.0,0.0,0.0,0.0,0.0,0.0,0.0,0.0,0.0,0.0,0.00990149221086
1756813615911271000,558,1756813615911271000,map,3.02142375692,11.1656314442,0.0,0.0,0.0,-0.535792752363,0.84434952864,0.0457749699809,-0.0060478236654,0.0,0.0,0.0,0.0,-0.00604782366539,0.0617689429167,0.0,0.0,0.0,0.0,0.0,0.0,0.0,0.0,0.0,0.0,0.0,0.0,0.0,0.0,0.0,0.0,0.0,0.0,0.0,0.0,0.0,0.0,0.0,0.0,0.0,0.0,0.0,0.00912167867114
1756813617044618000,559,1756813617044618000,map,2.78245715745,11.6670704405,0.0,0.0,0.0,-0.427040956701,0.904232282823,0.0523030575594,-0.00112268441745,0.0,0.0,0.0,0.0,-0.00112268441745,0.053845246435,0.0,0.0,0.0,0.0,0.0,0.0,0.0,0.0,0.0,0.0,0.0,0.0,0.0,0.0,0.0,0.0,0.0,0.0,0.0,0.0,0.0,0.0,0.0,0.0,0.0,0.0,0.0,0.00939063778313
1756813618044022000,560,1756813618044022000,map,2.3700884919,12.0057332967,0.0,0.0,0.0,-0.23082122492,0.972996177858,0.0704316297298,0.00892544638736,0.0,0.0,0.0,0.0,0.00892544638736,0.0551201911072,0.0,0.0,0.0,0.0,0.0,0.0,0.0,0.0,0.0,0.0,0.0,0.0,0.0,0.0,0.0,0.0,0.0,0.0,0.0,0.0,0.0,0.0,0.0,0.0,0.0,0.0,0.0,0.0123135418484
1756813619311066000,561,1756813619311066000,map,1.70011367766,12.107311319,0.0,0.0,0.0,0.115258610114,0.993335518742,0.0771192459239,0.0248577026254,0.0,0.0,0.0,0.0,0.0248577026254,0.0711488313349,0.0,0.0,0.0,0.0,0.0,0.0,0.0,0.0,0.0,0.0,0.0,0.0,0.0,0.0,0.0,0.0,0.0,0.0,0.0,0.0,0.0,0.0,0.0,0.0,0.0,0.0,0.0,0.0212475686964
1756813622244406000,562,1756813622244406000,map,1.05807222536,10.9067622235,0.0,0.0,0.0,0.848208786248,0.529662019529,0.323383069129,-0.000181333410756,0.0,0.0,0.0,0.0,-0.000181333410755,0.2831045393,0.0,0.0,0.0,0.0,0.0,0.0,0.0,0.0,0.0,0.0,0.0,0.0,0.0,0.0,0.0,0.0,0.0,0.0,0.0,0.0,0.0,0.0,0.0,0.0,0.0,0.0,0.0,0.297129150303
1756813623243853000,563,1756813623243853000,map,1.20448751078,10.4470328733,0.0,0.0,0.0,0.878087233615,0.478500585331,0.461555738008,0.0412772145694,0.0,0.0,0.0,0.0,0.0412772145694,0.277857343934,0.0,0.0,0.0,0.0,0.0,0.0,0.0,0.0,0.0,0.0,0.0,0.0,0.0,0.0,0.0,0.0,0.0,0.0,0.0,0.0,0.0,0.0,0.0,0.0,0.0,0.0,0.0,0.273703916247
1756813624510597000,564,1756813624510597000,map,1.29459909004,9.86404112426,0.0,0.0,0.0,0.855798624626,0.517309108839,0.615243468528,0.155312947727,0.0,0.0,0.0,0.0,0.155312947727,0.324600832942,0.0,0.0,0.0,0.0,0.0,0.0,0.0,0.0,0.0,0.0,0.0,0.0,0.0,0.0,0.0,0.0,0.0,0.0,0.0,0.0,0.0,0.0,0.0,0.0,0.0,0.0,0.0,0.221128517536
1756813625443968000,565,1756813625443968000,map,1.29954144773,9.33390442507,0.0,0.0,0.0,0.831536819067,0.555469637817,0.509460994882,0.160900338478,0.0,0.0,0.0,0.0,0.160900338478,0.330955058495,0.0,0.0,0.0,0.0,0.0,0.0,0.0,0.0,0.0,0.0,0.0,0.0,0.0,0.0,0.0,0.0,0.0,0.0,0.0,0.0,0.0,0.0,0.0,0.0,0.0,0.0,0.0,0.133740183462
1756813626244639000,566,1756813626244639000,map,1.16493485422,8.8198657714,0.0,0.0,0.0,0.780531954826,0.625115883253,0.166787417117,0.0411234223494,0.0,0.0,0.0,0.0,0.0411234223494,0.250444780231,0.0,0.0,0.0,0.0,0.0,0.0,0.0,0.0,0.0,0.0,0.0,0.0,0.0,0.0,0.0,0.0,0.0,0.0,0.0,0.0,0.0,0.0,0.0,0.0,0.0,0.0,0.0,0.0387717488972
1756813627177966000,567,1756813627177966000,map,1.29236714713,8.27059263717,0.0,0.0,0.0,0.780207401309,0.625520911674,0.0868086811779,0.00766316503154,0.0,0.0,0.0,0.0,0.00766316503154,0.232246458281,0.0,0.0,0.0,0.0,0.0,0.0,0.0,0.0,0.0,0.0,0.0,0.0,0.0,0.0,0.0,0.0,0.0,0.0,0.0,0.0,0.0,0.0,0.0,0.0,0.0,0.0,0.0,0.0165523304151
1756813628044505000,568,1756813628044505000,map,1.39349098144,7.77594706817,0.0,0.0,0.0,0.781096913767,0.624409810384,0.0327747156067,-0.0208865371298,0.0,0.0,0.0,0.0,-0.0208865371298,0.206879115587,0.0,0.0,0.0,0.0,0.0,0.0,0.0,0.0,0.0,0.0,0.0,0.0,0.0,0.0,0.0,0.0,0.0,0.0,0.0,0.0,0.0,0.0,0.0,0.0,0.0,0.0,0.0,0.00602979927813
1756813629043885000,569,1756813629043885000,map,1.56680440742,6.88085018076,0.0,0.0,0.0,0.77778638157,0.628528714256,0.023486026686,-0.0268668043235,0.0,0.0,0.0,0.0,-0.0268668043235,0.20526013438,0.0,0.0,0.0,0.0,0.0,0.0,0.0,0.0,0.0,0.0,0.0,0.0,0.0,0.0,0.0,0.0,0.0,0.0,0.0,0.0,0.0,0.0,0.0,0.0,0.0,0.0,0.0,0.00541145818956
1756813630111078000,570,1756813630111078000,map,1.69520774601,6.38428903274,0.0,0.0,0.0,0.784207038242,0.620499251547,0.0165695463629,-0.0314851714999,0.0,0.0,0.0,0.0,-0.0314851714999,0.205133480404,0.0,0.0,0.0,0.0,0.0,0.0,0.0,0.0,0.0,0.0,0.0,0.0,0.0,0.0,0.0,0.0,0.0,0.0,0.0,0.0,0.0,0.0,0.0,0.0,0.0,0.0,0.0,0.00569209508882
1756813631110323000,571,1756813631110323000,map,1.8095379501,5.6983459556,0.0,0.0,0.0,0.775530875,0.631309640288,0.0146652460183,-0.0318176997183,0.0,0.0,0.0,0.0,-0.0318176997183,0.206531185303,0.0,0.0,0.0,0.0,0.0,0.0,0.0,0.0,0.0,0.0,0.0,0.0,0.0,0.0,0.0,0.0,0.0,0.0,0.0,0.0,0.0,0.0,0.0,0.0,0.0,0.0,0.0,0.00377135015793
1756813632311005000,572,1756813632311005000,map,1.9389528294,4.9784797342,0.0,0.0,0.0,0.770405135195,0.637554646807,0.0153704484441,-0.0290867643879,0.0,0.0,0.0,0.0,-0.0290867643879,0.197565481442,0.0,0.0,0.0,0.0,0.0,0.0,0.0,0.0,0.0,0.0,0.0,0.0,0.0,0.0,0.0,0.0,0.0,0.0,0.0,0.0,0.0,0.0,0.0,0.0,0.0,0.0,0.0,0.00442042386143
1756813632977912000,573,1756813632977912000,map,2.00817427089,4.52811858805,0.0,0.0,0.0,0.759810799323,0.650144252633,0.0137601606472,-0.0284662562842,0.0,0.0,0.0,0.0,-0.0284662562842,0.195288983818,0.0,0.0,0.0,0.0,0.0,0.0,0.0,0.0,0.0,0.0,0.0,0.0,0.0,0.0,0.0,0.0,0.0,0.0,0.0,0.0,0.0,0.0,0.0,0.0,0.0,0.0,0.0,0.00296925584683
1756813633844103000,574,1756813633844103000,map,2.07744388949,3.91888071588,0.0,0.0,0.0,0.757273177223,0.653098258349,0.0117185104761,-0.0291930510815,0.0,0.0,0.0,0.0,-0.0291930510815,0.199121876115,0.0,0.0,0.0,0.0,0.0,0.0,0.0,0.0,0.0,0.0,0.0,0.0,0.0,0.0,0.0,0.0,0.0,0.0,0.0,0.0,0.0,0.0,0.0,0.0,0.0,0.0,0.0,0.00290435263923
1756813634710556000,575,1756813634710556000,map,2.12638530873,3.4675676009,0.0,0.0,0.0,0.748620112233,0.662999191221,0.0120462462082,-0.0298731689284,0.0,0.0,0.0,0.0,-0.0298731689284,0.202721594147,0.0,0.0,0.0,0.0,0.0,0.0,0.0,0.0,0.0,0.0,0.0,0.0,0.0,0.0,0.0,0.0,0.0,0.0,0.0,0.0,0.0,0.0,0.0,0.0,0.0,0.0,0.0,0.0025165085919
1756813635377524000,576,1756813635377524000,map,2.17103096832,3.0274465371,0.0,0.0,0.0,0.74688837148,0.664949442099,0.0119551221722,-0.0287443015793,0.0,0.0,0.0,0.0,-0.0287443015793,0.198150643295,0.0,0.0,0.0,0.0,0.0,0.0,0.0,0.0,0.0,0.0,0.0,0.0,0.0,0.0,0.0,0.0,0.0,0.0,0.0,0.0,0.0,0.0,0.0,0.0,0.0,0.0,0.0,0.00244668889758
1756813636377976000,577,1756813636377976000,map,2.22985226186,2.45007934646,0.0,0.0,0.0,0.749810589669,0.661652536926,0.0129013022606,-0.0301915012717,0.0,0.0,0.0,0.0,-0.0301915012717,0.204591375858,0.0,0.0,0.0,0.0,0.0,0.0,0.0,0.0,0.0,0.0,0.0,0.0,0.0,0.0,0.0,0.0,0.0,0.0,0.0,0.0,0.0,0.0,0.0,0.0,0.0,0.0,0.0,0.00306121549396
1756813637044486000,578,1756813637044486000,map,2.25043473081,1.92015549171,0.0,0.0,0.0,0.745707697867,0.666273239251,0.0120135362055,-0.0299822581425,0.0,0.0,0.0,0.0,-0.0299822581425,0.196375375623,0.0,0.0,0.0,0.0,0.0,0.0,0.0,0.0,0.0,0.0,0.0,0.0,0.0,0.0,0.0,0.0,0.0,0.0,0.0,0.0,0.0,0.0,0.0,0.0,0.0,0.0,0.0,0.0024472104277
1756813637977678000,579,1756813637977678000,map,2.31312889222,1.37945911007,0.0,0.0,0.0,0.750297226715,0.661100651629,0.0121067841368,-0.0301437581548,0.0,0.0,0.0,0.0,-0.0301437581548,0.195490775927,0.0,0.0,0.0,0.0,0.0,0.0,0.0,0.0,0.0,0.0,0.0,0.0,0.0,0.0,0.0,0.0,0.0,0.0,0.0,0.0,0.0,0.0,0.0,0.0,0.0,0.0,0.0,0.00253944682845
1756813638977146000,580,1756813638977146000,map,2.38253186902,0.738759611709,0.0,0.0,0.0,0.751555012089,0.659670420592,0.0116992106956,-0.0278914702812,0.0,0.0,0.0,0.0,-0.0278914702812,0.183895144173,0.0,0.0,0.0,0.0,0.0,0.0,0.0,0.0,0.0,0.0,0.0,0.0,0.0,0.0,0.0,0.0,0.0,0.0,0.0,0.0,0.0,0.0,0.0,0.0,0.0,0.0,0.0,0.00301245335087
1756813639977680000,581,1756813639977680000,map,2.45730509238,0.0526850099927,0.0,0.0,0.0,0.751097923946,0.660190812299,0.0103801292553,-0.0255076205237,0.0,0.0,0.0,0.0,-0.0255076205237,0.172726494942,0.0,0.0,0.0,0.0,0.0,0.0,0.0,0.0,0.0,0.0,0.0,0.0,0.0,0.0,0.0,0.0,0.0,0.0,0.0,0.0,0.0,0.0,0.0,0.0,0.0,0.0,0.0,0.00294922373007
1756813641043834000,582,1756813641043834000,map,2.54337468486,-0.662348535611,0.0,0.0,0.0,0.752126933641,0.659018266584,0.0119746405228,-0.0259846698772,0.0,0.0,0.0,0.0,-0.0259846698772,0.177926049525,0.0,0.0,0.0,0.0,0.0,0.0,0.0,0.0,0.0,0.0,0.0,0.0,0.0,0.0,0.0,0.0,0.0,0.0,0.0,0.0,0.0,0.0,0.0,0.0,0.0,0.0,0.0,0.00392193785412
1756813641978026000,583,1756813641978026000,map,2.6157601444,-1.2629877384,0.0,0.0,0.0,0.758813607637,0.651307844929,0.0119242065417,-0.0256527080664,0.0,0.0,0.0,0.0,-0.0256527080664,0.179203745358,0.0,0.0,0.0,0.0,0.0,0.0,0.0,0.0,0.0,0.0,0.0,0.0,0.0,0.0,0.0,0.0,0.0,0.0,0.0,0.0,0.0,0.0,0.0,0.0,0.0,0.0,0.0,0.00373999959753
1756813642911044000,584,1756813642911044000,map,2.65189186749,-1.78079982102,0.0,0.0,0.0,0.759506084327,0.65050019821,0.0101063494426,-0.0255270480114,0.0,0.0,0.0,0.0,-0.0255270480114,0.181908643713,0.0,0.0,0.0,0.0,0.0,0.0,0.0,0.0,0.0,0.0,0.0,0.0,0.0,0.0,0.0,0.0,0.0,0.0,0.0,0.0,0.0,0.0,0.0,0.0,0.0,0.0,0.0,0.00311540259452
1756813644044392000,585,1756813644044392000,map,2.75738528302,-2.48711569223,0.0,0.0,0.0,0.762947375393,0.646460596155,0.0119173692991,-0.0248541461966,0.0,0.0,0.0,0.0,-0.0248541461966,0.182633661613,0.0,0.0,0.0,0.0,0.0,0.0,0.0,0.0,0.0,0.0,0.0,0.0,0.0,0.0,0.0,0.0,0.0,0.0,0.0,0.0,0.0,0.0,0.0,0.0,0.0,0.0,0.0,0.0045993453494
1756813645243600000,586,1756813645243600000,map,2.82796164505,-3.19006775752,0.0,0.0,0.0,0.760267419217,0.649610230274,0.0167066798936,-0.0245935921326,0.0,0.0,0.0,0.0,-0.0245935921326,0.180241006477,0.0,0.0,0.0,0.0,0.0,0.0,0.0,0.0,0.0,0.0,0.0,0.0,0.0,0.0,0.0,0.0,0.0,0.0,0.0,0.0,0.0,0.0,0.0,0.0,0.0,0.0,0.0,0.00629253586746
1756813646310962000,587,1756813646310962000,map,2.85816935139,-3.83791601009,0.0,0.0,0.0,0.759085872433,0.650990505517,0.0181978570159,-0.0254955962002,0.0,0.0,0.0,0.0,-0.0254955962002,0.1904245113,0.0,0.0,0.0,0.0,0.0,0.0,0.0,0.0,0.0,0.0,0.0,0.0,0.0,0.0,0.0,0.0,0.0,0.0,0.0,0.0,0.0,0.0,0.0,0.0,0.0,0.0,0.0,0.00518649178798
1756813647043676000,588,1756813647043676000,map,2.89148632036,-4.30923502948,0.0,0.0,0.0,0.778102481494,0.62813734827,0.0129387694327,-0.0262199011953,0.0,0.0,0.0,0.0,-0.0262199011953,0.193500685267,0.0,0.0,0.0,0.0,0.0,0.0,0.0,0.0,0.0,0.0,0.0,0.0,0.0,0.0,0.0,0.0,0.0,0.0,0.0,0.0,0.0,0.0,0.0,0.0,0.0,0.0,0.0,0.0033171738435
1756813648044214000,589,1756813648044214000,map,2.99180119205,-4.9619847117,0.0,0.0,0.0,0.776902674382,0.629620706885,0.0137405237406,-0.0287749004212,0.0,0.0,0.0,0.0,-0.0287749004212,0.204264617419,0.0,0.0,0.0,0.0,0.0,0.0,0.0,0.0,0.0,0.0,0.0,0.0,0.0,0.0,0.0,0.0,0.0,0.0,0.0,0.0,0.0,0.0,0.0,0.0,0.0,0.0,0.0,0.00376410615259
1756813648977682000,590,1756813648977682000,map,3.0781798985,-5.5531932108,0.0,0.0,0.0,0.776426033004,0.630208390355,0.0152984516272,-0.0311713715658,0.0,0.0,0.0,0.0,-0.0311713715658,0.195521035975,0.0,0.0,0.0,0.0,0.0,0.0,0.0,0.0,0.0,0.0,0.0,0.0,0.0,0.0,0.0,0.0,0.0,0.0,0.0,0.0,0.0,0.0,0.0,0.0,0.0,0.0,0.0,0.00374250994348
1756813649910970000,591,1756813649910970000,map,3.1581057806,-6.10687463346,0.0,0.0,0.0,0.77613496011,0.630566827303,0.0145656109131,-0.0275424475163,0.0,0.0,0.0,0.0,-0.0275424475163,0.176660728802,0.0,0.0,0.0,0.0,0.0,0.0,0.0,0.0,0.0,0.0,0.0,0.0,0.0,0.0,0.0,0.0,0.0,0.0,0.0,0.0,0.0,0.0,0.0,0.0,0.0,0.0,0.0,0.00335438660431
