%time,field.header.seq,field.header.stamp,field.header.frame_id,field.pose.pose.position.x,field.pose.pose.position.y,field.pose.pose.position.z,field.pose.pose.orientation.x,field.pose.pose.orientation.y,field.pose.pose.orientation.z,field.pose.pose.orientation.w,field.pose.covariance0,field.pose.covariance1,field.pose.covariance2,field.pose.covariance3,field.pose.covariance4,field.pose.covariance5,field.pose.covariance6,field.pose.covariance7,field.pose.covariance8,field.pose.covariance9,field.pose.covariance10,field.pose.covariance11,field.pose.covariance12,field.pose.covariance13,field.pose.covariance14,field.pose.covariance15,field.pose.covariance16,field.pose.covariance17,field.pose.covariance18,field.pose.covariance19,field.pose.covariance20,field.pose.covariance21,field.pose.covariance22,field.pose.covariance23,field.pose.covariance24,field.pose.covariance25,field.pose.covariance26,field.pose.covariance27,field.pose.covariance28,field.pose.covariance29,field.pose.covariance30,field.pose.covariance31,field.pose.covariance32,field.pose.covariance33,field.pose.covariance34,field.pose.covariance35
1756812887581191000,0,1756812887581191000,map,5.82732028184,10.938856219,0.0,0.0,0.0,-0.597882065563,0.801584078983,0.0163814182408,0.000272749113854,0.0,0.0,0.0,0.0,0.000272749113854,0.0751441083244,0.0,0.0,0.0,0.0,0.0,0.0,0.0,0.0,0.0,0.0,0.0,0.0,0.0,0.0,0.0,0.0,0.0,0.0,0.0,0.0,0.0,0.0,0.0,0.0,0.0,0.0,0.0,0.00477719433642
1756812903847581000,1,1756812903847581000,map,-11.0833780677,-12.2136096988,0.0,0.0,0.0,-0.690608206847,0.723229081713,0.247658505789,0.000359969451068,0.0,0.0,0.0,0.0,0.000359969451068,0.242900989264,0.0,0.0,0.0,0.0,0.0,0.0,0.0,0.0,0.0,0.0,0.0,0.0,0.0,0.0,0.0,0.0,0.0,0.0,0.0,0.0,0.0,0.0,0.0,0.0,0.0,0.0,0.0,0.0671656724325
1756812926181059000,2,1756812926181059000,map,-11.0478324107,-11.84283369,0.0,0.0,0.0,-0.689979403747,0.723829000804,0.201467352336,0.00226644560104,0.0,0.0,0.0,0.0,0.00226644560104,0.241252157832,0.0,0.0,0.0,0.0,0.0,0.0,0.0,0.0,0.0,0.0,0.0,0.0,0.0,0.0,0.0,0.0,0.0,0.0,0.0,0.0,0.0,0.0,0.0,0.0,0.0,0.0,0.0,0.054338037777
1756812927247646000,3,1756812927247646000,map,-11.044205315,-11.2318284485,0.0,0.0,0.0,-0.676391128033,0.73654262736,0.0988187723078,-0.00553913106475,0.0,0.0,0.0,0.0,-0.00553913106474,0.223499900966,0.0,0.0,0.0,0.0,0.0,0.0,0.0,0.0,0.0,0.0,0.0,0.0,0.0,0.0,0.0,0.0,0.0,0.0,0.0,0.0,0.0,0.0,0.0,0.0,0.0,0.0,0.0,0.0247752101341
1756812928449652000,4,1756812928449652000,map,-11.1030726978,-10.6010794274,0.0,0.0,0.0,-0.669449766223,0.742857328498,0.0465117658269,-0.0164000537915,0.0,0.0,0.0,0.0,-0.0164000537915,0.208100989879,0.0,0.0,0.0,0.0,0.0,0.0,0.0,0.0,0.0,0.0,0.0,0.0,0.0,0.0,0.0,0.0,0.0,0.0,0.0,0.0,0.0,0.0,0.0,0.0,0.0,0.0,0.0,0.0127482629761
1756812929449145000,5,1756812929449145000,map,-11.1452038104,-10.0151011968,0.0,0.0,0.0,-0.668908271161,0.743344956781,0.0176182322741,-0.0210251409557,0.0,0.0,0.0,0.0,-0.0210251409557,0.209738097067,0.0,0.0,0.0,0.0,0.0,0.0,0.0,0.0,0.0,0.0,0.0,0.0,0.0,0.0,0.0,0.0,0.0,0.0,0.0,0.0,0.0,0.0,0.0,0.0,0.0,0.0,0.0,0.00842910819396
1756812930380506000,6,1756812930380506000,map,-11.2206446159,-9.44984699678,0.0,0.0,0.0,-0.658197133492,0.752845623925,0.0101969260864,-0.0250025710251,0.0,0.0,0.0,0.0,-0.0250025710251,0.201868395498,0.0,0.0,0.0,0.0,0.0,0.0,0.0,0.0,0.0,0.0,0.0,0.0,0.0,0.0,0.0,0.0,0.0,0.0,0.0,0.0,0.0,0.0,0.0,0.0,0.0,0.0,0.0,0.00730364576487
1756812931314219000,7,1756812931314219000,map,-11.3232418674,-8.75517584091,0.0,0.0,0.0,-0.655447138512,0.755241053318,0.00987455575168,-0.0257629070894,0.0,0.0,0.0,0.0,-0.0257629070894,0.192510036342,0.0,0.0,0.0,0.0,0.0,0.0,0.0,0.0,0.0,0.0,0.0,0.0,0.0,0.0,0.0,0.0,0.0,0.0,0.0,0.0,0.0,0.0,0.0,0.0,0.0,0.0,0.0,0.00506727776951
1756812932247948000,8,1756812932247948000,map,-11.4164982502,-8.09051386455,0.0,0.0,0.0,-0.649956542119,0.759971376669,0.0124429007239,-0.025245119998,0.0,0.0,0.0,0.0,-0.025245119998,0.171382033471,0.0,0.0,0.0,0.0,0.0,0.0,0.0,0.0,0.0,0.0,0.0,0.0,0.0,0.0,0.0,0.0,0.0,0.0,0.0,0.0,0.0,0.0,0.0,0.0,0.0,0.0,0.0,0.00508372978065
1756812933181031000,9,1756812933181031000,map,-11.5299771477,-7.48888585461,0.0,0.0,0.0,-0.645473618649,0.763782565675,0.0140166935711,-0.0257799489292,0.0,0.0,0.0,0.0,-0.0257799489292,0.170159817259,0.0,0.0,0.0,0.0,0.0,0.0,0.0,0.0,0.0,0.0,0.0,0.0,0.0,0.0,0.0,0.0,0.0,0.0,0.0,0.0,0.0,0.0,0.0,0.0,0.0,0.0,0.0,0.00412708279946
1756812934113765000,10,1756812934113765000,map,-11.6407067877,-6.9086195778,0.0,0.0,0.0,-0.634303220523,0.773084357903,0.0131148014939,-0.023740319619,0.0,0.0,0.0,0.0,-0.023740319619,0.158639469896,0.0,0.0,0.0,0.0,0.0,0.0,0.0,0.0,0.0,0.0,0.0,0.0,0.0,0.0,0.0,0.0,0.0,0.0,0.0,0.0,0.0,0.0,0.0,0.0,0.0,0.0,0.0,0.00308982217438
1756812934914393000,11,1756812934914393000,map,-11.7271966213,-6.40154113222,0.0,0.0,0.0,-0.634531533937,0.772896974014,0.0129202730479,-0.0250085004787,0.0,0.0,0.0,0.0,-0.0250085004787,0.162797174936,0.0,0.0,0.0,0.0,0.0,0.0,0.0,0.0,0.0,0.0,0.0,0.0,0.0,0.0,0.0,0.0,0.0,0.0,0.0,0.0,0.0,0.0,0.0,0.0,0.0,0.0,0.0,0.00299465972634
1756812935713890000,12,1756812935713890000,map,-11.7928020548,-5.96150789763,0.0,0.0,0.0,-0.638805536893,0.769368238254,0.0111671900735,-0.0243927090841,0.0,0.0,0.0,0.0,-0.0243927090841,0.161525125331,0.0,0.0,0.0,0.0,0.0,0.0,0.0,0.0,0.0,0.0,0.0,0.0,0.0,0.0,0.0,0.0,0.0,0.0,0.0,0.0,0.0,0.0,0.0,0.0,0.0,0.0,0.0,0.00238264636708
1756812936514324000,13,1756812936514324000,map,-11.9008491347,-5.42228817455,0.0,0.0,0.0,-0.637897181914,0.770121539308,0.0103650534462,-0.0234173812484,0.0,0.0,0.0,0.0,-0.0234173812484,0.162878474213,0.0,0.0,0.0,0.0,0.0,0.0,0.0,0.0,0.0,0.0,0.0,0.0,0.0,0.0,0.0,0.0,0.0,0.0,0.0,0.0,0.0,0.0,0.0,0.0,0.0,0.0,0.0,0.00204658709006
1756812937313969000,14,1756812937313969000,map,-12.0045171489,-4.90255939747,0.0,0.0,0.0,-0.637889531251,0.770127876343,0.00992878929605,-0.0224233734686,0.0,0.0,0.0,0.0,-0.0224233734686,0.160205284332,0.0,0.0,0.0,0.0,0.0,0.0,0.0,0.0,0.0,0.0,0.0,0.0,0.0,0.0,0.0,0.0,0.0,0.0,0.0,0.0,0.0,0.0,0.0,0.0,0.0,0.0,0.0,0.00212364545415
1756812938114689000,15,1756812938114689000,map,-12.0900289077,-4.37960513621,0.0,0.0,0.0,-0.64456236102,0.764551739751,0.00912525741688,-0.0232162373423,0.0,0.0,0.0,0.0,-0.0232162373423,0.162888071773,0.0,0.0,0.0,0.0,0.0,0.0,0.0,0.0,0.0,0.0,0.0,0.0,0.0,0.0,0.0,0.0,0.0,0.0,0.0,0.0,0.0,0.0,0.0,0.0,0.0,0.0,0.0,0.0018388076759
1756812938913855000,16,1756812938913855000,map,-12.1859852811,-3.8894767836,0.0,0.0,0.0,-0.639730843883,0.768599015993,0.00998756081154,-0.0237319631143,0.0,0.0,0.0,0.0,-0.0237319631143,0.168390279367,0.0,0.0,0.0,0.0,0.0,0.0,0.0,0.0,0.0,0.0,0.0,0.0,0.0,0.0,0.0,0.0,0.0,0.0,0.0,0.0,0.0,0.0,0.0,0.0,0.0,0.0,0.0,0.00202842270018
1756812939714441000,17,1756812939714441000,map,-12.2682171706,-3.40560046343,0.0,0.0,0.0,-0.636506706946,0.771271166331,0.0108144401879,-0.0229817583025,0.0,0.0,0.0,0.0,-0.0229817583025,0.164031329638,0.0,0.0,0.0,0.0,0.0,0.0,0.0,0.0,0.0,0.0,0.0,0.0,0.0,0.0,0.0,0.0,0.0,0.0,0.0,0.0,0.0,0.0,0.0,0.0,0.0,0.0,0.0,0.00248162833034
1756812940513652000,18,1756812940513652000,map,-12.3584990431,-2.81602249199,0.0,0.0,0.0,-0.641442177829,0.767171384048,0.010503725904,-0.0218726363687,0.0,0.0,0.0,0.0,-0.0218726363687,0.156728846317,0.0,0.0,0.0,0.0,0.0,0.0,0.0,0.0,0.0,0.0,0.0,0.0,0.0,0.0,0.0,0.0,0.0,0.0,0.0,0.0,0.0,0.0,0.0,0.0,0.0,0.0,0.0,0.0024452660299
1756812941313899000,19,1756812941313899000,map,-12.4262258582,-2.38335716275,0.0,0.0,0.0,-0.641336342997,0.767259861554,0.0108977516236,-0.0211967633132,0.0,0.0,0.0,0.0,-0.0211967633132,0.157513987422,0.0,0.0,0.0,0.0,0.0,0.0,0.0,0.0,0.0,0.0,0.0,0.0,0.0,0.0,0.0,0.0,0.0,0.0,0.0,0.0,0.0,0.0,0.0,0.0,0.0,0.0,0.0,0.00263372796085
1756812942114290000,20,1756812942114290000,map,-12.5027148385,-1.81830591213,0.0,0.0,0.0,-0.647716508526,0.761881437353,0.00983446798969,-0.0211505401478,0.0,0.0,0.0,0.0,-0.0211505401478,0.153912232251,0.0,0.0,0.0,0.0,0.0,0.0,0.0,0.0,0.0,0.0,0.0,0.0,0.0,0.0,0.0,0.0,0.0,0.0,0.0,0.0,0.0,0.0,0.0,0.0,0.0,0.0,0.0,0.00195390200077
1756812942913805000,21,1756812942913805000,map,-12.5846321767,-1.28863872545,0.0,0.0,0.0,-0.651252428995,0.758861168942,0.0109916509268,-0.019007111234,0.0,0.0,0.0,0.0,-0.019007111234,0.153326483423,0.0,0.0,0.0,0.0,0.0,0.0,0.0,0.0,0.0,0.0,0.0,0.0,0.0,0.0,0.0,0.0,0.0,0.0,0.0,0.0,0.0,0.0,0.0,0.0,0.0,0.0,0.0,0.00218915240041
1756812943847320000,22,1756812943847320000,map,-12.6670339099,-0.752001498678,0.0,0.0,0.0,-0.649756518384,0.76014239904,0.0102627856253,-0.0202120571401,0.0,0.0,0.0,0.0,-0.0202120571401,0.155035148965,0.0,0.0,0.0,0.0,0.0,0.0,0.0,0.0,0.0,0.0,0.0,0.0,0.0,0.0,0.0,0.0,0.0,0.0,0.0,0.0,0.0,0.0,0.0,0.0,0.0,0.0,0.0,0.00258426178255
1756812945047824000,23,1756812945047824000,map,-12.7774715402,0.0399948181436,0.0,0.0,0.0,-0.650978013905,0.759096585036,0.014111312628,-0.0208429597466,0.0,0.0,0.0,0.0,-0.0208429597466,0.157343328286,0.0,0.0,0.0,0.0,0.0,0.0,0.0,0.0,0.0,0.0,0.0,0.0,0.0,0.0,0.0,0.0,0.0,0.0,0.0,0.0,0.0,0.0,0.0,0.0,0.0,0.0,0.0,0.00589446418817
1756812946113843000,24,1756812946113843000,map,-12.8971347273,0.707765557886,0.0,0.0,0.0,-0.649559550695,0.760310719443,0.0185958065577,-0.0220593060724,0.0,0.0,0.0,0.0,-0.0220593060724,0.172983930423,0.0,0.0,0.0,0.0,0.0,0.0,0.0,0.0,0.0,0.0,0.0,0.0,0.0,0.0,0.0,0.0,0.0,0.0,0.0,0.0,0.0,0.0,0.0,0.0,0.0,0.0,0.0,0.0077776000852
1756812947180589000,25,1756812947180589000,map,-12.99496676,1.42554553577,0.0,0.0,0.0,-0.646187172018,0.763178968997,0.0179133254369,-0.0227159997136,0.0,0.0,0.0,0.0,-0.0227159997136,0.173364561124,0.0,0.0,0.0,0.0,0.0,0.0,0.0,0.0,0.0,0.0,0.0,0.0,0.0,0.0,0.0,0.0,0.0,0.0,0.0,0.0,0.0,0.0,0.0,0.0,0.0,0.0,0.0,0.00705920975878
1756812947314314000,26,1756812947314314000,map,-12.9888669193,1.45111572104,0.0,0.0,0.0,-0.649567116853,0.76030425535,0.0118492300222,-0.0235613505662,0.0,0.0,0.0,0.0,-0.0235613505662,0.174925965949,0.0,0.0,0.0,0.0,0.0,0.0,0.0,0.0,0.0,0.0,0.0,0.0,0.0,0.0,0.0,0.0,0.0,0.0,0.0,0.0,0.0,0.0,0.0,0.0,0.0,0.0,0.0,0.00470165695558
1756812948513723000,27,1756812948513723000,map,-13.1042165589,2.23444632743,0.0,0.0,0.0,-0.650749236026,0.759292718135,0.0130423013335,-0.0229886350879,0.0,0.0,0.0,0.0,-0.0229886350879,0.174871423323,0.0,0.0,0.0,0.0,0.0,0.0,0.0,0.0,0.0,0.0,0.0,0.0,0.0,0.0,0.0,0.0,0.0,0.0,0.0,0.0,0.0,0.0,0.0,0.0,0.0,0.0,0.0,0.00583106860695
1756812949713691000,28,1756812949713691000,map,-13.2262273602,3.00732147699,0.0,0.0,0.0,-0.641939694284,0.766755129688,0.0154802116486,-0.0217552922144,0.0,0.0,0.0,0.0,-0.0217552922144,0.172435250412,0.0,0.0,0.0,0.0,0.0,0.0,0.0,0.0,0.0,0.0,0.0,0.0,0.0,0.0,0.0,0.0,0.0,0.0,0.0,0.0,0.0,0.0,0.0,0.0,0.0,0.0,0.0,0.00780344726856
1756812950780509000,29,1756812950780509000,map,-13.3557234235,3.69045099962,0.0,0.0,0.0,-0.637911562474,0.770109627561,0.0134730977323,-0.0207714294304,0.0,0.0,0.0,0.0,-0.0207714294304,0.167870285517,0.0,0.0,0.0,0.0,0.0,0.0,0.0,0.0,0.0,0.0,0.0,0.0,0.0,0.0,0.0,0.0,0.0,0.0,0.0,0.0,0.0,0.0,0.0,0.0,0.0,0.0,0.0,0.0047519111177
1756812951847862000,30,1756812951847862000,map,-13.4693749511,4.3351489281,0.0,0.0,0.0,-0.633663679809,0.773608648408,0.0153673353648,-0.0192614918649,0.0,0.0,0.0,0.0,-0.0192614918649,0.163267294265,0.0,0.0,0.0,0.0,0.0,0.0,0.0,0.0,0.0,0.0,0.0,0.0,0.0,0.0,0.0,0.0,0.0,0.0,0.0,0.0,0.0,0.0,0.0,0.0,0.0,0.0,0.0,0.00474176911283
1756812952914184000,31,1756812952914184000,map,-13.5985311102,5.0420590549,0.0,0.0,0.0,-0.636115118681,0.77159416521,0.0175975524229,-0.0180186113536,0.0,0.0,0.0,0.0,-0.0180186113536,0.155868553505,0.0,0.0,0.0,0.0,0.0,0.0,0.0,0.0,0.0,0.0,0.0,0.0,0.0,0.0,0.0,0.0,0.0,0.0,0.0,0.0,0.0,0.0,0.0,0.0,0.0,0.0,0.0,0.00571513469896
1756812955450293000,32,1756812955450293000,map,-13.8892591274,6.5637729739,0.0,0.0,0.0,-0.614301522006,0.789071378306,0.179639024583,0.00139714491993,0.0,0.0,0.0,0.0,0.00139714491993,0.264440170443,0.0,0.0,0.0,0.0,0.0,0.0,0.0,0.0,0.0,0.0,0.0,0.0,0.0,0.0,0.0,0.0,0.0,0.0,0.0,0.0,0.0,0.0,0.0,0.0,0.0,0.0,0.0,0.173768118959
1756812957047337000,33,1756812957047337000,map,-14.1537298434,7.44955101425,0.0,0.0,0.0,-0.667943256016,0.744212205451,0.387880071365,0.0431661607399,0.0,0.0,0.0,0.0,0.0431661607399,0.283201098224,0.0,0.0,0.0,0.0,0.0,0.0,0.0,0.0,0.0,0.0,0.0,0.0,0.0,0.0,0.0,0.0,0.0,0.0,0.0,0.0,0.0,0.0,0.0,0.0,0.0,0.0,0.0,0.119793873064
1756812957980595000,34,1756812957980595000,map,-13.9598751317,8.04500568907,0.0,0.0,0.0,-0.767468896998,0.641086181523,0.388410435942,0.0111944871994,0.0,0.0,0.0,0.0,0.0111944871994,0.266823878085,0.0,0.0,0.0,0.0,0.0,0.0,0.0,0.0,0.0,0.0,0.0,0.0,0.0,0.0,0.0,0.0,0.0,0.0,0.0,0.0,0.0,0.0,0.0,0.0,0.0,0.0,0.0,0.0780069946224
1756812958981120000,35,1756812958981120000,map,-13.852250576,8.57484835163,0.0,0.0,0.0,-0.815908895646,0.578180485666,0.350621087272,-0.013973115229,0.0,0.0,0.0,0.0,-0.013973115229,0.246681754702,0.0,0.0,0.0,0.0,0.0,0.0,0.0,0.0,0.0,0.0,0.0,0.0,0.0,0.0,0.0,0.0,0.0,0.0,0.0,0.0,0.0,0.0,0.0,0.0,0.0,0.0,0.0,0.0525439955037
1756812959780442000,36,1756812959780442000,map,-13.7014406457,9.13787788942,0.0,0.0,0.0,-0.891121276522,0.453765215205,0.475640220765,-0.136955952675,0.0,0.0,0.0,0.0,-0.136955952675,0.346437339133,0.0,0.0,0.0,0.0,0.0,0.0,0.0,0.0,0.0,0.0,0.0,0.0,0.0,0.0,0.0,0.0,0.0,0.0,0.0,0.0,0.0,0.0,0.0,0.0,0.0,0.0,0.0,0.0698289693038
1756812960780856000,37,1756812960780856000,map,-13.1759891263,9.45267715584,0.0,0.0,0.0,-0.973776105284,0.227508454298,1.30674021018,-1.29357208325,0.0,0.0,0.0,0.0,-1.29357208325,1.86447148278,0.0,0.0,0.0,0.0,0.0,0.0,0.0,0.0,0.0,0.0,0.0,0.0,0.0,0.0,0.0,0.0,0.0,0.0,0.0,0.0,0.0,0.0,0.0,0.0,0.0,0.0,0.0,0.306493735416
1756812961714324000,38,1756812961714324000,map,-10.1219022281,4.92813233527,0.0,0.0,0.0,0.541894971162,0.840446214953,1.64182847663,-2.82228928514,0.0,0.0,0.0,0.0,-2.82228928514,5.41685650701,0.0,0.0,0.0,0.0,0.0,0.0,0.0,0.0,0.0,0.0,0.0,0.0,0.0,0.0,0.0,0.0,0.0,0.0,0.0,0.0,0.0,0.0,0.0,0.0,0.0,0.0,0.0,0.776090879385
1756812962581280000,39,1756812962581280000,map,-10.4539967175,4.55916657345,0.0,0.0,0.0,0.21040258704,0.977614827714,0.303252869542,-0.709578816855,0.0,0.0,0.0,0.0,-0.709578816855,1.98281657609,0.0,0.0,0.0,0.0,0.0,0.0,0.0,0.0,0.0,0.0,0.0,0.0,0.0,0.0,0.0,0.0,0.0,0.0,0.0,0.0,0.0,0.0,0.0,0.0,0.0,0.0,0.0,0.212122515463
1756812963514675000,40,1756812963514675000,map,-11.0068214721,4.49834228676,0.0,0.0,0.0,-0.0649710370187,0.997887150107,0.0446089940496,-0.0971284585439,0.0,0.0,0.0,0.0,-0.0971284585439,0.439870777882,0.0,0.0,0.0,0.0,0.0,0.0,0.0,0.0,0.0,0.0,0.0,0.0,0.0,0.0,0.0,0.0,0.0,0.0,0.0,0.0,0.0,0.0,0.0,0.0,0.0,0.0,0.0,0.0586305896451
1756812964913781000,41,1756812964913781000,map,-11.7927430365,4.56623598207,0.0,0.0,0.0,-0.0424995062277,0.999096487818,0.015736011504,-0.0131311737123,0.0,0.0,0.0,0.0,-0.0131311737123,0.12924702495,0.0,0.0,0.0,0.0,0.0,0.0,0.0,0.0,0.0,0.0,0.0,0.0,0.0,0.0,0.0,0.0,0.0,0.0,0.0,0.0,0.0,0.0,0.0,0.0,0.0,0.0,0.0,0.0315837688879
1756812965913689000,42,1756812965913689000,map,-12.3962441517,4.73636062782,0.0,0.0,0.0,-0.128740958881,0.99167825705,0.0175854798651,0.000775505121986,0.0,0.0,0.0,0.0,0.000775505121986,0.163120257781,0.0,0.0,0.0,0.0,0.0,0.0,0.0,0.0,0.0,0.0,0.0,0.0,0.0,0.0,0.0,0.0,0.0,0.0,0.0,0.0,0.0,0.0,0.0,0.0,0.0,0.0,0.0,0.0402024095653
1756812966914249000,43,1756812966914249000,map,-12.9918667004,5.03723738724,0.0,0.0,0.0,-0.170412889153,0.985372745316,0.0315410580437,0.0217521539372,0.0,0.0,0.0,0.0,0.0217521539372,0.215138946928,0.0,0.0,0.0,0.0,0.0,0.0,0.0,0.0,0.0,0.0,0.0,0.0,0.0,0.0,0.0,0.0,0.0,0.0,0.0,0.0,0.0,0.0,0.0,0.0,0.0,0.0,0.0,0.0501981818703
1756812967847307000,44,1756812967847307000,map,-13.5613062769,5.12815728176,0.0,0.0,0.0,-0.146833327012,0.989161247764,0.13214640908,0.0692904155378,0.0,0.0,0.0,0.0,0.0692904155378,0.288442139802,0.0,0.0,0.0,0.0,0.0,0.0,0.0,0.0,0.0,0.0,0.0,0.0,0.0,0.0,0.0,0.0,0.0,0.0,0.0,0.0,0.0,0.0,0.0,0.0,0.0,0.0,0.0,0.0912874619801
1756812968513660000,45,1756812968513660000,map,-13.9005331457,5.54166271061,0.0,0.0,0.0,-0.206242469684,0.978500916555,0.621261041861,0.0947143276685,0.0,0.0,0.0,0.0,0.0947143276685,0.28891432471,0.0,0.0,0.0,0.0,0.0,0.0,0.0,0.0,0.0,0.0,0.0,0.0,0.0,0.0,0.0,0.0,0.0,0.0,0.0,0.0,0.0,0.0,0.0,0.0,0.0,0.0,0.0,0.258154963021
1756812969381020000,46,1756812969381020000,map,-10.9069111315,5.21273793152,0.0,0.0,0.0,0.734630269934,0.678467660613,3.11361293572,-0.348909957962,0.0,0.0,0.0,0.0,-0.348909957962,0.25381767503,0.0,0.0,0.0,0.0,0.0,0.0,0.0,0.0,0.0,0.0,0.0,0.0,0.0,0.0,0.0,0.0,0.0,0.0,0.0,0.0,0.0,0.0,0.0,0.0,0.0,0.0,0.0,1.27489149534
1756812970313723000,47,1756812970313723000,map,-10.8661059922,4.60357610544,0.0,0.0,0.0,0.731264261482,0.682094260259,2.08154581042,-0.671744012255,0.0,0.0,0.0,0.0,-0.671744012255,0.293071691343,0.0,0.0,0.0,0.0,0.0,0.0,0.0,0.0,0.0,0.0,0.0,0.0,0.0,0.0,0.0,0.0,0.0,0.0,0.0,0.0,0.0,0.0,0.0,0.0,0.0,0.0,0.0,0.45377134976
1756812971313847000,48,1756812971313847000,map,-10.810584342,3.9583065792,0.0,0.0,0.0,0.734284780594,0.678841558089,0.619565940979,-0.282867388529,0.0,0.0,0.0,0.0,-0.282867388529,0.152465641378,0.0,0.0,0.0,0.0,0.0,0.0,0.0,0.0,0.0,0.0,0.0,0.0,0.0,0.0,0.0,0.0,0.0,0.0,0.0,0.0,0.0,0.0,0.0,0.0,0.0,0.0,0.0,0.0856693884316
1756812972113600000,49,1756812972113600000,map,-10.7681147538,3.43328107074,0.0,0.0,0.0,0.768071950209,0.640363552447,0.154069652073,-0.0808915300403,0.0,0.0,0.0,0.0,-0.0808915300403,0.0539300255289,0.0,0.0,0.0,0.0,0.0,0.0,0.0,0.0,0.0,0.0,0.0,0.0,0.0,0.0,0.0,0.0,0.0,0.0,0.0,0.0,0.0,0.0,0.0,0.0,0.0,0.0,0.0,0.0181416080377
1756812972913923000,50,1756812972913923000,map,-10.6965155861,2.93535181343,0.0,0.0,0.0,0.773198187862,0.634164459969,0.0220937612631,-0.011930020523,0.0,0.0,0.0,0.0,-0.0119300205229,0.0156850517694,0.0,0.0,0.0,0.0,0.0,0.0,0.0,0.0,0.0,0.0,0.0,0.0,0.0,0.0,0.0,0.0,0.0,0.0,0.0,0.0,0.0,0.0,0.0,0.0,0.0,0.0,0.0,0.00376603889223
1756812973847520000,51,1756812973847520000,map,-10.5884125025,2.32886079485,0.0,0.0,0.0,0.770330433001,0.63764490431,0.00511963213967,-0.000428264113459,0.0,0.0,0.0,0.0,-0.000428264113459,0.00907531268993,0.0,0.0,0.0,0.0,0.0,0.0,0.0,0.0,0.0,0.0,0.0,0.0,0.0,0.0,0.0,0.0,0.0,0.0,0.0,0.0,0.0,0.0,0.0,0.0,0.0,0.0,0.0,0.00235291839887
1756812976047255000,52,1756812976047255000,map,-10.3388259113,0.99234017163,0.0,0.0,0.0,0.770233084366,0.637762491645,0.107581452827,0.00522712694815,0.0,0.0,0.0,0.0,0.00522712694815,0.0833649109805,0.0,0.0,0.0,0.0,0.0,0.0,0.0,0.0,0.0,0.0,0.0,0.0,0.0,0.0,0.0,0.0,0.0,0.0,0.0,0.0,0.0,0.0,0.0,0.0,0.0,0.0,0.0,0.0946251874571
1756812976847188000,53,1756812976847188000,map,-10.2670247932,0.451509233823,0.0,0.0,0.0,0.782470731867,0.622687364391,0.0706019049077,-0.00179783384704,0.0,0.0,0.0,0.0,-0.00179783384704,0.0815684788537,0.0,0.0,0.0,0.0,0.0,0.0,0.0,0.0,0.0,0.0,0.0,0.0,0.0,0.0,0.0,0.0,0.0,0.0,0.0,0.0,0.0,0.0,0.0,0.0,0.0,0.0,0.0,0.0336999118091
1756812977647761000,54,1756812977647761000,map,-10.1565319237,-0.0378749634445,0.0,0.0,0.0,0.78587914262,0.61838012031,0.0240125093889,-0.00861517820219,0.0,0.0,0.0,0.0,-0.00861517820219,0.0814658599684,0.0,0.0,0.0,0.0,0.0,0.0,0.0,0.0,0.0,0.0,0.0,0.0,0.0,0.0,0.0,0.0,0.0,0.0,0.0,0.0,0.0,0.0,0.0,0.0,0.0,0.0,0.0,0.00882767885068
1756812978581347000,55,1756812978581347000,map,-10.035574245,-0.619464460303,0.0,0.0,0.0,0.787456746409,0.616369915339,0.0101540246149,-0.0104659822835,0.0,0.0,0.0,0.0,-0.0104659822835,0.0837328876822,0.0,0.0,0.0,0.0,0.0,0.0,0.0,0.0,0.0,0.0,0.0,0.0,0.0,0.0,0.0,0.0,0.0,0.0,0.0,0.0,0.0,0.0,0.0,0.0,0.0,0.0,0.0,0.00413165061918
1756812979514209000,56,1756812979514209000,map,-9.89979872676,-1.21378097289,0.0,0.0,0.0,0.785868221346,0.618393999549,0.0076586819861,-0.0111469347786,0.0,0.0,0.0,0.0,-0.0111469347786,0.0863119205998,0.0,0.0,0.0,0.0,0.0,0.0,0.0,0.0,0.0,0.0,0.0,0.0,0.0,0.0,0.0,0.0,0.0,0.0,0.0,0.0,0.0,0.0,0.0,0.0,0.0,0.0,0.0,0.00297043805089
1756812980513573000,57,1756812980513573000,map,-9.76334232002,-1.82083567431,0.0,0.0,0.0,0.78711994947,0.616799955534,0.00868514036654,-0.0100350876044,0.0,0.0,0.0,0.0,-0.0100350876044,0.0863866956604,0.0,0.0,0.0,0.0,0.0,0.0,0.0,0.0,0.0,0.0,0.0,0.0,0.0,0.0,0.0,0.0,0.0,0.0,0.0,0.0,0.0,0.0,0.0,0.0,0.0,0.0,0.0,0.00393574784133
1756812981314245000,58,1756812981314245000,map,-9.66089890623,-2.32818481834,0.0,0.0,0.0,0.776391490196,0.630250945221,0.00682055288108,-0.0103851415687,0.0,0.0,0.0,0.0,-0.0103851415687,0.0839178763258,0.0,0.0,0.0,0.0,0.0,0.0,0.0,0.0,0.0,0.0,0.0,0.0,0.0,0.0,0.0,0.0,0.0,0.0,0.0,0.0,0.0,0.0,0.0,0.0,0.0,0.0,0.0,0.00268557196459
1756812982580986000,59,1756812982580986000,map,-9.51659387793,-3.13855679163,0.0,0.0,0.0,0.769692695289,0.638414563445,0.011906331291,-0.0099862639362,0.0,0.0,0.0,0.0,-0.0099862639362,0.0889519732095,0.0,0.0,0.0,0.0,0.0,0.0,0.0,0.0,0.0,0.0,0.0,0.0,0.0,0.0,0.0,0.0,0.0,0.0,0.0,0.0,0.0,0.0,0.0,0.0,0.0,0.0,0.0,0.00795581053931
1756812983449374000,60,1756812983449374000,map,-9.38991773662,-3.69878213901,0.0,0.0,0.0,0.772288003257,0.635272571441,0.0098193827031,-0.0104357819148,0.0,0.0,0.0,0.0,-0.0104357819148,0.0853532658721,0.0,0.0,0.0,0.0,0.0,0.0,0.0,0.0,0.0,0.0,0.0,0.0,0.0,0.0,0.0,0.0,0.0,0.0,0.0,0.0,0.0,0.0,0.0,0.0,0.0,0.0,0.0,0.00419732574123
1756812984513784000,61,1756812984513784000,map,-9.29756915416,-4.3696850485,0.0,0.0,0.0,0.763781734634,0.645474602009,0.0094147826499,-0.0115107394784,0.0,0.0,0.0,0.0,-0.0115107394784,0.0884220628571,0.0,0.0,0.0,0.0,0.0,0.0,0.0,0.0,0.0,0.0,0.0,0.0,0.0,0.0,0.0,0.0,0.0,0.0,0.0,0.0,0.0,0.0,0.0,0.0,0.0,0.0,0.0,0.00387471745829
1756812985449190000,62,1756812985449190000,map,-9.17871120085,-4.99652583823,0.0,0.0,0.0,0.763608914031,0.645679042878,0.00984861229031,-0.0125563141107,0.0,0.0,0.0,0.0,-0.0125563141107,0.0930988564837,0.0,0.0,0.0,0.0,0.0,0.0,0.0,0.0,0.0,0.0,0.0,0.0,0.0,0.0,0.0,0.0,0.0,0.0,0.0,0.0,0.0,0.0,0.0,0.0,0.0,0.0,0.0,0.00309059944186
1756812986647472000,63,1756812986647472000,map,-9.07259143877,-5.69552866316,0.0,0.0,0.0,0.758509273325,0.651662245554,0.00803562862011,-0.0140794248335,0.0,0.0,0.0,0.0,-0.0140794248335,0.0976768661038,0.0,0.0,0.0,0.0,0.0,0.0,0.0,0.0,0.0,0.0,0.0,0.0,0.0,0.0,0.0,0.0,0.0,0.0,0.0,0.0,0.0,0.0,0.0,0.0,0.0,0.0,0.0,0.00344549399597
1756812987581286000,64,1756812987581286000,map,-8.9743167959,-6.30598854745,0.0,0.0,0.0,0.761175069204,0.648546462501,0.00714205675467,-0.0128609117955,0.0,0.0,0.0,0.0,-0.0128609117956,0.0960092799933,0.0,0.0,0.0,0.0,0.0,0.0,0.0,0.0,0.0,0.0,0.0,0.0,0.0,0.0,0.0,0.0,0.0,0.0,0.0,0.0,0.0,0.0,0.0,0.0,0.0,0.0,0.0,0.00263367658802
1756812988449747000,65,1756812988449747000,map,-8.88469414799,-6.89294292454,0.0,0.0,0.0,0.758140025589,0.652091789244,0.00677318556586,-0.0123525497145,0.0,0.0,0.0,0.0,-0.0123525497145,0.0956018859642,0.0,0.0,0.0,0.0,0.0,0.0,0.0,0.0,0.0,0.0,0.0,0.0,0.0,0.0,0.0,0.0,0.0,0.0,0.0,0.0,0.0,0.0,0.0,0.0,0.0,0.0,0.0,0.00268291501646
1756812989113905000,66,1756812989113905000,map,-8.82810775436,-7.31491517523,0.0,0.0,0.0,0.756057471383,0.654505232955,0.00652290151605,-0.0115399708272,0.0,0.0,0.0,0.0,-0.0115399708272,0.0901226470588,0.0,0.0,0.0,0.0,0.0,0.0,0.0,0.0,0.0,0.0,0.0,0.0,0.0,0.0,0.0,0.0,0.0,0.0,0.0,0.0,0.0,0.0,0.0,0.0,0.0,0.0,0.0,0.00201387942696
1756812989847516000,67,1756812989847516000,map,-8.77000671345,-7.76249032405,0.0,0.0,0.0,0.763609690853,0.645678124172,0.00578009522971,-0.0111918730606,0.0,0.0,0.0,0.0,-0.0111918730606,0.0832405492743,0.0,0.0,0.0,0.0,0.0,0.0,0.0,0.0,0.0,0.0,0.0,0.0,0.0,0.0,0.0,0.0,0.0,0.0,0.0,0.0,0.0,0.0,0.0,0.0,0.0,0.0,0.0,0.00158078342325
1756812991047084000,68,1756812991047084000,map,-8.64259332041,-8.49467466207,0.0,0.0,0.0,0.766769490643,0.641922540669,0.00757670775315,-0.0100655075582,0.0,0.0,0.0,0.0,-0.0100655075582,0.0742172934008,0.0,0.0,0.0,0.0,0.0,0.0,0.0,0.0,0.0,0.0,0.0,0.0,0.0,0.0,0.0,0.0,0.0,0.0,0.0,0.0,0.0,0.0,0.0,0.0,0.0,0.0,0.0,0.0046953614971
1756812991847602000,69,1756812991847602000,map,-8.56347303956,-8.95530850569,0.0,0.0,0.0,0.770575184394,0.637349107786,0.00794011749467,-0.00983628331511,0.0,0.0,0.0,0.0,-0.00983628331512,0.0695347830589,0.0,0.0,0.0,0.0,0.0,0.0,0.0,0.0,0.0,0.0,0.0,0.0,0.0,0.0,0.0,0.0,0.0,0.0,0.0,0.0,0.0,0.0,0.0,0.0,0.0,0.0,0.0,0.00368822333746
1756812992514002000,70,1756812992514002000,map,-8.49097354135,-9.35632177003,0.0,0.0,0.0,0.77226923717,0.635295384306,0.00920625259835,-0.00909229409545,0.0,0.0,0.0,0.0,-0.00909229409545,0.0649977591826,0.0,0.0,0.0,0.0,0.0,0.0,0.0,0.0,0.0,0.0,0.0,0.0,0.0,0.0,0.0,0.0,0.0,0.0,0.0,0.0,0.0,0.0,0.0,0.0,0.0,0.0,0.0,0.00305102605497
1756812993449617000,71,1756812993449617000,map,-8.39388753765,-9.93649277809,0.0,0.0,0.0,0.771927691664,0.635710341934,0.0115908672178,-0.00758739058645,0.0,0.0,0.0,0.0,-0.00758739058645,0.0605294714295,0.0,0.0,0.0,0.0,0.0,0.0,0.0,0.0,0.0,0.0,0.0,0.0,0.0,0.0,0.0,0.0,0.0,0.0,0.0,0.0,0.0,0.0,0.0,0.0,0.0,0.0,0.0,0.0039906969085
1756812994380685000,72,1756812994380685000,map,-8.27787507955,-10.4990099967,0.0,0.0,0.0,0.777410489181,0.628993586066,0.0162400362677,-0.00691390224202,0.0,0.0,0.0,0.0,-0.00691390224202,0.0628122774329,0.0,0.0,0.0,0.0,0.0,0.0,0.0,0.0,0.0,0.0,0.0,0.0,0.0,0.0,0.0,0.0,0.0,0.0,0.0,0.0,0.0,0.0,0.0,0.0,0.0,0.0,0.0,0.00486512530756
1756812995450119000,73,1756812995450119000,map,-8.12681267466,-11.1964268931,0.0,0.0,0.0,0.778421480554,0.627741984109,0.0232536230064,-0.00511177189901,0.0,0.0,0.0,0.0,-0.00511177189901,0.0623630259528,0.0,0.0,0.0,0.0,0.0,0.0,0.0,0.0,0.0,0.0,0.0,0.0,0.0,0.0,0.0,0.0,0.0,0.0,0.0,0.0,0.0,0.0,0.0,0.0,0.0,0.0,0.0,0.00569001243452
1756812996246882000,74,1756812996246882000,map,-8.07057085006,-11.6888072021,0.0,0.0,0.0,0.722701962702,0.691159802872,0.0314160207778,-0.00321909563749,0.0,0.0,0.0,0.0,-0.00321909563749,0.056574295198,0.0,0.0,0.0,0.0,0.0,0.0,0.0,0.0,0.0,0.0,0.0,0.0,0.0,0.0,0.0,0.0,0.0,0.0,0.0,0.0,0.0,0.0,0.0,0.0,0.0,0.0,0.0,0.00592885650772
1756812997180232000,75,1756812997180232000,map,-7.8521689249,-12.2638418514,0.0,0.0,0.0,0.901492410463,0.432794909718,0.0422966447927,-0.000438646644142,0.0,0.0,0.0,0.0,-0.000438646644142,0.0554641102359,0.0,0.0,0.0,0.0,0.0,0.0,0.0,0.0,0.0,0.0,0.0,0.0,0.0,0.0,0.0,0.0,0.0,0.0,0.0,0.0,0.0,0.0,0.0,0.0,0.0,0.0,0.0,0.00828974909562
1756812998581113000,76,1756812998581113000,map,-7.09567538195,-12.7059690897,0.0,0.0,0.0,0.997175510599,0.0751065979947,0.0682485767487,0.0103276478506,0.0,0.0,0.0,0.0,0.0103276478506,0.0678242866345,0.0,0.0,0.0,0.0,0.0,0.0,0.0,0.0,0.0,0.0,0.0,0.0,0.0,0.0,0.0,0.0,0.0,0.0,0.0,0.0,0.0,0.0,0.0,0.0,0.0,0.0,0.0,0.0288168956397
1756812998980245000,77,1756812998980245000,map,-6.83825058801,-12.7243980657,0.0,0.0,0.0,-0.99965539,0.0262507379606,0.0696733953536,0.0164343611056,0.0,0.0,0.0,0.0,0.0164343611056,0.0756734135076,0.0,0.0,0.0,0.0,0.0,0.0,0.0,0.0,0.0,0.0,0.0,0.0,0.0,0.0,0.0,0.0,0.0,0.0,0.0,0.0,0.0,0.0,0.0,0.0,0.0,0.0,0.0,0.0327280336435
1756813000980311000,78,1756813000980311000,map,-6.00947585542,-11.9726287796,0.0,0.0,0.0,-0.673501167871,0.739186158472,0.194931885724,0.0116831071234,0.0,0.0,0.0,0.0,0.0116831071234,0.208186752425,0.0,0.0,0.0,0.0,0.0,0.0,0.0,0.0,0.0,0.0,0.0,0.0,0.0,0.0,0.0,0.0,0.0,0.0,0.0,0.0,0.0,0.0,0.0,0.0,0.0,0.0,0.0,0.178487340703
1756813001913128000,79,1756813001913128000,map,-6.16298974249,-11.4322356403,0.0,0.0,0.0,-0.463583030982,0.886053482238,0.301453823206,0.000617654529947,0.0,0.0,0.0,0.0,0.000617654529947,0.177893867607,0.0,0.0,0.0,0.0,0.0,0.0,0.0,0.0,0.0,0.0,0.0,0.0,0.0,0.0,0.0,0.0,0.0,0.0,0.0,0.0,0.0,0.0,0.0,0.0,0.0,0.0,0.0,0.179043217072
1756813002779994000,80,1756813002779994000,map,-6.21714072278,-10.9360477088,0.0,0.0,0.0,-0.574042114879,0.81882577533,0.306568890809,0.029923695962,0.0,0.0,0.0,0.0,0.029923695962,0.154467992363,0.0,0.0,0.0,0.0,0.0,0.0,0.0,0.0,0.0,0.0,0.0,0.0,0.0,0.0,0.0,0.0,0.0,0.0,0.0,0.0,0.0,0.0,0.0,0.0,0.0,0.0,0.0,0.130213645524
1756813003713541000,81,1756813003713541000,map,-6.14224607976,-10.4466303204,0.0,0.0,0.0,-0.668615242968,0.743608537384,0.218506731825,0.0324896490615,0.0,0.0,0.0,0.0,0.0324896490615,0.142579977861,0.0,0.0,0.0,0.0,0.0,0.0,0.0,0.0,0.0,0.0,0.0,0.0,0.0,0.0,0.0,0.0,0.0,0.0,0.0,0.0,0.0,0.0,0.0,0.0,0.0,0.0,0.0,0.0672793496054
1756813004714038000,82,1756813004714038000,map,-6.13869258987,-9.82045644625,0.0,0.0,0.0,-0.702190723182,0.711988896175,0.185305657319,0.0250798922219,0.0,0.0,0.0,0.0,0.0250798922218,0.144444753056,0.0,0.0,0.0,0.0,0.0,0.0,0.0,0.0,0.0,0.0,0.0,0.0,0.0,0.0,0.0,0.0,0.0,0.0,0.0,0.0,0.0,0.0,0.0,0.0,0.0,0.0,0.0,0.0390830056089
1756813005713560000,83,1756813005713560000,map,-6.18168610339,-9.20242075084,0.0,0.0,0.0,-0.679415054858,0.733754170844,0.0714909752063,-0.00665064359747,0.0,0.0,0.0,0.0,-0.00665064359748,0.120070307673,0.0,0.0,0.0,0.0,0.0,0.0,0.0,0.0,0.0,0.0,0.0,0.0,0.0,0.0,0.0,0.0,0.0,0.0,0.0,0.0,0.0,0.0,0.0,0.0,0.0,0.0,0.0,0.014900903976
1756813006846739000,84,1756813006846739000,map,-6.32050952337,-8.52536515311,0.0,0.0,0.0,-0.614093860759,0.789233001197,0.0331342342713,-0.0185793470769,0.0,0.0,0.0,0.0,-0.0185793470769,0.110510945461,0.0,0.0,0.0,0.0,0.0,0.0,0.0,0.0,0.0,0.0,0.0,0.0,0.0,0.0,0.0,0.0,0.0,0.0,0.0,0.0,0.0,0.0,0.0,0.0,0.0,0.0,0.0,0.0107146685413
1756813007713410000,85,1756813007713410000,map,-6.42317667251,-8.02909138052,0.0,0.0,0.0,-0.619446891742,0.785038564856,0.0192257031193,-0.0154120845946,0.0,0.0,0.0,0.0,-0.0154120845946,0.102427862307,0.0,0.0,0.0,0.0,0.0,0.0,0.0,0.0,0.0,0.0,0.0,0.0,0.0,0.0,0.0,0.0,0.0,0.0,0.0,0.0,0.0,0.0,0.0,0.0,0.0,0.0,0.0,0.0081167270918
1756813008847133000,86,1756813008847133000,map,-6.53431810108,-7.29095681069,0.0,0.0,0.0,-0.627177956179,0.778875992237,0.0176244365822,-0.0137698626518,0.0,0.0,0.0,0.0,-0.0137698626518,0.101321073883,0.0,0.0,0.0,0.0,0.0,0.0,0.0,0.0,0.0,0.0,0.0,0.0,0.0,0.0,0.0,0.0,0.0,0.0,0.0,0.0,0.0,0.0,0.0,0.0,0.0,0.0,0.0,0.0056839607197
1756813010180175000,87,1756813010180175000,map,-6.68562882583,-6.50388529248,0.0,0.0,0.0,-0.616788654014,0.787128805393,0.0138381488518,-0.0141172421275,0.0,0.0,0.0,0.0,-0.0141172421275,0.107597502191,0.0,0.0,0.0,0.0,0.0,0.0,0.0,0.0,0.0,0.0,0.0,0.0,0.0,0.0,0.0,0.0,0.0,0.0,0.0,0.0,0.0,0.0,0.0,0.0,0.0,0.0,0.0,0.00875404523402
1756813011247372000,88,1756813011247372000,map,-6.82813630796,-5.75871124349,0.0,0.0,0.0,-0.613224771064,0.789908463149,0.0148848119373,-0.0149771597842,0.0,0.0,0.0,0.0,-0.0149771597842,0.113788617979,0.0,0.0,0.0,0.0,0.0,0.0,0.0,0.0,0.0,0.0,0.0,0.0,0.0,0.0,0.0,0.0,0.0,0.0,0.0,0.0,0.0,0.0,0.0,0.0,0.0,0.0,0.0,0.00651972216758
1756813012246917000,89,1756813012246917000,map,-6.94467419912,-5.19922422352,0.0,0.0,0.0,-0.616267807759,0.787536658905,0.0165514391011,-0.0145815331504,0.0,0.0,0.0,0.0,-0.0145815331504,0.112138208007,0.0,0.0,0.0,0.0,0.0,0.0,0.0,0.0,0.0,0.0,0.0,0.0,0.0,0.0,0.0,0.0,0.0,0.0,0.0,0.0,0.0,0.0,0.0,0.0,0.0,0.0,0.0,0.00582592025669
1756813013449585000,90,1756813013449585000,map,-7.09583701752,-4.38236225027,0.0,0.0,0.0,-0.658762694343,0.752350790883,0.0195028868709,-0.0143771416681,0.0,0.0,0.0,0.0,-0.0143771416681,0.116471961484,0.0,0.0,0.0,0.0,0.0,0.0,0.0,0.0,0.0,0.0,0.0,0.0,0.0,0.0,0.0,0.0,0.0,0.0,0.0,0.0,0.0,0.0,0.0,0.0,0.0,0.0,0.0,0.00676507508595
1756813014646882000,91,1756813014646882000,map,-7.24524538874,-3.62328905683,0.0,0.0,0.0,-0.661743294571,0.749730492971,0.0172902149187,-0.0139029488673,0.0,0.0,0.0,0.0,-0.0139029488673,0.121332548616,0.0,0.0,0.0,0.0,0.0,0.0,0.0,0.0,0.0,0.0,0.0,0.0,0.0,0.0,0.0,0.0,0.0,0.0,0.0,0.0,0.0,0.0,0.0,0.0,0.0,0.0,0.0,0.00658549522845
1756813015449963000,92,1756813015449963000,map,-7.33008345733,-3.13555560289,0.0,0.0,0.0,-0.656438675609,0.754379390734,0.0129429910459,-0.0145507690711,0.0,0.0,0.0,0.0,-0.0145507690711,0.118457805618,0.0,0.0,0.0,0.0,0.0,0.0,0.0,0.0,0.0,0.0,0.0,0.0,0.0,0.0,0.0,0.0,0.0,0.0,0.0,0.0,0.0,0.0,0.0,0.0,0.0,0.0,0.0,0.00376665962593
1756813016246890000,93,1756813016246890000,map,-7.39034524018,-2.62451738609,0.0,0.0,0.0,-0.658316445361,0.752741295378,0.011878590208,-0.0154364975802,0.0,0.0,0.0,0.0,-0.0154364975802,0.121030214886,0.0,0.0,0.0,0.0,0.0,0.0,0.0,0.0,0.0,0.0,0.0,0.0,0.0,0.0,0.0,0.0,0.0,0.0,0.0,0.0,0.0,0.0,0.0,0.0,0.0,0.0,0.0,0.00280305956021
1756813017047348000,94,1756813017047348000,map,-7.42444532194,-2.12058335779,0.0,0.0,0.0,-0.667186256067,0.744890931422,0.0102163543775,-0.0166889032743,0.0,0.0,0.0,0.0,-0.0166889032743,0.122794754589,0.0,0.0,0.0,0.0,0.0,0.0,0.0,0.0,0.0,0.0,0.0,0.0,0.0,0.0,0.0,0.0,0.0,0.0,0.0,0.0,0.0,0.0,0.0,0.0,0.0,0.0,0.0,0.00214263306748
1756813018113447000,95,1756813018113447000,map,-7.45355768871,-1.35927493707,0.0,0.0,0.0,-0.680012836876,0.73320020573,0.0109704419958,-0.0165516625291,0.0,0.0,0.0,0.0,-0.0165516625291,0.121860359334,0.0,0.0,0.0,0.0,0.0,0.0,0.0,0.0,0.0,0.0,0.0,0.0,0.0,0.0,0.0,0.0,0.0,0.0,0.0,0.0,0.0,0.0,0.0,0.0,0.0,0.0,0.0,0.00359192438376
1756813019047245000,96,1756813019047245000,map,-7.4854225871,-0.80547894639,0.0,0.0,0.0,-0.666034417744,0.745921010819,0.0108389530312,-0.0161125111594,0.0,0.0,0.0,0.0,-0.0161125111594,0.121012248456,0.0,0.0,0.0,0.0,0.0,0.0,0.0,0.0,0.0,0.0,0.0,0.0,0.0,0.0,0.0,0.0,0.0,0.0,0.0,0.0,0.0,0.0,0.0,0.0,0.0,0.0,0.0,0.00342331785737
1756813020313405000,97,1756813020313405000,map,-7.57222703399,0.0680132538727,0.0,0.0,0.0,-0.635392854542,0.772189044469,0.0096694505245,-0.0164466671697,0.0,0.0,0.0,0.0,-0.0164466671697,0.11519119671,0.0,0.0,0.0,0.0,0.0,0.0,0.0,0.0,0.0,0.0,0.0,0.0,0.0,0.0,0.0,0.0,0.0,0.0,0.0,0.0,0.0,0.0,0.0,0.0,0.0,0.0,0.0,0.00442985295806
1756813021180051000,98,1756813021180051000,map,-7.65566352361,0.579881579757,0.0,0.0,0.0,-0.629094862153,0.777328536986,0.00987789211018,-0.0165771277337,0.0,0.0,0.0,0.0,-0.0165771277337,0.111122547182,0.0,0.0,0.0,0.0,0.0,0.0,0.0,0.0,0.0,0.0,0.0,0.0,0.0,0.0,0.0,0.0,0.0,0.0,0.0,0.0,0.0,0.0,0.0,0.0,0.0,0.0,0.0,0.0035379014072
1756813022047296000,99,1756813022047296000,map,-7.72620728043,1.13599158172,0.0,0.0,0.0,-0.642846844937,0.765994734939,0.00936119616179,-0.0170034661722,0.0,0.0,0.0,0.0,-0.0170034661722,0.114005486031,0.0,0.0,0.0,0.0,0.0,0.0,0.0,0.0,0.0,0.0,0.0,0.0,0.0,0.0,0.0,0.0,0.0,0.0,0.0,0.0,0.0,0.0,0.0,0.0,0.0,0.0,0.0,0.00266987052816
1756813023246839000,100,1756813023246839000,map,-7.84862744293,1.86306361647,0.0,0.0,0.0,-0.651397359728,0.758736765775,0.00995309567807,-0.0169105785238,0.0,0.0,0.0,0.0,-0.0169105785238,0.11778569589,0.0,0.0,0.0,0.0,0.0,0.0,0.0,0.0,0.0,0.0,0.0,0.0,0.0,0.0,0.0,0.0,0.0,0.0,0.0,0.0,0.0,0.0,0.0,0.0,0.0,0.0,0.0,0.0033624926337
1756813024449385000,101,1756813024449385000,map,-7.92547783286,2.64188615815,0.0,0.0,0.0,-0.652683363735,0.757630798413,0.0105491009031,-0.0176187593506,0.0,0.0,0.0,0.0,-0.0176187593506,0.118983726409,0.0,0.0,0.0,0.0,0.0,0.0,0.0,0.0,0.0,0.0,0.0,0.0,0.0,0.0,0.0,0.0,0.0,0.0,0.0,0.0,0.0,0.0,0.0,0.0,0.0,0.0,0.0,0.00508401733234
1756813025913409000,102,1756813025913409000,map,-8.06561248651,3.54728885933,0.0,0.0,0.0,-0.645369777545,0.763870309825,0.0126339727504,-0.0181897270343,0.0,0.0,0.0,0.0,-0.0181897270343,0.120590934816,0.0,0.0,0.0,0.0,0.0,0.0,0.0,0.0,0.0,0.0,0.0,0.0,0.0,0.0,0.0,0.0,0.0,0.0,0.0,0.0,0.0,0.0,0.0,0.0,0.0,0.0,0.0,0.00729958290788
1756813027513380000,103,1756813027513380000,map,-8.21500585833,4.53045723991,0.0,0.0,0.0,-0.65013199565,0.759821287035,0.0206481243562,-0.0178335791533,0.0,0.0,0.0,0.0,-0.0178335791533,0.124647238361,0.0,0.0,0.0,0.0,0.0,0.0,0.0,0.0,0.0,0.0,0.0,0.0,0.0,0.0,0.0,0.0,0.0,0.0,0.0,0.0,0.0,0.0,0.0,0.0,0.0,0.0,0.0,0.0153453549381
1756813029113357000,104,1756813029113357000,map,-8.31467156498,5.59557981053,0.0,0.0,0.0,-0.648395711873,0.761303487989,0.0327824731984,-0.0147556045775,0.0,0.0,0.0,0.0,-0.0147556045775,0.125592191525,0.0,0.0,0.0,0.0,0.0,0.0,0.0,0.0,0.0,0.0,0.0,0.0,0.0,0.0,0.0,0.0,0.0,0.0,0.0,0.0,0.0,0.0,0.0,0.0,0.0,0.0,0.0,0.0159546918348
1756813030313876000,105,1756813030313876000,map,-8.43959813794,6.27000736038,0.0,0.0,0.0,-0.632929967305,0.774209052186,0.0296516159824,-0.0134917208656,0.0,0.0,0.0,0.0,-0.0134917208656,0.112353952249,0.0,0.0,0.0,0.0,0.0,0.0,0.0,0.0,0.0,0.0,0.0,0.0,0.0,0.0,0.0,0.0,0.0,0.0,0.0,0.0,0.0,0.0,0.0,0.0,0.0,0.0,0.0,0.0091028175744
1756813031513356000,106,1756813031513356000,map,-8.58196460052,6.95861870843,0.0,0.0,0.0,-0.631877600214,0.775068189483,0.0301991894042,-0.0142744391088,0.0,0.0,0.0,0.0,-0.0142744391088,0.108979264851,0.0,0.0,0.0,0.0,0.0,0.0,0.0,0.0,0.0,0.0,0.0,0.0,0.0,0.0,0.0,0.0,0.0,0.0,0.0,0.0,0.0,0.0,0.0,0.0,0.0,0.0,0.0,0.00837187500579
1756813032449038000,107,1756813032449038000,map,-8.6865498924,7.51582093393,0.0,0.0,0.0,-0.623609752573,0.781735809911,0.0257501696894,-0.0114004605395,0.0,0.0,0.0,0.0,-0.0114004605395,0.0983533323987,0.0,0.0,0.0,0.0,0.0,0.0,0.0,0.0,0.0,0.0,0.0,0.0,0.0,0.0,0.0,0.0,0.0,0.0,0.0,0.0,0.0,0.0,0.0,0.0,0.0,0.0,0.0,0.00673808713171
1756813033313476000,108,1756813033313476000,map,-8.76640555496,8.01708799738,0.0,0.0,0.0,-0.626232868714,0.779636065188,0.0233711390176,-0.0095891232104,0.0,0.0,0.0,0.0,-0.0095891232104,0.081374222178,0.0,0.0,0.0,0.0,0.0,0.0,0.0,0.0,0.0,0.0,0.0,0.0,0.0,0.0,0.0,0.0,0.0,0.0,0.0,0.0,0.0,0.0,0.0,0.0,0.0,0.0,0.0,0.00528860393032
1756813034449591000,109,1756813034449591000,map,-8.83134644666,8.73177503928,0.0,0.0,0.0,-0.691879468597,0.72201301992,0.0300637006967,-0.00397993147199,0.0,0.0,0.0,0.0,-0.00397993147199,0.0760488533834,0.0,0.0,0.0,0.0,0.0,0.0,0.0,0.0,0.0,0.0,0.0,0.0,0.0,0.0,0.0,0.0,0.0,0.0,0.0,0.0,0.0,0.0,0.0,0.0,0.0,0.0,0.0,0.00710830455078
1756813035580839000,110,1756813035580839000,map,-8.70969479696,9.43412040252,0.0,0.0,0.0,-0.806555626347,0.591158203536,0.044539083719,-0.000545223635982,0.0,0.0,0.0,0.0,-0.000545223635982,0.069730378837,0.0,0.0,0.0,0.0,0.0,0.0,0.0,0.0,0.0,0.0,0.0,0.0,0.0,0.0,0.0,0.0,0.0,0.0,0.0,0.0,0.0,0.0,0.0,0.0,0.0,0.0,0.0,0.00947845922838
1756813036581253000,111,1756813036581253000,map,-8.37875730372,9.964584512,0.0,0.0,0.0,-0.906114635376,0.423032229928,0.0675618129586,-0.0069046076601,0.0,0.0,0.0,0.0,-0.00690460766013,0.0624618447186,0.0,0.0,0.0,0.0,0.0,0.0,0.0,0.0,0.0,0.0,0.0,0.0,0.0,0.0,0.0,0.0,0.0,0.0,0.0,0.0,0.0,0.0,0.0,0.0,0.0,0.0,0.0,0.0124647612511
1756813037449048000,112,1756813037449048000,map,-7.96373612937,10.3653086266,0.0,0.0,0.0,-0.970760625579,0.240049594513,0.0867373155115,-0.0174537589357,0.0,0.0,0.0,0.0,-0.0174537589357,0.0633804177451,0.0,0.0,0.0,0.0,0.0,0.0,0.0,0.0,0.0,0.0,0.0,0.0,0.0,0.0,0.0,0.0,0.0,0.0,0.0,0.0,0.0,0.0,0.0,0.0,0.0,0.0,0.0,0.015734341758
1756813038180566000,113,1756813038180566000,map,-7.53724663038,10.5902321729,0.0,0.0,0.0,-0.996444913973,0.0842468599893,0.099252853462,-0.028576885257,0.0,0.0,0.0,0.0,-0.028576885257,0.0660490595923,0.0,0.0,0.0,0.0,0.0,0.0,0.0,0.0,0.0,0.0,0.0,0.0,0.0,0.0,0.0,0.0,0.0,0.0,0.0,0.0,0.0,0.0,0.0,0.0,0.0,0.0,0.0,0.015696242034
1756813039046993000,114,1756813039046993000,map,-6.96493472151,10.5249621023,0.0,0.0,0.0,0.973140992046,0.230209925066,0.103264754019,-0.0493174696891,0.0,0.0,0.0,0.0,-0.0493174696891,0.0868132757073,0.0,0.0,0.0,0.0,0.0,0.0,0.0,0.0,0.0,0.0,0.0,0.0,0.0,0.0,0.0,0.0,0.0,0.0,0.0,0.0,0.0,0.0,0.0,0.0,0.0,0.0,0.0,0.0189314535955
1756813040047267000,115,1756813040047267000,map,-6.58832410251,10.0933796508,0.0,0.0,0.0,0.800704174792,0.599059950648,0.0905704938877,-0.0525161868521,0.0,0.0,0.0,0.0,-0.0525161868521,0.118473375696,0.0,0.0,0.0,0.0,0.0,0.0,0.0,0.0,0.0,0.0,0.0,0.0,0.0,0.0,0.0,0.0,0.0,0.0,0.0,0.0,0.0,0.0,0.0,0.0,0.0,0.0,0.0,0.0224022625559
1756813041181133000,116,1756813041181133000,map,-6.61790584253,9.23431044478,0.0,0.0,0.0,0.60087168982,0.799345489993,0.0802254946974,-0.0297494515306,0.0,0.0,0.0,0.0,-0.0297494515306,0.122058460942,0.0,0.0,0.0,0.0,0.0,0.0,0.0,0.0,0.0,0.0,0.0,0.0,0.0,0.0,0.0,0.0,0.0,0.0,0.0,0.0,0.0,0.0,0.0,0.0,0.0,0.0,0.0,0.029540009752
1756813042180413000,117,1756813042180413000,map,-6.83963967224,8.58701266105,0.0,0.0,0.0,0.552324150069,0.833629434012,0.107525631682,-0.0209929450847,0.0,0.0,0.0,0.0,-0.0209929450847,0.122952935497,0.0,0.0,0.0,0.0,0.0,0.0,0.0,0.0,0.0,0.0,0.0,0.0,0.0,0.0,0.0,0.0,0.0,0.0,0.0,0.0,0.0,0.0,0.0,0.0,0.0,0.0,0.0,0.0327376900887
1756813043246858000,118,1756813043246858000,map,-6.98597333314,8.04207647352,0.0,0.0,0.0,0.553512011887,0.832841192963,0.220324442522,-0.0053152921116,0.0,0.0,0.0,0.0,-0.0053152921116,0.117326244336,0.0,0.0,0.0,0.0,0.0,0.0,0.0,0.0,0.0,0.0,0.0,0.0,0.0,0.0,0.0,0.0,0.0,0.0,0.0,0.0,0.0,0.0,0.0,0.0,0.0,0.0,0.0,0.0527361041303
1756813044180350000,119,1756813044180350000,map,-6.72077225896,7.64209589732,0.0,0.0,0.0,0.639785515191,0.768553507931,0.578864313152,0.0349505954656,0.0,0.0,0.0,0.0,0.0349505954656,0.0958375905132,0.0,0.0,0.0,0.0,0.0,0.0,0.0,0.0,0.0,0.0,0.0,0.0,0.0,0.0,0.0,0.0,0.0,0.0,0.0,0.0,0.0,0.0,0.0,0.0,0.0,0.0,0.0,0.106554483883
1756813045313323000,120,1756813045313323000,map,-6.09090902883,7.06410145093,0.0,0.0,0.0,0.723942087021,0.689860750181,0.668691375584,0.0294735594584,0.0,0.0,0.0,0.0,0.0294735594584,0.049994126668,0.0,0.0,0.0,0.0,0.0,0.0,0.0,0.0,0.0,0.0,0.0,0.0,0.0,0.0,0.0,0.0,0.0,0.0,0.0,0.0,0.0,0.0,0.0,0.0,0.0,0.0,0.0,0.0780167803285
1756813046780599000,121,1756813046780599000,map,-5.69784841353,6.16114889891,0.0,0.0,0.0,0.75306721198,0.65794359503,0.39424318491,-0.00400191676278,0.0,0.0,0.0,0.0,-0.00400191676277,0.0443004837027,0.0,0.0,0.0,0.0,0.0,0.0,0.0,0.0,0.0,0.0,0.0,0.0,0.0,0.0,0.0,0.0,0.0,0.0,0.0,0.0,0.0,0.0,0.0,0.0,0.0,0.0,0.0,0.0379234358
1756813047513257000,122,1756813047513257000,map,-5.6602626001,5.68387992673,0.0,0.0,0.0,0.74854027337,0.663089329686,0.118372356041,-0.00279491113572,0.0,0.0,0.0,0.0,-0.00279491113572,0.0412020306754,0.0,0.0,0.0,0.0,0.0,0.0,0.0,0.0,0.0,0.0,0.0,0.0,0.0,0.0,0.0,0.0,0.0,0.0,0.0,0.0,0.0,0.0,0.0,0.0,0.0,0.0,0.0,0.011034806585
1756813048646616000,123,1756813048646616000,map,-5.57663271645,4.95512610668,0.0,0.0,0.0,0.769122261258,0.639101672066,0.0389184227024,-0.00360747600309,0.0,0.0,0.0,0.0,-0.0036074760031,0.039577949172,0.0,0.0,0.0,0.0,0.0,0.0,0.0,0.0,0.0,0.0,0.0,0.0,0.0,0.0,0.0,0.0,0.0,0.0,0.0,0.0,0.0,0.0,0.0,0.0,0.0,0.0,0.0,0.00565823015632
1756813049513226000,124,1756813049513226000,map,-5.5115505385,4.43617233601,0.0,0.0,0.0,0.773798433928,0.633431909246,0.0157253258115,-0.00566215346963,0.0,0.0,0.0,0.0,-0.00566215346963,0.0403771526377,0.0,0.0,0.0,0.0,0.0,0.0,0.0,0.0,0.0,0.0,0.0,0.0,0.0,0.0,0.0,0.0,0.0,0.0,0.0,0.0,0.0,0.0,0.0,0.0,0.0,0.0,0.0,0.00289394135742
1756813050581208000,125,1756813050581208000,map,-5.37588659202,3.74951491872,0.0,0.0,0.0,0.779949632948,0.625842288492,0.0094317669384,-0.00506121808437,0.0,0.0,0.0,0.0,-0.00506121808437,0.0408931084835,0.0,0.0,0.0,0.0,0.0,0.0,0.0,0.0,0.0,0.0,0.0,0.0,0.0,0.0,0.0,0.0,0.0,0.0,0.0,0.0,0.0,0.0,0.0,0.0,0.0,0.0,0.0,0.00331596532639
1756813051379979000,126,1756813051379979000,map,-5.27940588127,3.25082995704,0.0,0.0,0.0,0.779159958392,0.626825142475,0.00592999220148,-0.0048389327154,0.0,0.0,0.0,0.0,-0.0048389327154,0.0414818599669,0.0,0.0,0.0,0.0,0.0,0.0,0.0,0.0,0.0,0.0,0.0,0.0,0.0,0.0,0.0,0.0,0.0,0.0,0.0,0.0,0.0,0.0,0.0,0.0,0.0,0.0,0.0,0.00239281076047
1756813052313102000,127,1756813052313102000,map,-5.15637007454,2.6494794183,0.0,0.0,0.0,0.773388463711,0.633932397183,0.00552534733986,-0.00450938506935,0.0,0.0,0.0,0.0,-0.00450938506935,0.0404510871167,0.0,0.0,0.0,0.0,0.0,0.0,0.0,0.0,0.0,0.0,0.0,0.0,0.0,0.0,0.0,0.0,0.0,0.0,0.0,0.0,0.0,0.0,0.0,0.0,0.0,0.0,0.0,0.00237404759173
1756813053313914000,128,1756813053313914000,map,-5.07036427933,1.99894990936,0.0,0.0,0.0,0.759862876979,0.650083385566,0.00597228711195,-0.00474919681446,0.0,0.0,0.0,0.0,-0.00474919681446,0.0414312645337,0.0,0.0,0.0,0.0,0.0,0.0,0.0,0.0,0.0,0.0,0.0,0.0,0.0,0.0,0.0,0.0,0.0,0.0,0.0,0.0,0.0,0.0,0.0,0.0,0.0,0.0,0.0,0.00300295086475
1756813054246975000,129,1756813054246975000,map,-5.01000180522,1.38974301408,0.0,0.0,0.0,0.740580848124,0.671967266608,0.00634696207851,-0.00470887501727,0.0,0.0,0.0,0.0,-0.00470887501727,0.0419269139902,0.0,0.0,0.0,0.0,0.0,0.0,0.0,0.0,0.0,0.0,0.0,0.0,0.0,0.0,0.0,0.0,0.0,0.0,0.0,0.0,0.0,0.0,0.0,0.0,0.0,0.0,0.0,0.00303471374122
1756813055581145000,130,1756813055581145000,map,-4.95103744758,0.522469202924,0.0,0.0,0.0,0.732556520843,0.680706209587,0.00838628027097,-0.0058599565649,0.0,0.0,0.0,0.0,-0.0058599565649,0.0450961035662,0.0,0.0,0.0,0.0,0.0,0.0,0.0,0.0,0.0,0.0,0.0,0.0,0.0,0.0,0.0,0.0,0.0,0.0,0.0,0.0,0.0,0.0,0.0,0.0,0.0,0.0,0.0,0.00585975019761
1756813056847302000,131,1756813056847302000,map,-4.89511571492,-0.297058896941,0.0,0.0,0.0,0.729729616377,0.683735831285,0.0131177490306,-0.00541565765861,0.0,0.0,0.0,0.0,-0.00541565765861,0.0480373006263,0.0,0.0,0.0,0.0,0.0,0.0,0.0,0.0,0.0,0.0,0.0,0.0,0.0,0.0,0.0,0.0,0.0,0.0,0.0,0.0,0.0,0.0,0.0,0.0,0.0,0.0,0.0,0.00912238612356
1756813057646779000,132,1756813057646779000,map,-4.87515729002,-0.842139065292,0.0,0.0,0.0,0.739469714594,0.673189825531,0.00996505911496,-0.00627788125598,0.0,0.0,0.0,0.0,-0.00627788125598,0.0479858405132,0.0,0.0,0.0,0.0,0.0,0.0,0.0,0.0,0.0,0.0,0.0,0.0,0.0,0.0,0.0,0.0,0.0,0.0,0.0,0.0,0.0,0.0,0.0,0.0,0.0,0.0,0.0,0.00383682438935
1756813058779926000,133,1756813058779926000,map,-4.79578662189,-1.55098561173,0.0,0.0,0.0,0.752318142377,0.658799979243,0.0108147827345,-0.00589621340135,0.0,0.0,0.0,0.0,-0.00589621340135,0.0492232040196,0.0,0.0,0.0,0.0,0.0,0.0,0.0,0.0,0.0,0.0,0.0,0.0,0.0,0.0,0.0,0.0,0.0,0.0,0.0,0.0,0.0,0.0,0.0,0.0,0.0,0.0,0.0,0.0042575985658
1756813059847229000,134,1756813059847229000,map,-4.70929210216,-2.24125778706,0.0,0.0,0.0,0.752625390228,0.658448951692,0.0111611269312,-0.00510440735539,0.0,0.0,0.0,0.0,-0.00510440735539,0.0488292579562,0.0,0.0,0.0,0.0,0.0,0.0,0.0,0.0,0.0,0.0,0.0,0.0,0.0,0.0,0.0,0.0,0.0,0.0,0.0,0.0,0.0,0.0,0.0,0.0,0.0,0.0,0.0,0.00525057670876
1756813060979929000,135,1756813060979929000,map,-4.57810114683,-2.95377718649,0.0,0.0,0.0,0.765224852221,0.643763097377,0.0109126464817,-0.00507504115182,0.0,0.0,0.0,0.0,-0.00507504115182,0.0495188944827,0.0,0.0,0.0,0.0,0.0,0.0,0.0,0.0,0.0,0.0,0.0,0.0,0.0,0.0,0.0,0.0,0.0,0.0,0.0,0.0,0.0,0.0,0.0,0.0,0.0,0.0,0.0,0.00492735171476
1756813061980026000,136,1756813061980026000,map,-4.45965547746,-3.64662859202,0.0,0.0,0.0,0.764896396739,0.644153322009,0.00900647987761,-0.00548458078331,0.0,0.0,0.0,0.0,-0.00548458078331,0.0519832729705,0.0,0.0,0.0,0.0,0.0,0.0,0.0,0.0,0.0,0.0,0.0,0.0,0.0,0.0,0.0,0.0,0.0,0.0,0.0,0.0,0.0,0.0,0.0,0.0,0.0,0.0,0.0,0.00403999914825
1756813062779986000,137,1756813062779986000,map,-4.38817870004,-4.15514977126,0.0,0.0,0.0,0.762492017207,0.646997622635,0.00846114879917,-0.00636880403492,0.0,0.0,0.0,0.0,-0.00636880403492,0.0549054241814,0.0,0.0,0.0,0.0,0.0,0.0,0.0,0.0,0.0,0.0,0.0,0.0,0.0,0.0,0.0,0.0,0.0,0.0,0.0,0.0,0.0,0.0,0.0,0.0,0.0,0.0,0.0,0.00287648769744
1756813063713323000,138,1756813063713323000,map,-4.29855660714,-4.73006278479,0.0,0.0,0.0,0.762295060951,0.647229665613,0.00756313324603,-0.0070182329415,0.0,0.0,0.0,0.0,-0.0070182329415,0.0555750025021,0.0,0.0,0.0,0.0,0.0,0.0,0.0,0.0,0.0,0.0,0.0,0.0,0.0,0.0,0.0,0.0,0.0,0.0,0.0,0.0,0.0,0.0,0.0,0.0,0.0,0.0,0.0,0.00263711824322
1756813064846704000,139,1756813064846704000,map,-4.17779585148,-5.47068606879,0.0,0.0,0.0,0.762738485294,0.646707045772,0.00797666011144,-0.00706085284221,0.0,0.0,0.0,0.0,-0.00706085284221,0.0564975891186,0.0,0.0,0.0,0.0,0.0,0.0,0.0,0.0,0.0,0.0,0.0,0.0,0.0,0.0,0.0,0.0,0.0,0.0,0.0,0.0,0.0,0.0,0.0,0.0,0.0,0.0,0.0,0.00334977261976
1756813067113207000,140,1756813067113207000,map,-3.99054810781,-6.83596212594,0.0,0.0,0.0,0.756763548903,0.653688711124,0.0667807265792,-0.0067624955637,0.0,0.0,0.0,0.0,-0.0067624955637,0.128336114313,0.0,0.0,0.0,0.0,0.0,0.0,0.0,0.0,0.0,0.0,0.0,0.0,0.0,0.0,0.0,0.0,0.0,0.0,0.0,0.0,0.0,0.0,0.0,0.0,0.0,0.0,0.0,0.101438561958
1756813069313137000,141,1756813069313137000,map,-3.78517570662,-8.21679150368,0.0,0.0,0.0,0.755096107647,0.655614115328,0.20687674531,0.0179318164601,0.0,0.0,0.0,0.0,0.0179318164601,0.167221651091,0.0,0.0,0.0,0.0,0.0,0.0,0.0,0.0,0.0,0.0,0.0,0.0,0.0,0.0,0.0,0.0,0.0,0.0,0.0,0.0,0.0,0.0,0.0,0.0,0.0,0.0,0.0,0.0856480181808
1756813070780232000,142,1756813070780232000,map,-3.67370906727,-9.11003595784,0.0,0.0,0.0,0.76839434301,0.639976666473,0.239634843593,0.0205154714592,0.0,0.0,0.0,0.0,0.0205154714592,0.159878768627,0.0,0.0,0.0,0.0,0.0,0.0,0.0,0.0,0.0,0.0,0.0,0.0,0.0,0.0,0.0,0.0,0.0,0.0,0.0,0.0,0.0,0.0,0.0,0.0,0.0,0.0,0.0,0.0510434245912
1756813072512768000,143,1756813072512768000,map,-3.42526234047,-10.2120936713,0.0,0.0,0.0,0.747770987691,0.663956738025,0.322033370437,0.0178548321276,0.0,0.0,0.0,0.0,0.0178548321276,0.166394442134,0.0,0.0,0.0,0.0,0.0,0.0,0.0,0.0,0.0,0.0,0.0,0.0,0.0,0.0,0.0,0.0,0.0,0.0,0.0,0.0,0.0,0.0,0.0,0.0,0.0,0.0,0.0,0.0640933872258
1756813072980273000,144,1756813072980273000,map,-3.42063691831,-10.4277063981,0.0,0.0,0.0,0.748163064302,0.663514905043,0.228352215185,0.0093085076115,0.0,0.0,0.0,0.0,0.00930850761151,0.150861488875,0.0,0.0,0.0,0.0,0.0,0.0,0.0,0.0,0.0,0.0,0.0,0.0,0.0,0.0,0.0,0.0,0.0,0.0,0.0,0.0,0.0,0.0,0.0,0.0,0.0,0.0,0.0,0.0502900564059
1756813074380750000,145,1756813074380750000,map,-3.07536505988,-11.3017288442,0.0,0.0,0.0,0.919495784206,0.393099863684,0.362775078007,0.0293898233045,0.0,0.0,0.0,0.0,0.0293898233045,0.150695330888,0.0,0.0,0.0,0.0,0.0,0.0,0.0,0.0,0.0,0.0,0.0,0.0,0.0,0.0,0.0,0.0,0.0,0.0,0.0,0.0,0.0,0.0,0.0,0.0,0.0,0.0,0.0,0.0555904849167
1756813075179824000,146,1756813075179824000,map,-2.72312878716,-11.5529449778,0.0,0.0,0.0,0.993398062776,0.114718302258,0.41098168917,0.099200534159,0.0,0.0,0.0,0.0,0.099200534159,0.185845750594,0.0,0.0,0.0,0.0,0.0,0.0,0.0,0.0,0.0,0.0,0.0,0.0,0.0,0.0,0.0,0.0,0.0,0.0,0.0,0.0,0.0,0.0,0.0,0.0,0.0,0.0,0.0,0.0549141283004
1756813076047251000,147,1756813076047251000,map,-2.18232814311,-11.6079153152,0.0,0.0,0.0,-0.975096435886,0.22178129029,0.471727186585,0.167940812728,0.0,0.0,0.0,0.0,0.167940812728,0.244878707576,0.0,0.0,0.0,0.0,0.0,0.0,0.0,0.0,0.0,0.0,0.0,0.0,0.0,0.0,0.0,0.0,0.0,0.0,0.0,0.0,0.0,0.0,0.0,0.0,0.0,0.0,0.0,0.0656153567008
1756813077046120000,148,1756813077046120000,map,-1.67853274519,-11.2893823391,0.0,0.0,0.0,-0.918083470344,0.396387110639,0.426973946556,0.183472827914,0.0,0.0,0.0,0.0,0.183472827914,0.320961419517,0.0,0.0,0.0,0.0,0.0,0.0,0.0,0.0,0.0,0.0,0.0,0.0,0.0,0.0,0.0,0.0,0.0,0.0,0.0,0.0,0.0,0.0,0.0,0.0,0.0,0.0,0.0,0.0718351878171
1756813077913127000,149,1756813077913127000,map,-1.34578910533,-10.7973654278,0.0,0.0,0.0,-0.811630599363,0.584171011073,0.34983750438,0.165564191175,0.0,0.0,0.0,0.0,0.165564191175,0.41497781615,0.0,0.0,0.0,0.0,0.0,0.0,0.0,0.0,0.0,0.0,0.0,0.0,0.0,0.0,0.0,0.0,0.0,0.0,0.0,0.0,0.0,0.0,0.0,0.0,0.0,0.0,0.0,0.0807197071199
1756813078580480000,150,1756813078580480000,map,-1.30781880729,-10.4976064464,0.0,0.0,0.0,-0.703501674524,0.710693600606,0.32227502238,0.124077931464,0.0,0.0,0.0,0.0,0.124077931464,0.458502807179,0.0,0.0,0.0,0.0,0.0,0.0,0.0,0.0,0.0,0.0,0.0,0.0,0.0,0.0,0.0,0.0,0.0,0.0,0.0,0.0,0.0,0.0,0.0,0.0,0.0,0.0,0.0,0.0903442185438
1756813079580910000,151,1756813079580910000,map,-1.40148887524,-9.96157371389,0.0,0.0,0.0,-0.582950256779,0.81250784496,0.321582788117,0.0430033458156,0.0,0.0,0.0,0.0,0.0430033458156,0.402038072993,0.0,0.0,0.0,0.0,0.0,0.0,0.0,0.0,0.0,0.0,0.0,0.0,0.0,0.0,0.0,0.0,0.0,0.0,0.0,0.0,0.0,0.0,0.0,0.0,0.0,0.0,0.0,0.0946256650858
1756813080580478000,152,1756813080580478000,map,-1.5970833589,-9.53055977669,0.0,0.0,0.0,-0.426566735233,0.904456090915,0.367604960291,-0.0166884060067,0.0,0.0,0.0,0.0,-0.0166884060067,0.336147787373,0.0,0.0,0.0,0.0,0.0,0.0,0.0,0.0,0.0,0.0,0.0,0.0,0.0,0.0,0.0,0.0,0.0,0.0,0.0,0.0,0.0,0.0,0.0,0.0,0.0,0.0,0.0,0.113417932654
1756813081246746000,153,1756813081246746000,map,-1.43369208666,-9.47779929174,0.0,0.0,0.0,-0.510057844522,0.860140102101,0.772084460419,-0.07407088675,0.0,0.0,0.0,0.0,-0.07407088675,0.275621349033,0.0,0.0,0.0,0.0,0.0,0.0,0.0,0.0,0.0,0.0,0.0,0.0,0.0,0.0,0.0,0.0,0.0,0.0,0.0,0.0,0.0,0.0,0.0,0.0,0.0,0.0,0.0,0.176802265068
1756813082179764000,154,1756813082179764000,map,-1.39640302102,-8.93043714096,0.0,0.0,0.0,-0.582038320082,0.813161357884,1.05592077235,-0.000732145431588,0.0,0.0,0.0,0.0,-0.000732145431584,0.13427477464,0.0,0.0,0.0,0.0,0.0,0.0,0.0,0.0,0.0,0.0,0.0,0.0,0.0,0.0,0.0,0.0,0.0,0.0,0.0,0.0,0.0,0.0,0.0,0.0,0.0,0.0,0.0,0.10790758654
1756813082513595000,155,1756813082513595000,map,-1.36007704219,-8.73130148095,0.0,0.0,0.0,-0.640266672361,0.768152711552,0.917024856863,0.0523720943038,0.0,0.0,0.0,0.0,0.0523720943038,0.0985942962428,0.0,0.0,0.0,0.0,0.0,0.0,0.0,0.0,0.0,0.0,0.0,0.0,0.0,0.0,0.0,0.0,0.0,0.0,0.0,0.0,0.0,0.0,0.0,0.0,0.0,0.0,0.0,0.0379889441903
1756813083647306000,156,1756813083647306000,map,-1.46615204934,-8.02841895461,0.0,0.0,0.0,-0.672956697835,0.739681879485,0.735376999194,0.0599248893874,0.0,0.0,0.0,0.0,0.0599248893874,0.0886530803204,0.0,0.0,0.0,0.0,0.0,0.0,0.0,0.0,0.0,0.0,0.0,0.0,0.0,0.0,0.0,0.0,0.0,0.0,0.0,0.0,0.0,0.0,0.0,0.0,0.0,0.0,0.0,0.0112970105543
1756813084449124000,157,1756813084449124000,map,-1.54768687969,-7.45844463478,0.0,0.0,0.0,-0.661958508276,0.749540481442,0.67639714416,0.0621943308357,0.0,0.0,0.0,0.0,0.0621943308357,0.0890854755057,0.0,0.0,0.0,0.0,0.0,0.0,0.0,0.0,0.0,0.0,0.0,0.0,0.0,0.0,0.0,0.0,0.0,0.0,0.0,0.0,0.0,0.0,0.0,0.0,0.0,0.0,0.0,0.00606618147644
1756813085846942000,158,1756813085846942000,map,-1.66223666889,-6.54311027298,0.0,0.0,0.0,-0.658275626259,0.752776992126,0.67728099178,0.0660862718733,0.0,0.0,0.0,0.0,0.0660862718733,0.0917444637228,0.0,0.0,0.0,0.0,0.0,0.0,0.0,0.0,0.0,0.0,0.0,0.0,0.0,0.0,0.0,0.0,0.0,0.0,0.0,0.0,0.0,0.0,0.0,0.0,0.0,0.0,0.0,0.00562234569793
1756813086713275000,159,1756813086713275000,map,-1.74975370747,-5.99566507209,0.0,0.0,0.0,-0.640284289696,0.768138026899,0.715109840911,0.0715747559611,0.0,0.0,0.0,0.0,0.0715747559611,0.0903025266497,0.0,0.0,0.0,0.0,0.0,0.0,0.0,0.0,0.0,0.0,0.0,0.0,0.0,0.0,0.0,0.0,0.0,0.0,0.0,0.0,0.0,0.0,0.0,0.0,0.0,0.0,0.0,0.00368240606902
1756813087780157000,160,1756813087780157000,map,-1.84610684702,-5.30066296577,0.0,0.0,0.0,-0.638760177617,0.769405897749,0.69574256047,0.0668831311828,0.0,0.0,0.0,0.0,0.0668831311828,0.0909457771951,0.0,0.0,0.0,0.0,0.0,0.0,0.0,0.0,0.0,0.0,0.0,0.0,0.0,0.0,0.0,0.0,0.0,0.0,0.0,0.0,0.0,0.0,0.0,0.0,0.0,0.0,0.0,0.00402566816071
1756813088780602000,161,1756813088780602000,map,-1.97577537668,-4.68343051054,0.0,0.0,0.0,-0.623718530516,0.781649022702,0.707882622794,0.0661362296002,0.0,0.0,0.0,0.0,0.0661362296002,0.0898942178889,0.0,0.0,0.0,0.0,0.0,0.0,0.0,0.0,0.0,0.0,0.0,0.0,0.0,0.0,0.0,0.0,0.0,0.0,0.0,0.0,0.0,0.0,0.0,0.0,0.0,0.0,0.0,0.0041723666931
1756813089713954000,162,1756813089713954000,map,-2.07966204072,-4.09194648735,0.0,0.0,0.0,-0.626203501957,0.779659652757,0.666982532127,0.0627586749121,0.0,0.0,0.0,0.0,0.0627586749121,0.0871554990863,0.0,0.0,0.0,0.0,0.0,0.0,0.0,0.0,0.0,0.0,0.0,0.0,0.0,0.0,0.0,0.0,0.0,0.0,0.0,0.0,0.0,0.0,0.0,0.0,0.0,0.0,0.0,0.0035895087333
1756813090113555000,163,1756813090113555000,map,-2.09944369352,-3.83730471318,0.0,0.0,0.0,-0.626699456204,0.779261054842,0.639315265268,0.0605395532887,0.0,0.0,0.0,0.0,0.0605395532887,0.0942751003962,0.0,0.0,0.0,0.0,0.0,0.0,0.0,0.0,0.0,0.0,0.0,0.0,0.0,0.0,0.0,0.0,0.0,0.0,0.0,0.0,0.0,0.0,0.0,0.0,0.0,0.0,0.0,0.0105188037356
1756813091113980000,164,1756813091113980000,map,-2.21420818685,-3.17623604069,0.0,0.0,0.0,-0.631005722063,0.775778176236,0.610744355884,0.0567187177004,0.0,0.0,0.0,0.0,0.0567187177004,0.0960531624788,0.0,0.0,0.0,0.0,0.0,0.0,0.0,0.0,0.0,0.0,0.0,0.0,0.0,0.0,0.0,0.0,0.0,0.0,0.0,0.0,0.0,0.0,0.0,0.0,0.0,0.0,0.0,0.00720195947752
1756813091846873000,165,1756813091846873000,map,-2.31047953047,-2.70229696687,0.0,0.0,0.0,-0.628553670363,0.777766213893,0.581419461622,0.0494501052514,0.0,0.0,0.0,0.0,0.0494501052514,0.0944932076068,0.0,0.0,0.0,0.0,0.0,0.0,0.0,0.0,0.0,0.0,0.0,0.0,0.0,0.0,0.0,0.0,0.0,0.0,0.0,0.0,0.0,0.0,0.0,0.0,0.0,0.0,0.0,0.004160131089
1756813092913948000,166,1756813092913948000,map,-2.42820585186,-1.99375202291,0.0,0.0,0.0,-0.646235959424,0.763137657797,0.575694854181,0.0529364951215,0.0,0.0,0.0,0.0,0.0529364951215,0.0982409830128,0.0,0.0,0.0,0.0,0.0,0.0,0.0,0.0,0.0,0.0,0.0,0.0,0.0,0.0,0.0,0.0,0.0,0.0,0.0,0.0,0.0,0.0,0.0,0.0,0.0,0.0,0.0,0.00489439056051
1756813095247039000,167,1756813095247039000,map,-2.66632611188,-0.547008243013,0.0,0.0,0.0,-0.636789281189,0.771037879331,0.59072787707,0.0536543907706,0.0,0.0,0.0,0.0,0.0536543907706,0.128331155517,0.0,0.0,0.0,0.0,0.0,0.0,0.0,0.0,0.0,0.0,0.0,0.0,0.0,0.0,0.0,0.0,0.0,0.0,0.0,0.0,0.0,0.0,0.0,0.0,0.0,0.0,0.0,0.050535219312
1756813096313294000,168,1756813096313294000,map,-2.7365705907,0.126841622246,0.0,0.0,0.0,-0.647205640024,0.762315459322,0.591118383002,0.0521439838614,0.0,0.0,0.0,0.0,0.0521439838614,0.129369071444,0.0,0.0,0.0,0.0,0.0,0.0,0.0,0.0,0.0,0.0,0.0,0.0,0.0,0.0,0.0,0.0,0.0,0.0,0.0,0.0,0.0,0.0,0.0,0.0,0.0,0.0,0.0,0.0274601226191
1756813097180525000,169,1756813097180525000,map,-2.74656620706,0.734632271497,0.0,0.0,0.0,-0.661790007958,0.749689259205,0.54851701401,0.0353533340323,0.0,0.0,0.0,0.0,0.0353533340323,0.125220974048,0.0,0.0,0.0,0.0,0.0,0.0,0.0,0.0,0.0,0.0,0.0,0.0,0.0,0.0,0.0,0.0,0.0,0.0,0.0,0.0,0.0,0.0,0.0,0.0,0.0,0.0,0.0,0.00869322567823
1756813098313653000,170,1756813098313653000,map,-2.79805514589,1.46424174166,0.0,0.0,0.0,-0.671515242445,0.740990741618,0.511462591719,0.0236485000352,0.0,0.0,0.0,0.0,0.0236485000352,0.119782273005,0.0,0.0,0.0,0.0,0.0,0.0,0.0,0.0,0.0,0.0,0.0,0.0,0.0,0.0,0.0,0.0,0.0,0.0,0.0,0.0,0.0,0.0,0.0,0.0,0.0,0.0,0.0,0.00450117730466
1756813099647341000,171,1756813099647341000,map,-2.81140938628,2.33478740477,0.0,0.0,0.0,-0.688054251678,0.72565924975,0.503247520395,0.0190888145727,0.0,0.0,0.0,0.0,0.0190888145727,0.123252118889,0.0,0.0,0.0,0.0,0.0,0.0,0.0,0.0,0.0,0.0,0.0,0.0,0.0,0.0,0.0,0.0,0.0,0.0,0.0,0.0,0.0,0.0,0.0,0.0,0.0,0.0,0.0,0.00923788515733
1756813100448707000,172,1756813100448707000,map,-2.87464441422,2.82762406681,0.0,0.0,0.0,-0.638725998748,0.769434271737,0.44531891888,0.00975522555201,0.0,0.0,0.0,0.0,0.00975522555201,0.127882051377,0.0,0.0,0.0,0.0,0.0,0.0,0.0,0.0,0.0,0.0,0.0,0.0,0.0,0.0,0.0,0.0,0.0,0.0,0.0,0.0,0.0,0.0,0.0,0.0,0.0,0.0,0.0,0.00572960644649
1756813101246436000,173,1756813101246436000,map,-2.93104575591,3.33071705781,0.0,0.0,0.0,-0.638460216668,0.769654826355,0.417999275431,0.00656599560402,0.0,0.0,0.0,0.0,0.00656599560402,0.127577459586,0.0,0.0,0.0,0.0,0.0,0.0,0.0,0.0,0.0,0.0,0.0,0.0,0.0,0.0,0.0,0.0,0.0,0.0,0.0,0.0,0.0,0.0,0.0,0.0,0.0,0.0,0.0,0.00312844566942
1756813102380043000,174,1756813102380043000,map,-3.0409947179,4.09366111968,0.0,0.0,0.0,-0.642566844468,0.766229632937,0.380078658149,0.00500008513162,0.0,0.0,0.0,0.0,0.00500008513162,0.127707356685,0.0,0.0,0.0,0.0,0.0,0.0,0.0,0.0,0.0,0.0,0.0,0.0,0.0,0.0,0.0,0.0,0.0,0.0,0.0,0.0,0.0,0.0,0.0,0.0,0.0,0.0,0.0,0.00450197643078
1756813103313181000,175,1756813103313181000,map,-3.15998815005,4.64539291583,0.0,0.0,0.0,-0.630977894051,0.775800810272,0.373409537923,0.0094541239726,0.0,0.0,0.0,0.0,0.0094541239726,0.121959350111,0.0,0.0,0.0,0.0,0.0,0.0,0.0,0.0,0.0,0.0,0.0,0.0,0.0,0.0,0.0,0.0,0.0,0.0,0.0,0.0,0.0,0.0,0.0,0.0,0.0,0.0,0.0,0.0046681771191
1756813104179838000,176,1756813104179838000,map,-3.25625216135,5.22635306078,0.0,0.0,0.0,-0.630660758354,0.776058636878,0.330644603754,0.00724737608656,0.0,0.0,0.0,0.0,0.00724737608656,0.121891777745,0.0,0.0,0.0,0.0,0.0,0.0,0.0,0.0,0.0,0.0,0.0,0.0,0.0,0.0,0.0,0.0,0.0,0.0,0.0,0.0,0.0,0.0,0.0,0.0,0.0,0.0,0.0,0.00336063816926
1756813104846643000,177,1756813104846643000,map,-3.31966460202,5.59342702942,0.0,0.0,0.0,-0.629394824494,0.77708568054,0.291729200616,0.00279495355373,0.0,0.0,0.0,0.0,0.00279495355373,0.121351308747,0.0,0.0,0.0,0.0,0.0,0.0,0.0,0.0,0.0,0.0,0.0,0.0,0.0,0.0,0.0,0.0,0.0,0.0,0.0,0.0,0.0,0.0,0.0,0.0,0.0,0.0,0.0,0.00245373805205
1756813105846358000,178,1756813105846358000,map,-3.4199021342,6.2021322792,0.0,0.0,0.0,-0.636016662307,0.771675323739,0.270437236451,-0.00227586058419,0.0,0.0,0.0,0.0,-0.00227586058419,0.116271525484,0.0,0.0,0.0,0.0,0.0,0.0,0.0,0.0,0.0,0.0,0.0,0.0,0.0,0.0,0.0,0.0,0.0,0.0,0.0,0.0,0.0,0.0,0.0,0.0,0.0,0.0,0.0,0.00458986761256
1756813106512975000,179,1756813106512975000,map,-3.50650962696,6.63656499329,0.0,0.0,0.0,-0.630568176294,0.776133864127,0.221220919718,-0.00301156200888,0.0,0.0,0.0,0.0,-0.00301156200888,0.109598184092,0.0,0.0,0.0,0.0,0.0,0.0,0.0,0.0,0.0,0.0,0.0,0.0,0.0,0.0,0.0,0.0,0.0,0.0,0.0,0.0,0.0,0.0,0.0,0.0,0.0,0.0,0.0,0.00389134294023
1756813107313615000,180,1756813107313615000,map,-3.56430998996,7.07278738407,0.0,0.0,0.0,-0.636673626146,0.771133382606,0.190961690538,-0.00783643524979,0.0,0.0,0.0,0.0,-0.00783643524979,0.0985452522173,0.0,0.0,0.0,0.0,0.0,0.0,0.0,0.0,0.0,0.0,0.0,0.0,0.0,0.0,0.0,0.0,0.0,0.0,0.0,0.0,0.0,0.0,0.0,0.0,0.0,0.0,0.0,0.00314478530081
