%time,field.header.seq,field.header.stamp,field.header.frame_id,field.pose.pose.position.x,field.pose.pose.position.y,field.pose.pose.position.z,field.pose.pose.orientation.x,field.pose.pose.orientation.y,field.pose.pose.orientation.z,field.pose.pose.orientation.w,field.pose.covariance0,field.pose.covariance1,field.pose.covariance2,field.pose.covariance3,field.pose.covariance4,field.pose.covariance5,field.pose.covariance6,field.pose.covariance7,field.pose.covariance8,field.pose.covariance9,field.pose.covariance10,field.pose.covariance11,field.pose.covariance12,field.pose.covariance13,field.pose.covariance14,field.pose.covariance15,field.pose.covariance16,field.pose.covariance17,field.pose.covariance18,field.pose.covariance19,field.pose.covariance20,field.pose.covariance21,field.pose.covariance22,field.pose.covariance23,field.pose.covariance24,field.pose.covariance25,field.pose.covariance26,field.pose.covariance27,field.pose.covariance28,field.pose.covariance29,field.pose.covariance30,field.pose.covariance31,field.pose.covariance32,field.pose.covariance33,field.pose.covariance34,field.pose.covariance35
1756813888776772000,821,1756813888776772000,map,-8.56857257183,-11.1088225387,0.0,0.0,0.0,0.789400670088,0.613878312099,0.048704092943,-0.0118412677366,0.0,0.0,0.0,0.0,-0.0118412677366,0.141086422203,0.0,0.0,0.0,0.0,0.0,0.0,0.0,0.0,0.0,0.0,0.0,0.0,0.0,0.0,0.0,0.0,0.0,0.0,0.0,0.0,0.0,0.0,0.0,0.0,0.0,0.0,0.0,0.0147935069162
1756813460378266000,822,1756813460378266000,map,11.2561067674,9.76914909506,0.0,0.0,0.0,0.746527550513,0.665354504249,0.256332662325,0.0002161678986,0.0,0.0,0.0,0.0,0.0002161678986,0.253972347964,0.0,0.0,0.0,0.0,0.0,0.0,0.0,0.0,0.0,0.0,0.0,0.0,0.0,0.0,0.0,0.0,0.0,0.0,0.0,0.0,0.0,0.0,0.0,0.0,0.0,0.0,0.0,0.0679479682192
1756813461112223000,823,1756813461112223000,map,11.2915567278,9.32459699021,0.0,0.0,0.0,0.747829567618,0.663890757427,0.16408266639,-0.0102798533575,0.0,0.0,0.0,0.0,-0.0102798533575,0.242554011327,0.0,0.0,0.0,0.0,0.0,0.0,0.0,0.0,0.0,0.0,0.0,0.0,0.0,0.0,0.0,0.0,0.0,0.0,0.0,0.0,0.0,0.0,0.0,0.0,0.0,0.0,0.0,0.0542039766464
1756813462845003000,824,1756813462845003000,map,11.5194479632,8.3603970895,0.0,0.0,0.0,0.787342990029,0.616515219643,0.216326735954,0.0139371262016,0.0,0.0,0.0,0.0,0.0139371262016,0.231204198064,0.0,0.0,0.0,0.0,0.0,0.0,0.0,0.0,0.0,0.0,0.0,0.0,0.0,0.0,0.0,0.0,0.0,0.0,0.0,0.0,0.0,0.0,0.0,0.0,0.0,0.0,0.0,0.0654999153851
1756813464112269000,825,1756813464112269000,map,11.6135851691,7.59438458052,0.0,0.0,0.0,0.780689856117,0.624918673554,0.156934721681,0.0063872172588,0.0,0.0,0.0,0.0,0.0063872172588,0.21496273531,0.0,0.0,0.0,0.0,0.0,0.0,0.0,0.0,0.0,0.0,0.0,0.0,0.0,0.0,0.0,0.0,0.0,0.0,0.0,0.0,0.0,0.0,0.0,0.0,0.0,0.0,0.0,0.0342756431644
1756813465178840000,826,1756813465178840000,map,11.6355496658,6.90212729185,0.0,0.0,0.0,0.780221330532,0.625503537466,0.0642493240734,-0.0137963639114,0.0,0.0,0.0,0.0,-0.0137963639114,0.19067965305,0.0,0.0,0.0,0.0,0.0,0.0,0.0,0.0,0.0,0.0,0.0,0.0,0.0,0.0,0.0,0.0,0.0,0.0,0.0,0.0,0.0,0.0,0.0,0.0,0.0,0.0,0.0,0.0147225528535
1756813466045662000,827,1756813466045662000,map,11.7340661242,6.36895858263,0.0,0.0,0.0,0.779990866573,0.625790898034,0.0197013226133,-0.0259379275621,0.0,0.0,0.0,0.0,-0.0259379275621,0.18819235921,0.0,0.0,0.0,0.0,0.0,0.0,0.0,0.0,0.0,0.0,0.0,0.0,0.0,0.0,0.0,0.0,0.0,0.0,0.0,0.0,0.0,0.0,0.0,0.0,0.0,0.0,0.0,0.00680590181236
1756813466978916000,828,1756813466978916000,map,11.8502716683,5.77872270521,0.0,0.0,0.0,0.777741352628,0.628584432207,0.012174011283,-0.0260896237325,0.0,0.0,0.0,0.0,-0.0260896237325,0.185722680789,0.0,0.0,0.0,0.0,0.0,0.0,0.0,0.0,0.0,0.0,0.0,0.0,0.0,0.0,0.0,0.0,0.0,0.0,0.0,0.0,0.0,0.0,0.0,0.0,0.0,0.0,0.0,0.00420869241855
1756813467712273000,829,1756813467712273000,map,11.9440300778,5.35668019808,0.0,0.0,0.0,0.779033707696,0.626982043023,0.0102974217881,-0.0262517959832,0.0,0.0,0.0,0.0,-0.0262517959832,0.183733904482,0.0,0.0,0.0,0.0,0.0,0.0,0.0,0.0,0.0,0.0,0.0,0.0,0.0,0.0,0.0,0.0,0.0,0.0,0.0,0.0,0.0,0.0,0.0,0.0,0.0,0.0,0.0,0.00295001270899
1756813467978283000,830,1756813467978283000,map,11.9821363879,5.18654233398,0.0,0.0,0.0,0.777927619667,0.628353895954,0.00832151889688,-0.0261601908407,0.0,0.0,0.0,0.0,-0.0261601908407,0.186096874737,0.0,0.0,0.0,0.0,0.0,0.0,0.0,0.0,0.0,0.0,0.0,0.0,0.0,0.0,0.0,0.0,0.0,0.0,0.0,0.0,0.0,0.0,0.0,0.0,0.0,0.0,0.0,0.00389777741344
1756813469178370000,831,1756813469178370000,map,12.1376028059,4.39128270839,0.0,0.0,0.0,0.776892412871,0.629633368576,0.0109535001156,-0.0273141628783,0.0,0.0,0.0,0.0,-0.0273141628783,0.191535030285,0.0,0.0,0.0,0.0,0.0,0.0,0.0,0.0,0.0,0.0,0.0,0.0,0.0,0.0,0.0,0.0,0.0,0.0,0.0,0.0,0.0,0.0,0.0,0.0,0.0,0.0,0.0,0.00535005195327
1756813469978333000,832,1756813469978333000,map,12.2417261373,3.86896715384,0.0,0.0,0.0,0.773988953029,0.633199100275,0.0131536887001,-0.0271195559875,0.0,0.0,0.0,0.0,-0.0271195559875,0.186247990778,0.0,0.0,0.0,0.0,0.0,0.0,0.0,0.0,0.0,0.0,0.0,0.0,0.0,0.0,0.0,0.0,0.0,0.0,0.0,0.0,0.0,0.0,0.0,0.0,0.0,0.0,0.0,0.00407337300624
1756813470645015000,833,1756813470645015000,map,12.31117813,3.43692752798,0.0,0.0,0.0,0.771759710478,0.635914262525,0.0110991026802,-0.0283623083338,0.0,0.0,0.0,0.0,-0.0283623083338,0.188048857515,0.0,0.0,0.0,0.0,0.0,0.0,0.0,0.0,0.0,0.0,0.0,0.0,0.0,0.0,0.0,0.0,0.0,0.0,0.0,0.0,0.0,0.0,0.0,0.0,0.0,0.0,0.0,0.00210866097148
1756813471378400000,834,1756813471378400000,map,12.3849270297,3.01823380667,0.0,0.0,0.0,0.771699583237,0.635987227255,0.0102618685888,-0.0287511278817,0.0,0.0,0.0,0.0,-0.0287511278817,0.190457487216,0.0,0.0,0.0,0.0,0.0,0.0,0.0,0.0,0.0,0.0,0.0,0.0,0.0,0.0,0.0,0.0,0.0,0.0,0.0,0.0,0.0,0.0,0.0,0.0,0.0,0.0,0.0,0.00176890172431
1756813472045046000,835,1756813472045046000,map,12.4612002107,2.54797479524,0.0,0.0,0.0,0.771356344525,0.636403480318,0.00865321837935,-0.0288841487249,0.0,0.0,0.0,0.0,-0.0288841487249,0.196417366469,0.0,0.0,0.0,0.0,0.0,0.0,0.0,0.0,0.0,0.0,0.0,0.0,0.0,0.0,0.0,0.0,0.0,0.0,0.0,0.0,0.0,0.0,0.0,0.0,0.0,0.0,0.0,0.00146102650589
1756813472845910000,836,1756813472845910000,map,12.5518308216,2.04568326595,0.0,0.0,0.0,0.771940053494,0.635695330966,0.00823885032773,-0.0284493049949,0.0,0.0,0.0,0.0,-0.0284493049949,0.195603035517,0.0,0.0,0.0,0.0,0.0,0.0,0.0,0.0,0.0,0.0,0.0,0.0,0.0,0.0,0.0,0.0,0.0,0.0,0.0,0.0,0.0,0.0,0.0,0.0,0.0,0.0,0.0,0.00163468242931
1756813473512351000,837,1756813473512351000,map,12.6397620159,1.6106562481,0.0,0.0,0.0,0.77613271705,0.63056958817,0.00890170014648,-0.0285215421039,0.0,0.0,0.0,0.0,-0.0285215421039,0.193604263184,0.0,0.0,0.0,0.0,0.0,0.0,0.0,0.0,0.0,0.0,0.0,0.0,0.0,0.0,0.0,0.0,0.0,0.0,0.0,0.0,0.0,0.0,0.0,0.0,0.0,0.0,0.0,0.00183215059483
1756813474378861000,838,1756813474378861000,map,12.7353728585,1.09888443232,0.0,0.0,0.0,0.774597047856,0.632455068327,0.0095098454623,-0.0286776461302,0.0,0.0,0.0,0.0,-0.0286776461302,0.19594783145,0.0,0.0,0.0,0.0,0.0,0.0,0.0,0.0,0.0,0.0,0.0,0.0,0.0,0.0,0.0,0.0,0.0,0.0,0.0,0.0,0.0,0.0,0.0,0.0,0.0,0.0,0.0,0.00233212615073
1756813475045753000,839,1756813475045753000,map,12.8216515136,0.669248667595,0.0,0.0,0.0,0.780143506556,0.625600598768,0.00960516949431,-0.0292557971486,0.0,0.0,0.0,0.0,-0.0292557971486,0.19295691241,0.0,0.0,0.0,0.0,0.0,0.0,0.0,0.0,0.0,0.0,0.0,0.0,0.0,0.0,0.0,0.0,0.0,0.0,0.0,0.0,0.0,0.0,0.0,0.0,0.0,0.0,0.0,0.00192526040881
1756813475978871000,840,1756813475978871000,map,12.9201279282,0.106849523432,0.0,0.0,0.0,0.777479276254,0.628908558532,0.0109386163936,-0.029864223541,0.0,0.0,0.0,0.0,-0.029864223541,0.190378633974,0.0,0.0,0.0,0.0,0.0,0.0,0.0,0.0,0.0,0.0,0.0,0.0,0.0,0.0,0.0,0.0,0.0,0.0,0.0,0.0,0.0,0.0,0.0,0.0,0.0,0.0,0.0,0.00271926761085
1756813476778366000,841,1756813476778366000,map,13.0210513391,-0.394505089729,0.0,0.0,0.0,0.777832584212,0.628471535504,0.0111054546736,-0.0283910828688,0.0,0.0,0.0,0.0,-0.0283910828688,0.187559276025,0.0,0.0,0.0,0.0,0.0,0.0,0.0,0.0,0.0,0.0,0.0,0.0,0.0,0.0,0.0,0.0,0.0,0.0,0.0,0.0,0.0,0.0,0.0,0.0,0.0,0.0,0.0,0.00245676216801
1756813477579124000,842,1756813477579124000,map,13.0949043267,-0.840681626785,0.0,0.0,0.0,0.77656589581,0.630036038227,0.0122177199132,-0.0285999341063,0.0,0.0,0.0,0.0,-0.0285999341063,0.187702948961,0.0,0.0,0.0,0.0,0.0,0.0,0.0,0.0,0.0,0.0,0.0,0.0,0.0,0.0,0.0,0.0,0.0,0.0,0.0,0.0,0.0,0.0,0.0,0.0,0.0,0.0,0.0,0.00239027082942
1756813478447511000,843,1756813478447511000,map,13.1843538742,-1.37941902243,0.0,0.0,0.0,0.773376061843,0.633947526984,0.0115296332846,-0.028047870355,0.0,0.0,0.0,0.0,-0.028047870355,0.188296279304,0.0,0.0,0.0,0.0,0.0,0.0,0.0,0.0,0.0,0.0,0.0,0.0,0.0,0.0,0.0,0.0,0.0,0.0,0.0,0.0,0.0,0.0,0.0,0.0,0.0,0.0,0.0,0.00211963971905
1756813479178499000,844,1756813479178499000,map,13.259937417,-1.85240418925,0.0,0.0,0.0,0.77371136127,0.633538262019,0.0121332842402,-0.0279460067821,0.0,0.0,0.0,0.0,-0.0279460067821,0.186731351166,0.0,0.0,0.0,0.0,0.0,0.0,0.0,0.0,0.0,0.0,0.0,0.0,0.0,0.0,0.0,0.0,0.0,0.0,0.0,0.0,0.0,0.0,0.0,0.0,0.0,0.0,0.0,0.00201616854321
1756813479845280000,845,1756813479845280000,map,13.3149196012,-2.26215059975,0.0,0.0,0.0,0.768501210913,0.639848332674,0.0107515308501,-0.0275898339118,0.0,0.0,0.0,0.0,-0.0275898339118,0.181798720067,0.0,0.0,0.0,0.0,0.0,0.0,0.0,0.0,0.0,0.0,0.0,0.0,0.0,0.0,0.0,0.0,0.0,0.0,0.0,0.0,0.0,0.0,0.0,0.0,0.0,0.0,0.0,0.0018492481095
1756813480711917000,846,1756813480711917000,map,13.395855775,-2.79768002363,0.0,0.0,0.0,0.760704127595,0.649098783129,0.0103002597658,-0.0275217790113,0.0,0.0,0.0,0.0,-0.0275217790113,0.179438451931,0.0,0.0,0.0,0.0,0.0,0.0,0.0,0.0,0.0,0.0,0.0,0.0,0.0,0.0,0.0,0.0,0.0,0.0,0.0,0.0,0.0,0.0,0.0,0.0,0.0,0.0,0.0,0.00259555006881
1756813481977919000,847,1756813481977919000,map,13.5085583673,-3.56259010768,0.0,0.0,0.0,0.767713092092,0.640793732983,0.0137660616486,-0.0262828649425,0.0,0.0,0.0,0.0,-0.0262828649425,0.182260866851,0.0,0.0,0.0,0.0,0.0,0.0,0.0,0.0,0.0,0.0,0.0,0.0,0.0,0.0,0.0,0.0,0.0,0.0,0.0,0.0,0.0,0.0,0.0,0.0,0.0,0.0,0.0,0.00956081767635
1756813482978535000,848,1756813482978535000,map,13.6298996363,-4.23593111409,0.0,0.0,0.0,0.770031099071,0.638006352996,0.0219560737398,-0.0252534093791,0.0,0.0,0.0,0.0,-0.0252534093791,0.188695872926,0.0,0.0,0.0,0.0,0.0,0.0,0.0,0.0,0.0,0.0,0.0,0.0,0.0,0.0,0.0,0.0,0.0,0.0,0.0,0.0,0.0,0.0,0.0,0.0,0.0,0.0,0.0,0.0083779173823
1756813483711474000,849,1756813483711474000,map,13.6757293028,-4.72688197679,0.0,0.0,0.0,0.765083864975,0.643930648095,0.0232861231024,-0.0237302372573,0.0,0.0,0.0,0.0,-0.0237302372573,0.18506916289,0.0,0.0,0.0,0.0,0.0,0.0,0.0,0.0,0.0,0.0,0.0,0.0,0.0,0.0,0.0,0.0,0.0,0.0,0.0,0.0,0.0,0.0,0.0,0.0,0.0,0.0,0.0,0.00632430337635
1756813486511854000,850,1756813486511854000,map,13.7718641925,-6.33113155433,0.0,0.0,0.0,0.733324138611,0.679879186128,0.418344140788,0.00558774138958,0.0,0.0,0.0,0.0,0.00558774138958,0.387959556622,0.0,0.0,0.0,0.0,0.0,0.0,0.0,0.0,0.0,0.0,0.0,0.0,0.0,0.0,0.0,0.0,0.0,0.0,0.0,0.0,0.0,0.0,0.0,0.0,0.0,0.0,0.0,0.271231554397
1756813487578779000,851,1756813487578779000,map,13.9473552687,-6.94732352964,0.0,0.0,0.0,0.757308083848,0.653057781624,0.770149018303,0.0606037155138,0.0,0.0,0.0,0.0,0.0606037155138,0.444009969078,0.0,0.0,0.0,0.0,0.0,0.0,0.0,0.0,0.0,0.0,0.0,0.0,0.0,0.0,0.0,0.0,0.0,0.0,0.0,0.0,0.0,0.0,0.0,0.0,0.0,0.0,0.0,0.231638853909
1756813488644791000,852,1756813488644791000,map,14.1434813151,-7.58924134035,0.0,0.0,0.0,0.765374366263,0.643585331923,0.992119408391,0.143211832475,0.0,0.0,0.0,0.0,0.143211832475,0.522685358877,0.0,0.0,0.0,0.0,0.0,0.0,0.0,0.0,0.0,0.0,0.0,0.0,0.0,0.0,0.0,0.0,0.0,0.0,0.0,0.0,0.0,0.0,0.0,0.0,0.0,0.0,0.0,0.182562970585
1756813489912054000,853,1756813489912054000,map,14.098773514,-8.32779653539,0.0,0.0,0.0,0.737791303272,0.67502888295,1.43390900872,0.194030294091,0.0,0.0,0.0,0.0,0.194030294091,0.604849232579,0.0,0.0,0.0,0.0,0.0,0.0,0.0,0.0,0.0,0.0,0.0,0.0,0.0,0.0,0.0,0.0,0.0,0.0,0.0,0.0,0.0,0.0,0.0,0.0,0.0,0.0,0.0,0.163647750807
1756813491245467000,854,1756813491245467000,map,14.3262490314,-9.08766507404,0.0,0.0,0.0,0.745392702059,0.666625621858,1.91669251855,0.21356404194,0.0,0.0,0.0,0.0,0.21356404194,0.701147424516,0.0,0.0,0.0,0.0,0.0,0.0,0.0,0.0,0.0,0.0,0.0,0.0,0.0,0.0,0.0,0.0,0.0,0.0,0.0,0.0,0.0,0.0,0.0,0.0,0.0,0.0,0.0,0.155882931293
1756813491911664000,855,1756813491911664000,map,14.0645613276,-9.45770691102,0.0,0.0,0.0,0.673279675127,0.739387908382,1.69147455639,-0.014796770556,0.0,0.0,0.0,0.0,-0.0147967705559,0.589194987729,0.0,0.0,0.0,0.0,0.0,0.0,0.0,0.0,0.0,0.0,0.0,0.0,0.0,0.0,0.0,0.0,0.0,0.0,0.0,0.0,0.0,0.0,0.0,0.0,0.0,0.0,0.0,0.116648294345
1756813492911474000,856,1756813492911474000,map,13.9043354905,-9.977187372,0.0,0.0,0.0,0.639636521258,0.768677514094,2.52049793222,-0.454367293504,0.0,0.0,0.0,0.0,-0.454367293504,0.733752467112,0.0,0.0,0.0,0.0,0.0,0.0,0.0,0.0,0.0,0.0,0.0,0.0,0.0,0.0,0.0,0.0,0.0,0.0,0.0,0.0,0.0,0.0,0.0,0.0,0.0,0.0,0.0,0.13464160472
1756813494111069000,857,1756813494111069000,map,13.6792583794,-10.5291522773,0.0,0.0,0.0,0.43216055203,0.901796682889,6.48801454527,-2.94159945759,0.0,0.0,0.0,0.0,-2.94159945759,2.17814721065,0.0,0.0,0.0,0.0,0.0,0.0,0.0,0.0,0.0,0.0,0.0,0.0,0.0,0.0,0.0,0.0,0.0,0.0,0.0,0.0,0.0,0.0,0.0,0.0,0.0,0.0,0.0,0.285136349678
1756813495377724000,858,1756813495377724000,map,7.5018869873,-7.02763030161,0.0,0.0,0.0,-0.544093201953,0.839024783656,7.68207303208,-5.04796060021,0.0,0.0,0.0,0.0,-5.04796060021,4.321163672,0.0,0.0,0.0,0.0,0.0,0.0,0.0,0.0,0.0,0.0,0.0,0.0,0.0,0.0,0.0,0.0,0.0,0.0,0.0,0.0,0.0,0.0,0.0,0.0,0.0,0.0,0.0,0.377929203696
1756813496511357000,859,1756813496511357000,map,7.55724638658,-6.18904815126,0.0,0.0,0.0,-0.864159825444,0.503217444142,5.98711105782,-5.36681270235,0.0,0.0,0.0,0.0,-5.36681270235,5.89782581393,0.0,0.0,0.0,0.0,0.0,0.0,0.0,0.0,0.0,0.0,0.0,0.0,0.0,0.0,0.0,0.0,0.0,0.0,0.0,0.0,0.0,0.0,0.0,0.0,0.0,0.0,0.0,0.431585980416
1756813497446823000,860,1756813497446823000,map,8.05298826606,-5.68928211692,0.0,0.0,0.0,-0.988592376226,0.150615781606,3.30311500607,-3.40467034764,0.0,0.0,0.0,0.0,-3.40467034764,4.61313282003,0.0,0.0,0.0,0.0,0.0,0.0,0.0,0.0,0.0,0.0,0.0,0.0,0.0,0.0,0.0,0.0,0.0,0.0,0.0,0.0,0.0,0.0,0.0,0.0,0.0,0.0,0.0,0.361072275978
1756813498644852000,861,1756813498644852000,map,8.84112857577,-5.51997911134,0.0,0.0,0.0,-0.997194569065,0.0748531323786,1.18117907631,-1.06765391763,0.0,0.0,0.0,0.0,-1.06765391763,1.74164562505,0.0,0.0,0.0,0.0,0.0,0.0,0.0,0.0,0.0,0.0,0.0,0.0,0.0,0.0,0.0,0.0,0.0,0.0,0.0,0.0,0.0,0.0,0.0,0.0,0.0,0.0,0.0,0.199705394546
1756813499711328000,862,1756813499711328000,map,9.56406147986,-5.42468676144,0.0,0.0,0.0,0.999782415849,0.020859553194,0.466422158293,-0.303187907098,0.0,0.0,0.0,0.0,-0.303187907098,0.671302123655,0.0,0.0,0.0,0.0,0.0,0.0,0.0,0.0,0.0,0.0,0.0,0.0,0.0,0.0,0.0,0.0,0.0,0.0,0.0,0.0,0.0,0.0,0.0,0.0,0.0,0.0,0.0,0.135698159337
1756813500644729000,863,1756813500644729000,map,10.202464921,-5.39635256761,0.0,0.0,0.0,0.999353908318,0.0359411453645,0.387201821527,-0.246097916224,0.0,0.0,0.0,0.0,-0.246097916224,0.481878718484,0.0,0.0,0.0,0.0,0.0,0.0,0.0,0.0,0.0,0.0,0.0,0.0,0.0,0.0,0.0,0.0,0.0,0.0,0.0,0.0,0.0,0.0,0.0,0.0,0.0,0.0,0.0,0.141857125013
1756813501645296000,864,1756813501645296000,map,10.8536542799,-5.41848460518,0.0,0.0,0.0,0.998988387995,0.0449688853595,0.333478380471,-0.200532662522,0.0,0.0,0.0,0.0,-0.200532662522,0.407249268958,0.0,0.0,0.0,0.0,0.0,0.0,0.0,0.0,0.0,0.0,0.0,0.0,0.0,0.0,0.0,0.0,0.0,0.0,0.0,0.0,0.0,0.0,0.0,0.0,0.0,0.0,0.0,0.124036296783
1756813502844857000,865,1756813502844857000,map,11.666117785,-5.44712765232,0.0,0.0,0.0,0.999993305824,0.00365900367974,0.184798783468,-0.15617268757,0.0,0.0,0.0,0.0,-0.15617268757,0.43774490945,0.0,0.0,0.0,0.0,0.0,0.0,0.0,0.0,0.0,0.0,0.0,0.0,0.0,0.0,0.0,0.0,0.0,0.0,0.0,0.0,0.0,0.0,0.0,0.0,0.0,0.0,0.0,0.108434667469
1756813504512143000,866,1756813504512143000,map,12.789401327,-5.52147948226,0.0,0.0,0.0,0.99939473807,0.0347873183576,0.145811445191,-0.159313444926,0.0,0.0,0.0,0.0,-0.159313444926,0.733628064953,0.0,0.0,0.0,0.0,0.0,0.0,0.0,0.0,0.0,0.0,0.0,0.0,0.0,0.0,0.0,0.0,0.0,0.0,0.0,0.0,0.0,0.0,0.0,0.0,0.0,0.0,0.0,0.0945908094864
1756813505778122000,867,1756813505778122000,map,13.4304227906,-5.27883539652,0.0,0.0,0.0,-0.998748895569,0.0500064355893,0.236139574602,-0.329429628879,0.0,0.0,0.0,0.0,-0.329429628879,1.25663158789,0.0,0.0,0.0,0.0,0.0,0.0,0.0,0.0,0.0,0.0,0.0,0.0,0.0,0.0,0.0,0.0,0.0,0.0,0.0,0.0,0.0,0.0,0.0,0.0,0.0,0.0,0.0,0.138560764033
1756813506711689000,868,1756813506711689000,map,13.9592253524,-5.01370199181,0.0,0.0,0.0,-0.999152145599,0.0411702555954,0.344177119727,-0.512735416195,0.0,0.0,0.0,0.0,-0.512735416195,1.77487643237,0.0,0.0,0.0,0.0,0.0,0.0,0.0,0.0,0.0,0.0,0.0,0.0,0.0,0.0,0.0,0.0,0.0,0.0,0.0,0.0,0.0,0.0,0.0,0.0,0.0,0.0,0.0,0.231322972037
1756813508711649000,869,1756813508711649000,map,14.9431065903,-4.449380817,0.0,0.0,0.0,-0.991786249273,0.127906355406,0.933465070579,-1.26032782803,0.0,0.0,0.0,0.0,-1.26032782803,3.4797467258,0.0,0.0,0.0,0.0,0.0,0.0,0.0,0.0,0.0,0.0,0.0,0.0,0.0,0.0,0.0,0.0,0.0,0.0,0.0,0.0,0.0,0.0,0.0,0.0,0.0,0.0,0.0,0.516315867259
1756813509645156000,870,1756813509645156000,map,13.0763621984,-2.59289108978,0.0,0.0,0.0,-0.673723808081,0.738983240963,1.58913268154,-1.73950389147,0.0,0.0,0.0,0.0,-1.73950389147,3.6948088751,0.0,0.0,0.0,0.0,0.0,0.0,0.0,0.0,0.0,0.0,0.0,0.0,0.0,0.0,0.0,0.0,0.0,0.0,0.0,0.0,0.0,0.0,0.0,0.0,0.0,0.0,0.0,0.695044707197
1756813510511622000,871,1756813510511622000,map,13.0251826073,-2.22356732796,0.0,0.0,0.0,-0.657134930629,0.753772965121,1.42795609943,-1.29277950921,0.0,0.0,0.0,0.0,-1.29277950921,2.17485143935,0.0,0.0,0.0,0.0,0.0,0.0,0.0,0.0,0.0,0.0,0.0,0.0,0.0,0.0,0.0,0.0,0.0,0.0,0.0,0.0,0.0,0.0,0.0,0.0,0.0,0.0,0.0,0.387470705614
1756813511512092000,872,1756813511512092000,map,12.9207239056,-1.66072858892,0.0,0.0,0.0,-0.64423278343,0.764829471682,0.54452574375,-0.436174206696,0.0,0.0,0.0,0.0,-0.436174206696,0.794656114607,0.0,0.0,0.0,0.0,0.0,0.0,0.0,0.0,0.0,0.0,0.0,0.0,0.0,0.0,0.0,0.0,0.0,0.0,0.0,0.0,0.0,0.0,0.0,0.0,0.0,0.0,0.0,0.0899932327476
1756813512378271000,873,1756813512378271000,map,12.8589695856,-1.22621321931,0.0,0.0,0.0,-0.637636547239,0.770337350532,0.146287073417,-0.131852431738,0.0,0.0,0.0,0.0,-0.131852431738,0.330019514985,0.0,0.0,0.0,0.0,0.0,0.0,0.0,0.0,0.0,0.0,0.0,0.0,0.0,0.0,0.0,0.0,0.0,0.0,0.0,0.0,0.0,0.0,0.0,0.0,0.0,0.0,0.0,0.017945539174
1756813513446781000,874,1756813513446781000,map,12.7240860765,-0.471336924198,0.0,0.0,0.0,-0.645055465695,0.764135751144,0.0291321980356,-0.0383820109001,0.0,0.0,0.0,0.0,-0.0383820109001,0.209501880671,0.0,0.0,0.0,0.0,0.0,0.0,0.0,0.0,0.0,0.0,0.0,0.0,0.0,0.0,0.0,0.0,0.0,0.0,0.0,0.0,0.0,0.0,0.0,0.0,0.0,0.0,0.0,0.0050813407348
1756813514447155000,875,1756813514447155000,map,12.6441278412,0.0867084594292,0.0,0.0,0.0,-0.646998364765,0.762491387487,0.0111979482503,-0.0282352288502,0.0,0.0,0.0,0.0,-0.0282352288502,0.189141373863,0.0,0.0,0.0,0.0,0.0,0.0,0.0,0.0,0.0,0.0,0.0,0.0,0.0,0.0,0.0,0.0,0.0,0.0,0.0,0.0,0.0,0.0,0.0,0.0,0.0,0.0,0.0,0.0035784397771
1756813515244555000,876,1756813515244555000,map,12.578036832,0.536734282324,0.0,0.0,0.0,-0.646347498547,0.763043190863,0.00946182471543,-0.0266399552377,0.0,0.0,0.0,0.0,-0.0266399552377,0.180403860227,0.0,0.0,0.0,0.0,0.0,0.0,0.0,0.0,0.0,0.0,0.0,0.0,0.0,0.0,0.0,0.0,0.0,0.0,0.0,0.0,0.0,0.0,0.0,0.0,0.0,0.0,0.0,0.00257730629683
1756813516712027000,877,1756813516712027000,map,12.4211766093,1.46614205794,0.0,0.0,0.0,-0.647925997205,0.761703290098,0.01045633333,-0.0246726024152,0.0,0.0,0.0,0.0,-0.0246726024152,0.179131050247,0.0,0.0,0.0,0.0,0.0,0.0,0.0,0.0,0.0,0.0,0.0,0.0,0.0,0.0,0.0,0.0,0.0,0.0,0.0,0.0,0.0,0.0,0.0,0.0,0.0,0.0,0.0,0.00550087885143
1756813517778301000,878,1756813517778301000,map,12.294652188,2.16057618819,0.0,0.0,0.0,-0.646428039138,0.762974960412,0.0094990658547,-0.0247486874568,0.0,0.0,0.0,0.0,-0.0247486874568,0.172697659831,0.0,0.0,0.0,0.0,0.0,0.0,0.0,0.0,0.0,0.0,0.0,0.0,0.0,0.0,0.0,0.0,0.0,0.0,0.0,0.0,0.0,0.0,0.0,0.0,0.0,0.0,0.0,0.00388762944759
1756813519044578000,879,1756813519044578000,map,12.1603527539,2.94977759865,0.0,0.0,0.0,-0.657059686983,0.753838555489,0.00914210342719,-0.0241299397944,0.0,0.0,0.0,0.0,-0.0241299397944,0.172017959277,0.0,0.0,0.0,0.0,0.0,0.0,0.0,0.0,0.0,0.0,0.0,0.0,0.0,0.0,0.0,0.0,0.0,0.0,0.0,0.0,0.0,0.0,0.0,0.0,0.0,0.0,0.0,0.00414901407943
1756813520177927000,880,1756813520177927000,map,12.0844039983,3.59491939893,0.0,0.0,0.0,-0.668928957754,0.743326341171,0.00880066807227,-0.0254798904412,0.0,0.0,0.0,0.0,-0.0254798904412,0.174190694655,0.0,0.0,0.0,0.0,0.0,0.0,0.0,0.0,0.0,0.0,0.0,0.0,0.0,0.0,0.0,0.0,0.0,0.0,0.0,0.0,0.0,0.0,0.0,0.0,0.0,0.0,0.0,0.0037784265029
1756813521311286000,881,1756813521311286000,map,11.9702072291,4.36940266675,0.0,0.0,0.0,-0.660685480695,0.750662837497,0.00843468906479,-0.0253887401426,0.0,0.0,0.0,0.0,-0.0253887401426,0.173874422153,0.0,0.0,0.0,0.0,0.0,0.0,0.0,0.0,0.0,0.0,0.0,0.0,0.0,0.0,0.0,0.0,0.0,0.0,0.0,0.0,0.0,0.0,0.0,0.0,0.0,0.0,0.0,0.00305399060436
1756813522244547000,882,1756813522244547000,map,11.8860341733,4.95275937941,0.0,0.0,0.0,-0.658771753402,0.752342858622,0.00725296748047,-0.0267594203919,0.0,0.0,0.0,0.0,-0.0267594203919,0.182370066643,0.0,0.0,0.0,0.0,0.0,0.0,0.0,0.0,0.0,0.0,0.0,0.0,0.0,0.0,0.0,0.0,0.0,0.0,0.0,0.0,0.0,0.0,0.0,0.0,0.0,0.0,0.0,0.00210516506918
1756813523245054000,883,1756813523245054000,map,11.8043602669,5.62526696702,0.0,0.0,0.0,-0.661990489509,0.749512235924,0.00739682211182,-0.0275150860011,0.0,0.0,0.0,0.0,-0.0275150860011,0.189944562027,0.0,0.0,0.0,0.0,0.0,0.0,0.0,0.0,0.0,0.0,0.0,0.0,0.0,0.0,0.0,0.0,0.0,0.0,0.0,0.0,0.0,0.0,0.0,0.0,0.0,0.0,0.0,0.00307321230906
1756813524378509000,884,1756813524378509000,map,11.7430435635,6.33100043976,0.0,0.0,0.0,-0.67025491901,0.742130947706,0.00929834499595,-0.028371466631,0.0,0.0,0.0,0.0,-0.028371466631,0.192590267912,0.0,0.0,0.0,0.0,0.0,0.0,0.0,0.0,0.0,0.0,0.0,0.0,0.0,0.0,0.0,0.0,0.0,0.0,0.0,0.0,0.0,0.0,0.0,0.0,0.0,0.0,0.0,0.00403326811276
1756813525311248000,885,1756813525311248000,map,11.6466392692,6.91894980681,0.0,0.0,0.0,-0.66728795759,0.744799826568,0.0110575298753,-0.0282507131418,0.0,0.0,0.0,0.0,-0.0282507131418,0.196515874543,0.0,0.0,0.0,0.0,0.0,0.0,0.0,0.0,0.0,0.0,0.0,0.0,0.0,0.0,0.0,0.0,0.0,0.0,0.0,0.0,0.0,0.0,0.0,0.0,0.0,0.0,0.0,0.00368574006322
1756813526311329000,886,1756813526311329000,map,11.5693026252,7.59838336232,0.0,0.0,0.0,-0.665869662444,0.746068088473,0.0110555034209,-0.0292452993666,0.0,0.0,0.0,0.0,-0.0292452993666,0.206586297168,0.0,0.0,0.0,0.0,0.0,0.0,0.0,0.0,0.0,0.0,0.0,0.0,0.0,0.0,0.0,0.0,0.0,0.0,0.0,0.0,0.0,0.0,0.0,0.0,0.0,0.0,0.0,0.00347687709682
1756813527578371000,887,1756813527578371000,map,11.4731740216,8.32882372528,0.0,0.0,0.0,-0.679043126011,0.734098381021,0.0128697096465,-0.0291228171951,0.0,0.0,0.0,0.0,-0.0291228171951,0.212630696539,0.0,0.0,0.0,0.0,0.0,0.0,0.0,0.0,0.0,0.0,0.0,0.0,0.0,0.0,0.0,0.0,0.0,0.0,0.0,0.0,0.0,0.0,0.0,0.0,0.0,0.0,0.0,0.00508265006722
1756813529377966000,888,1756813529377966000,map,11.3480093039,9.54895037081,0.0,0.0,0.0,-0.664863189568,0.746965152572,0.0398213438164,-0.0298378074231,0.0,0.0,0.0,0.0,-0.0298378074231,0.226565900423,0.0,0.0,0.0,0.0,0.0,0.0,0.0,0.0,0.0,0.0,0.0,0.0,0.0,0.0,0.0,0.0,0.0,0.0,0.0,0.0,0.0,0.0,0.0,0.0,0.0,0.0,0.0,0.0288397444028
1756813531911423000,889,1756813531911423000,map,10.9693565108,10.9380785844,0.0,0.0,0.0,-0.52820839987,0.849114766275,0.234683099228,0.00103491209352,0.0,0.0,0.0,0.0,0.00103491209352,0.265934276448,0.0,0.0,0.0,0.0,0.0,0.0,0.0,0.0,0.0,0.0,0.0,0.0,0.0,0.0,0.0,0.0,0.0,0.0,0.0,0.0,0.0,0.0,0.0,0.0,0.0,0.0,0.0,0.0881061752671
1756813532645268000,890,1756813532645268000,map,10.738448337,11.3193666786,0.0,0.0,0.0,-0.362613375062,0.93193966555,0.310485401311,0.0433115606754,0.0,0.0,0.0,0.0,0.0433115606754,0.283079089558,0.0,0.0,0.0,0.0,0.0,0.0,0.0,0.0,0.0,0.0,0.0,0.0,0.0,0.0,0.0,0.0,0.0,0.0,0.0,0.0,0.0,0.0,0.0,0.0,0.0,0.0,0.0,0.0818712161939
1756813534177895000,891,1756813534177895000,map,9.73660831215,11.6474835962,0.0,0.0,0.0,0.101278225554,0.994858141158,0.376438397949,0.171680359649,0.0,0.0,0.0,0.0,0.171680359649,0.409601894564,0.0,0.0,0.0,0.0,0.0,0.0,0.0,0.0,0.0,0.0,0.0,0.0,0.0,0.0,0.0,0.0,0.0,0.0,0.0,0.0,0.0,0.0,0.0,0.0,0.0,0.0,0.0,0.105718172252
1756813534911730000,892,1756813534911730000,map,9.35685724722,11.4914162539,0.0,0.0,0.0,0.335567417441,0.942016193254,0.329972009156,0.210131471413,0.0,0.0,0.0,0.0,0.210131471413,0.535116313814,0.0,0.0,0.0,0.0,0.0,0.0,0.0,0.0,0.0,0.0,0.0,0.0,0.0,0.0,0.0,0.0,0.0,0.0,0.0,0.0,0.0,0.0,0.0,0.0,0.0,0.0,0.0,0.107109395415
1756813535711106000,893,1756813535711106000,map,9.11632433965,11.1303651061,0.0,0.0,0.0,0.518288761351,0.855205682779,0.235165572549,0.160570086674,0.0,0.0,0.0,0.0,0.160570086674,0.674914175998,0.0,0.0,0.0,0.0,0.0,0.0,0.0,0.0,0.0,0.0,0.0,0.0,0.0,0.0,0.0,0.0,0.0,0.0,0.0,0.0,0.0,0.0,0.0,0.0,0.0,0.0,0.0,0.121247383239
1756813537244577000,894,1756813537244577000,map,8.92418172228,10.2741204211,0.0,0.0,0.0,0.730073376546,0.683368761986,0.187078877208,0.0087107246559,0.0,0.0,0.0,0.0,0.0087107246559,0.84448949059,0.0,0.0,0.0,0.0,0.0,0.0,0.0,0.0,0.0,0.0,0.0,0.0,0.0,0.0,0.0,0.0,0.0,0.0,0.0,0.0,0.0,0.0,0.0,0.0,0.0,0.0,0.0,0.152077513464
1756813539044426000,895,1756813539044426000,map,9.16577889729,9.58510169653,0.0,0.0,0.0,0.906693545717,0.421790011921,0.268177661348,-0.142421569059,0.0,0.0,0.0,0.0,-0.142421569059,0.699531160277,0.0,0.0,0.0,0.0,0.0,0.0,0.0,0.0,0.0,0.0,0.0,0.0,0.0,0.0,0.0,0.0,0.0,0.0,0.0,0.0,0.0,0.0,0.0,0.0,0.0,0.0,0.0,0.160795412867
1756813539977566000,896,1756813539977566000,map,9.35156694099,9.35976981663,0.0,0.0,0.0,0.925604868914,0.378491250417,0.389301615196,-0.183431574301,0.0,0.0,0.0,0.0,-0.183431574301,0.580243581125,0.0,0.0,0.0,0.0,0.0,0.0,0.0,0.0,0.0,0.0,0.0,0.0,0.0,0.0,0.0,0.0,0.0,0.0,0.0,0.0,0.0,0.0,0.0,0.0,0.0,0.0,0.0,0.178399036284
1756813540778207000,897,1756813540778207000,map,9.50021045213,9.15377839505,0.0,0.0,0.0,0.905450886686,0.424451047589,0.578108093544,-0.202515589942,0.0,0.0,0.0,0.0,-0.202515589942,0.46443824418,0.0,0.0,0.0,0.0,0.0,0.0,0.0,0.0,0.0,0.0,0.0,0.0,0.0,0.0,0.0,0.0,0.0,0.0,0.0,0.0,0.0,0.0,0.0,0.0,0.0,0.0,0.0,0.182092529508
1756813541777682000,898,1756813541777682000,map,9.83765958218,8.62469031379,0.0,0.0,0.0,0.882534707018,0.470247265712,0.950663798578,-0.199972828323,0.0,0.0,0.0,0.0,-0.199972828323,0.387914987645,0.0,0.0,0.0,0.0,0.0,0.0,0.0,0.0,0.0,0.0,0.0,0.0,0.0,0.0,0.0,0.0,0.0,0.0,0.0,0.0,0.0,0.0,0.0,0.0,0.0,0.0,0.0,0.19035187349
1756813542445854000,899,1756813542445854000,map,9.54292070839,8.46038553988,0.0,0.0,0.0,0.829421519786,0.558623256332,1.03634885784,-0.147946597666,0.0,0.0,0.0,0.0,-0.147946597666,0.341010233285,0.0,0.0,0.0,0.0,0.0,0.0,0.0,0.0,0.0,0.0,0.0,0.0,0.0,0.0,0.0,0.0,0.0,0.0,0.0,0.0,0.0,0.0,0.0,0.0,0.0,0.0,0.0,0.145647220212
1756813543245119000,900,1756813543245119000,map,9.01328428244,8.04097651443,0.0,0.0,0.0,0.763078548665,0.646305754707,0.60806356252,-0.0723350976785,0.0,0.0,0.0,0.0,-0.0723350976785,0.307091599853,0.0,0.0,0.0,0.0,0.0,0.0,0.0,0.0,0.0,0.0,0.0,0.0,0.0,0.0,0.0,0.0,0.0,0.0,0.0,0.0,0.0,0.0,0.0,0.0,0.0,0.0,0.0,0.0646742362089
1756813544111697000,901,1756813544111697000,map,9.09418603453,7.46452618175,0.0,0.0,0.0,0.762147620581,0.64740327806,0.198325652003,-0.0447075078596,0.0,0.0,0.0,0.0,-0.0447075078596,0.282450569963,0.0,0.0,0.0,0.0,0.0,0.0,0.0,0.0,0.0,0.0,0.0,0.0,0.0,0.0,0.0,0.0,0.0,0.0,0.0,0.0,0.0,0.0,0.0,0.0,0.0,0.0,0.0,0.0166760702574
1756813544845191000,902,1756813544845191000,map,9.15061777778,7.01336871315,0.0,0.0,0.0,0.758977356238,0.65111701922,0.0291732489264,-0.0416660954627,0.0,0.0,0.0,0.0,-0.0416660954627,0.263470736161,0.0,0.0,0.0,0.0,0.0,0.0,0.0,0.0,0.0,0.0,0.0,0.0,0.0,0.0,0.0,0.0,0.0,0.0,0.0,0.0,0.0,0.0,0.0,0.0,0.0,0.0,0.0,0.00311860057643
1756813545577797000,903,1756813545577797000,map,9.22904203179,6.46494593708,0.0,0.0,0.0,0.760239449156,0.64964296344,0.0135210439751,-0.0435742346503,0.0,0.0,0.0,0.0,-0.0435742346503,0.259407688617,0.0,0.0,0.0,0.0,0.0,0.0,0.0,0.0,0.0,0.0,0.0,0.0,0.0,0.0,0.0,0.0,0.0,0.0,0.0,0.0,0.0,0.0,0.0,0.0,0.0,0.0,0.0,0.00222395351614
1756813546645217000,904,1756813546645217000,map,9.32011752356,5.84393582483,0.0,0.0,0.0,0.769892200491,0.63817395718,0.0154577119172,-0.0431709129181,0.0,0.0,0.0,0.0,-0.0431709129181,0.261075893256,0.0,0.0,0.0,0.0,0.0,0.0,0.0,0.0,0.0,0.0,0.0,0.0,0.0,0.0,0.0,0.0,0.0,0.0,0.0,0.0,0.0,0.0,0.0,0.0,0.0,0.0,0.0,0.00344766636304
1756813547444915000,905,1756813547444915000,map,9.38607402544,5.32417628752,0.0,0.0,0.0,0.768209882847,0.640198075517,0.0143304112628,-0.0401625809839,0.0,0.0,0.0,0.0,-0.0401625809839,0.259347799007,0.0,0.0,0.0,0.0,0.0,0.0,0.0,0.0,0.0,0.0,0.0,0.0,0.0,0.0,0.0,0.0,0.0,0.0,0.0,0.0,0.0,0.0,0.0,0.0,0.0,0.0,0.0,0.00284474021084
1756813548111161000,906,1756813548111161000,map,9.4323405189,4.87520913977,0.0,0.0,0.0,0.769088075607,0.6391428103,0.0131928208651,-0.039373327166,0.0,0.0,0.0,0.0,-0.039373327166,0.253910110809,0.0,0.0,0.0,0.0,0.0,0.0,0.0,0.0,0.0,0.0,0.0,0.0,0.0,0.0,0.0,0.0,0.0,0.0,0.0,0.0,0.0,0.0,0.0,0.0,0.0,0.0,0.0,0.00184011785601
1756813548911556000,907,1756813548911556000,map,9.50582422768,4.32069034149,0.0,0.0,0.0,0.776406053154,0.630233005027,0.0139755169545,-0.0400666913435,0.0,0.0,0.0,0.0,-0.0400666913435,0.254133175382,0.0,0.0,0.0,0.0,0.0,0.0,0.0,0.0,0.0,0.0,0.0,0.0,0.0,0.0,0.0,0.0,0.0,0.0,0.0,0.0,0.0,0.0,0.0,0.0,0.0,0.0,0.0,0.00205494208794
1756813549644215000,908,1756813549644215000,map,9.56950034449,3.86386705403,0.0,0.0,0.0,0.777618337505,0.628736607154,0.0138808186965,-0.0412734949034,0.0,0.0,0.0,0.0,-0.0412734949034,0.253581598955,0.0,0.0,0.0,0.0,0.0,0.0,0.0,0.0,0.0,0.0,0.0,0.0,0.0,0.0,0.0,0.0,0.0,0.0,0.0,0.0,0.0,0.0,0.0,0.0,0.0,0.0,0.0,0.00207073337552
1756813551177631000,909,1756813551177631000,map,9.75967567753,2.8930098652,0.0,0.0,0.0,0.771822782069,0.635837709702,0.0192224724039,-0.0416965921073,0.0,0.0,0.0,0.0,-0.0416965921073,0.261327172415,0.0,0.0,0.0,0.0,0.0,0.0,0.0,0.0,0.0,0.0,0.0,0.0,0.0,0.0,0.0,0.0,0.0,0.0,0.0,0.0,0.0,0.0,0.0,0.0,0.0,0.0,0.0,0.0114733508807
1756813551978066000,910,1756813551978066000,map,9.81296498055,2.38240341182,0.0,0.0,0.0,0.770153091958,0.637859087062,0.0198666838977,-0.0404693679799,0.0,0.0,0.0,0.0,-0.0404693679799,0.258109762264,0.0,0.0,0.0,0.0,0.0,0.0,0.0,0.0,0.0,0.0,0.0,0.0,0.0,0.0,0.0,0.0,0.0,0.0,0.0,0.0,0.0,0.0,0.0,0.0,0.0,0.0,0.0,0.00795156842919
1756813552711635000,911,1756813552711635000,map,9.74743096246,2.71754319161,0.0,0.0,0.0,0.776118565456,0.630587006174,0.0193729991073,-0.0398092555619,0.0,0.0,0.0,0.0,-0.0398092555619,0.259552649345,0.0,0.0,0.0,0.0,0.0,0.0,0.0,0.0,0.0,0.0,0.0,0.0,0.0,0.0,0.0,0.0,0.0,0.0,0.0,0.0,0.0,0.0,0.0,0.0,0.0,0.0,0.0,0.00525937708458
1756813553778075000,912,1756813553778075000,map,9.98221169771,1.2921237134,0.0,0.0,0.0,0.770758199075,0.637127772553,0.0171949747332,-0.0364580697923,0.0,0.0,0.0,0.0,-0.0364580697923,0.261899672636,0.0,0.0,0.0,0.0,0.0,0.0,0.0,0.0,0.0,0.0,0.0,0.0,0.0,0.0,0.0,0.0,0.0,0.0,0.0,0.0,0.0,0.0,0.0,0.0,0.0,0.0,0.0,0.00451059992819
1756813554777684000,913,1756813554777684000,map,10.102961802,0.597848989116,0.0,0.0,0.0,0.778711149195,0.62738261541,0.0234296343251,-0.0319564597607,0.0,0.0,0.0,0.0,-0.0319564597607,0.263423721153,0.0,0.0,0.0,0.0,0.0,0.0,0.0,0.0,0.0,0.0,0.0,0.0,0.0,0.0,0.0,0.0,0.0,0.0,0.0,0.0,0.0,0.0,0.0,0.0,0.0,0.0,0.0,0.00623274342078
1756813555445375000,914,1756813555445375000,map,10.1481681832,0.320432277617,0.0,0.0,0.0,0.777883072886,0.628409042676,0.0230940845355,-0.0318808949884,0.0,0.0,0.0,0.0,-0.0318808949884,0.267911347796,0.0,0.0,0.0,0.0,0.0,0.0,0.0,0.0,0.0,0.0,0.0,0.0,0.0,0.0,0.0,0.0,0.0,0.0,0.0,0.0,0.0,0.0,0.0,0.0,0.0,0.0,0.0,0.00456694526334
1756813556177626000,915,1756813556177626000,map,10.1839133788,-0.16006401472,0.0,0.0,0.0,0.772921979509,0.63450107454,0.0248440355902,-0.0296455154008,0.0,0.0,0.0,0.0,-0.0296455154008,0.273224563681,0.0,0.0,0.0,0.0,0.0,0.0,0.0,0.0,0.0,0.0,0.0,0.0,0.0,0.0,0.0,0.0,0.0,0.0,0.0,0.0,0.0,0.0,0.0,0.0,0.0,0.0,0.0,0.00396296554695
1756813556844248000,916,1756813556844248000,map,10.2423767312,-0.624877366672,0.0,0.0,0.0,0.766890972427,0.641777404097,0.0237532636519,-0.0336176214916,0.0,0.0,0.0,0.0,-0.0336176214916,0.283703378078,0.0,0.0,0.0,0.0,0.0,0.0,0.0,0.0,0.0,0.0,0.0,0.0,0.0,0.0,0.0,0.0,0.0,0.0,0.0,0.0,0.0,0.0,0.0,0.0,0.0,0.0,0.0,0.00293679783414
1756813557577566000,917,1756813557577566000,map,10.2471278681,-1.08717140413,0.0,0.0,0.0,0.757428924211,0.652917624796,0.0154599661857,-0.0401768060769,0.0,0.0,0.0,0.0,-0.0401768060769,0.286619439993,0.0,0.0,0.0,0.0,0.0,0.0,0.0,0.0,0.0,0.0,0.0,0.0,0.0,0.0,0.0,0.0,0.0,0.0,0.0,0.0,0.0,0.0,0.0,0.0,0.0,0.0,0.0,0.00188152421241
1756813558311527000,918,1756813558311527000,map,10.3111296456,-1.52516063819,0.0,0.0,0.0,0.760489200495,0.649350580142,0.0139649205553,-0.044452677749,0.0,0.0,0.0,0.0,-0.044452677749,0.295570915468,0.0,0.0,0.0,0.0,0.0,0.0,0.0,0.0,0.0,0.0,0.0,0.0,0.0,0.0,0.0,0.0,0.0,0.0,0.0,0.0,0.0,0.0,0.0,0.0,0.0,0.0,0.0,0.00200795746053
1756813559111136000,919,1756813559111136000,map,10.3961526522,-2.00325970439,0.0,0.0,0.0,0.764533325563,0.644584202492,0.011816851532,-0.0459912376864,0.0,0.0,0.0,0.0,-0.0459912376864,0.306354395411,0.0,0.0,0.0,0.0,0.0,0.0,0.0,0.0,0.0,0.0,0.0,0.0,0.0,0.0,0.0,0.0,0.0,0.0,0.0,0.0,0.0,0.0,0.0,0.0,0.0,0.0,0.0,0.0016055880315
1756813559777703000,920,1756813559777703000,map,10.4580244934,-2.41529992907,0.0,0.0,0.0,0.763661293539,0.645617091433,0.0113619345261,-0.0463780144137,0.0,0.0,0.0,0.0,-0.0463780144137,0.310221711891,0.0,0.0,0.0,0.0,0.0,0.0,0.0,0.0,0.0,0.0,0.0,0.0,0.0,0.0,0.0,0.0,0.0,0.0,0.0,0.0,0.0,0.0,0.0,0.0,0.0,0.0,0.0,0.00150986188257
1756813560578420000,921,1756813560578420000,map,10.5488096428,-2.933437499,0.0,0.0,0.0,0.755954583136,0.654624066343,0.012352000642,-0.0476899277484,0.0,0.0,0.0,0.0,-0.0476899277484,0.309865736611,0.0,0.0,0.0,0.0,0.0,0.0,0.0,0.0,0.0,0.0,0.0,0.0,0.0,0.0,0.0,0.0,0.0,0.0,0.0,0.0,0.0,0.0,0.0,0.0,0.0,0.0,0.0,0.00195125450848
1756813561577673000,922,1756813561577673000,map,10.6225257274,-3.47094836608,0.0,0.0,0.0,0.7591938588,0.650864567142,0.0131081008644,-0.0457332571902,0.0,0.0,0.0,0.0,-0.0457332571902,0.307917593581,0.0,0.0,0.0,0.0,0.0,0.0,0.0,0.0,0.0,0.0,0.0,0.0,0.0,0.0,0.0,0.0,0.0,0.0,0.0,0.0,0.0,0.0,0.0,0.0,0.0,0.0,0.0,0.00314455154851
1756813562644927000,923,1756813562644927000,map,10.6929062585,-4.05267005106,0.0,0.0,0.0,0.755907255354,0.654678716092,0.0145919937161,-0.0431684843474,0.0,0.0,0.0,0.0,-0.0431684843474,0.295721920862,0.0,0.0,0.0,0.0,0.0,0.0,0.0,0.0,0.0,0.0,0.0,0.0,0.0,0.0,0.0,0.0,0.0,0.0,0.0,0.0,0.0,0.0,0.0,0.0,0.0,0.0,0.0,0.00401175607117
1756813563577623000,924,1756813563577623000,map,10.7761097321,-4.61075948968,0.0,0.0,0.0,0.761341798771,0.648350727187,0.0169069872448,-0.0425710409645,0.0,0.0,0.0,0.0,-0.0425710409645,0.296670969553,0.0,0.0,0.0,0.0,0.0,0.0,0.0,0.0,0.0,0.0,0.0,0.0,0.0,0.0,0.0,0.0,0.0,0.0,0.0,0.0,0.0,0.0,0.0,0.0,0.0,0.0,0.0,0.0038233469155
1756813564378117000,925,1756813564378117000,map,10.8617477204,-5.22646284371,0.0,0.0,0.0,0.762457181024,0.647038675123,0.0157029593063,-0.03845446426,0.0,0.0,0.0,0.0,-0.03845446426,0.275811063337,0.0,0.0,0.0,0.0,0.0,0.0,0.0,0.0,0.0,0.0,0.0,0.0,0.0,0.0,0.0,0.0,0.0,0.0,0.0,0.0,0.0,0.0,0.0,0.0,0.0,0.0,0.0,0.00324327354516
1756813565111524000,926,1756813565111524000,map,10.8809517004,-5.39209842109,0.0,0.0,0.0,0.761679048495,0.647954494609,0.0145105396018,-0.0322218663149,0.0,0.0,0.0,0.0,-0.0322218663149,0.256791610764,0.0,0.0,0.0,0.0,0.0,0.0,0.0,0.0,0.0,0.0,0.0,0.0,0.0,0.0,0.0,0.0,0.0,0.0,0.0,0.0,0.0,0.0,0.0,0.0,0.0,0.0,0.0,0.00296439251817
1756813566044280000,927,1756813566044280000,map,10.9191754593,-5.77438285465,0.0,0.0,0.0,0.759755899916,0.650208407008,0.0152900816515,-0.0276784385671,0.0,0.0,0.0,0.0,-0.0276784385671,0.220153781902,0.0,0.0,0.0,0.0,0.0,0.0,0.0,0.0,0.0,0.0,0.0,0.0,0.0,0.0,0.0,0.0,0.0,0.0,0.0,0.0,0.0,0.0,0.0,0.0,0.0,0.0,0.0,0.0033640575857
1756813566844720000,928,1756813566844720000,map,10.9908824004,-6.27927971404,0.0,0.0,0.0,0.75874261505,0.651390546529,0.0120849228484,-0.0201486247452,0.0,0.0,0.0,0.0,-0.0201486247452,0.149149004378,0.0,0.0,0.0,0.0,0.0,0.0,0.0,0.0,0.0,0.0,0.0,0.0,0.0,0.0,0.0,0.0,0.0,0.0,0.0,0.0,0.0,0.0,0.0,0.0,0.0,0.0,0.0,0.00290926704744
1756813567710776000,929,1756813567710776000,map,11.070958711,-6.83103465143,0.0,0.0,0.0,0.76062147745,0.649195631564,0.0121866275967,-0.0160108696284,0.0,0.0,0.0,0.0,-0.0160108696284,0.124265936588,0.0,0.0,0.0,0.0,0.0,0.0,0.0,0.0,0.0,0.0,0.0,0.0,0.0,0.0,0.0,0.0,0.0,0.0,0.0,0.0,0.0,0.0,0.0,0.0,0.0,0.0,0.0,0.00332147043673
1756813568444962000,930,1756813568444962000,map,11.1574498244,-7.29148042355,0.0,0.0,0.0,0.755760701074,0.654847892806,0.0141896035539,-0.0136397464383,0.0,0.0,0.0,0.0,-0.0136397464383,0.118017726224,0.0,0.0,0.0,0.0,0.0,0.0,0.0,0.0,0.0,0.0,0.0,0.0,0.0,0.0,0.0,0.0,0.0,0.0,0.0,0.0,0.0,0.0,0.0,0.0,0.0,0.0,0.0,0.00372070066072
1756813569111244000,931,1756813569111244000,map,11.1857257275,-7.64737429077,0.0,0.0,0.0,0.754759706003,0.656001361427,0.0134173611234,-0.00946713082051,0.0,0.0,0.0,0.0,-0.00946713082052,0.0759679683764,0.0,0.0,0.0,0.0,0.0,0.0,0.0,0.0,0.0,0.0,0.0,0.0,0.0,0.0,0.0,0.0,0.0,0.0,0.0,0.0,0.0,0.0,0.0,0.0,0.0,0.0,0.0,0.00344331145332
1756813570177366000,932,1756813570177366000,map,11.2666786548,-8.26706635228,0.0,0.0,0.0,0.749584225758,0.661908972968,0.0152836957928,-0.00497266596665,0.0,0.0,0.0,0.0,-0.00497266596665,0.0456113735545,0.0,0.0,0.0,0.0,0.0,0.0,0.0,0.0,0.0,0.0,0.0,0.0,0.0,0.0,0.0,0.0,0.0,0.0,0.0,0.0,0.0,0.0,0.0,0.0,0.0,0.0,0.0,0.0062534533853
1756813571178024000,933,1756813571178024000,map,11.3653688731,-8.88787285469,0.0,0.0,0.0,0.760446079649,0.649401077876,0.0227384606592,-0.00245121433657,0.0,0.0,0.0,0.0,-0.00245121433657,0.0404553943388,0.0,0.0,0.0,0.0,0.0,0.0,0.0,0.0,0.0,0.0,0.0,0.0,0.0,0.0,0.0,0.0,0.0,0.0,0.0,0.0,0.0,0.0,0.0,0.0,0.0,0.0,0.0,0.00741139905765
1756813572844097000,934,1756813572844097000,map,11.409957488,-9.41717104854,0.0,0.0,0.0,0.649562637997,0.760308081845,0.0340294602902,-0.000334304281267,0.0,0.0,0.0,0.0,-0.000334304281282,0.0390323682142,0.0,0.0,0.0,0.0,0.0,0.0,0.0,0.0,0.0,0.0,0.0,0.0,0.0,0.0,0.0,0.0,0.0,0.0,0.0,0.0,0.0,0.0,0.0,0.0,0.0,0.0,0.0,0.00794342993819
1756813575178211000,935,1756813575178211000,map,11.0714500789,-10.0179635992,0.0,0.0,0.0,0.334300491269,0.942466541336,0.0556630710592,-0.00246641009751,0.0,0.0,0.0,0.0,-0.00246641009751,0.0404889197588,0.0,0.0,0.0,0.0,0.0,0.0,0.0,0.0,0.0,0.0,0.0,0.0,0.0,0.0,0.0,0.0,0.0,0.0,0.0,0.0,0.0,0.0,0.0,0.0,0.0,0.0,0.0,0.0117495254684
1756813576844036000,936,1756813576844036000,map,10.5902892113,-10.2034682686,0.0,0.0,0.0,-0.0256808761953,0.999670191912,0.061827700921,-0.0147028105528,0.0,0.0,0.0,0.0,-0.0147028105528,0.0452845659162,0.0,0.0,0.0,0.0,0.0,0.0,0.0,0.0,0.0,0.0,0.0,0.0,0.0,0.0,0.0,0.0,0.0,0.0,0.0,0.0,0.0,0.0,0.0,0.0,0.0,0.0,0.0,0.0128586008078
1756813579310864000,937,1756813579310864000,map,9.71212621273,-9.41964743584,0.0,0.0,0.0,-0.669222285343,0.743062267109,0.109435644564,-0.0323546654945,0.0,0.0,0.0,0.0,-0.0323546654945,0.145714153468,0.0,0.0,0.0,0.0,0.0,0.0,0.0,0.0,0.0,0.0,0.0,0.0,0.0,0.0,0.0,0.0,0.0,0.0,0.0,0.0,0.0,0.0,0.0,0.0,0.0,0.0,0.0,0.137088401193
1756813580444084000,938,1756813580444084000,map,9.66454827009,-8.75936958616,0.0,0.0,0.0,-0.759670018187,0.650308744726,0.229085927319,0.0143141092806,0.0,0.0,0.0,0.0,0.0143141092806,0.147476373992,0.0,0.0,0.0,0.0,0.0,0.0,0.0,0.0,0.0,0.0,0.0,0.0,0.0,0.0,0.0,0.0,0.0,0.0,0.0,0.0,0.0,0.0,0.0,0.0,0.0,0.0,0.0,0.151001243206
1756813581511445000,939,1756813581511445000,map,9.57716674875,-8.25776209541,0.0,0.0,0.0,-0.771838320132,0.635818848082,0.498708480892,0.0184403257981,0.0,0.0,0.0,0.0,0.0184403257981,0.132425975779,0.0,0.0,0.0,0.0,0.0,0.0,0.0,0.0,0.0,0.0,0.0,0.0,0.0,0.0,0.0,0.0,0.0,0.0,0.0,0.0,0.0,0.0,0.0,0.0,0.0,0.0,0.0,0.179044731266
1756813582710965000,940,1756813582710965000,map,9.31688717802,-7.74449822002,0.0,0.0,0.0,-0.710821116544,0.70337283163,0.784540886279,-0.00585396391548,0.0,0.0,0.0,0.0,-0.00585396391548,0.117724134912,0.0,0.0,0.0,0.0,0.0,0.0,0.0,0.0,0.0,0.0,0.0,0.0,0.0,0.0,0.0,0.0,0.0,0.0,0.0,0.0,0.0,0.0,0.0,0.0,0.0,0.0,0.0,0.164336510124
1756813583910813000,941,1756813583910813000,map,9.04879792906,-7.02958871941,0.0,0.0,0.0,-0.683519516329,0.729932237127,0.690884893659,-0.0275021236976,0.0,0.0,0.0,0.0,-0.0275021236976,0.10592817556,0.0,0.0,0.0,0.0,0.0,0.0,0.0,0.0,0.0,0.0,0.0,0.0,0.0,0.0,0.0,0.0,0.0,0.0,0.0,0.0,0.0,0.0,0.0,0.0,0.0,0.0,0.0,0.0839638057645
1756813584977546000,942,1756813584977546000,map,8.59093302766,-6.46639645322,0.0,0.0,0.0,-0.648223324867,0.761450274869,0.32174686821,-0.0221193655822,0.0,0.0,0.0,0.0,-0.0221193655822,0.0955249115668,0.0,0.0,0.0,0.0,0.0,0.0,0.0,0.0,0.0,0.0,0.0,0.0,0.0,0.0,0.0,0.0,0.0,0.0,0.0,0.0,0.0,0.0,0.0,0.0,0.0,0.0,0.0,0.0295628800211
1756813586178070000,943,1756813586178070000,map,8.48953805826,-5.71030306809,0.0,0.0,0.0,-0.64831423652,0.761372872333,0.0707869751953,-0.0169586313977,0.0,0.0,0.0,0.0,-0.0169586313977,0.0875548660472,0.0,0.0,0.0,0.0,0.0,0.0,0.0,0.0,0.0,0.0,0.0,0.0,0.0,0.0,0.0,0.0,0.0,0.0,0.0,0.0,0.0,0.0,0.0,0.0,0.0,0.0,0.0,0.00824678809473
1756813587177750000,944,1756813587177750000,map,8.39584279614,-5.15695736452,0.0,0.0,0.0,-0.64430221083,0.76477098606,0.0418104674404,-0.0189214971779,0.0,0.0,0.0,0.0,-0.0189214971779,0.082640169725,0.0,0.0,0.0,0.0,0.0,0.0,0.0,0.0,0.0,0.0,0.0,0.0,0.0,0.0,0.0,0.0,0.0,0.0,0.0,0.0,0.0,0.0,0.0,0.0,0.0,0.0,0.0,0.00460755854272
1756813588244793000,945,1756813588244793000,map,8.2823510098,-4.52203730376,0.0,0.0,0.0,-0.627469151507,0.778641421906,0.0215715742935,-0.0157426216203,0.0,0.0,0.0,0.0,-0.0157426216203,0.0817291608222,0.0,0.0,0.0,0.0,0.0,0.0,0.0,0.0,0.0,0.0,0.0,0.0,0.0,0.0,0.0,0.0,0.0,0.0,0.0,0.0,0.0,0.0,0.0,0.0,0.0,0.0,0.0,0.00382644986074
1756813589644297000,946,1756813589644297000,map,8.11740456818,-3.70493811888,0.0,0.0,0.0,-0.627249848405,0.778818096654,0.0252678990779,-0.0176011865,0.0,0.0,0.0,0.0,-0.0176011865,0.0822996388683,0.0,0.0,0.0,0.0,0.0,0.0,0.0,0.0,0.0,0.0,0.0,0.0,0.0,0.0,0.0,0.0,0.0,0.0,0.0,0.0,0.0,0.0,0.0,0.0,0.0,0.0,0.0,0.00776070517765
1756813591111033000,947,1756813591111033000,map,7.92268663432,-2.81006513933,0.0,0.0,0.0,-0.620639493472,0.784096052243,0.0163221172025,-0.00820908328964,0.0,0.0,0.0,0.0,-0.00820908328964,0.081399420933,0.0,0.0,0.0,0.0,0.0,0.0,0.0,0.0,0.0,0.0,0.0,0.0,0.0,0.0,0.0,0.0,0.0,0.0,0.0,0.0,0.0,0.0,0.0,0.0,0.0,0.0,0.0,0.010536435703
1756813592044747000,948,1756813592044747000,map,7.85153631838,-2.21367570217,0.0,0.0,0.0,-0.633738908648,0.773547022272,0.013481672887,-0.00975899820506,0.0,0.0,0.0,0.0,-0.00975899820506,0.0840360788343,0.0,0.0,0.0,0.0,0.0,0.0,0.0,0.0,0.0,0.0,0.0,0.0,0.0,0.0,0.0,0.0,0.0,0.0,0.0,0.0,0.0,0.0,0.0,0.0,0.0,0.0,0.0,0.00511149858202
1756813593044257000,949,1756813593044257000,map,7.76192514406,-1.69616670628,0.0,0.0,0.0,-0.636511828969,0.771266939252,0.00902948679591,-0.0093866680869,0.0,0.0,0.0,0.0,-0.0093866680869,0.081231900042,0.0,0.0,0.0,0.0,0.0,0.0,0.0,0.0,0.0,0.0,0.0,0.0,0.0,0.0,0.0,0.0,0.0,0.0,0.0,0.0,0.0,0.0,0.0,0.0,0.0,0.0,0.0,0.00306448711207
1756813594111610000,950,1756813594111610000,map,7.65427021028,-1.04155749455,0.0,0.0,0.0,-0.629440840852,0.777048407674,0.00675547619632,-0.010533621397,0.0,0.0,0.0,0.0,-0.0105336213971,0.0802352782978,0.0,0.0,0.0,0.0,0.0,0.0,0.0,0.0,0.0,0.0,0.0,0.0,0.0,0.0,0.0,0.0,0.0,0.0,0.0,0.0,0.0,0.0,0.0,0.0,0.0,0.0,0.0,0.00310043799441
1756813595110914000,951,1756813595110914000,map,7.53778491089,-0.444818686566,0.0,0.0,0.0,-0.639519069651,0.768775233441,0.00658937330979,-0.0112545378468,0.0,0.0,0.0,0.0,-0.0112545378468,0.0817018282071,0.0,0.0,0.0,0.0,0.0,0.0,0.0,0.0,0.0,0.0,0.0,0.0,0.0,0.0,0.0,0.0,0.0,0.0,0.0,0.0,0.0,0.0,0.0,0.0,0.0,0.0,0.0,0.00329997934935
1756813596378160000,952,1756813596378160000,map,7.40894314036,0.36568126773,0.0,0.0,0.0,-0.639575078878,0.768728637737,0.0106680036849,-0.00992711424118,0.0,0.0,0.0,0.0,-0.00992711424118,0.0798725643679,0.0,0.0,0.0,0.0,0.0,0.0,0.0,0.0,0.0,0.0,0.0,0.0,0.0,0.0,0.0,0.0,0.0,0.0,0.0,0.0,0.0,0.0,0.0,0.0,0.0,0.0,0.0,0.00538390377294
1756813598444129000,953,1756813598444129000,map,7.20869146748,1.61779235908,0.0,0.0,0.0,-0.628442397578,0.777856126109,0.0318518267183,-0.00904263182492,0.0,0.0,0.0,0.0,-0.00904263182492,0.0999552863298,0.0,0.0,0.0,0.0,0.0,0.0,0.0,0.0,0.0,0.0,0.0,0.0,0.0,0.0,0.0,0.0,0.0,0.0,0.0,0.0,0.0,0.0,0.0,0.0,0.0,0.0,0.0,0.0274853072473
1756813600044360000,954,1756813600044360000,map,7.12360153259,2.62827852841,0.0,0.0,0.0,-0.649863740164,0.760050734635,0.0511192198405,-0.00624483618236,0.0,0.0,0.0,0.0,-0.00624483618236,0.111361245819,0.0,0.0,0.0,0.0,0.0,0.0,0.0,0.0,0.0,0.0,0.0,0.0,0.0,0.0,0.0,0.0,0.0,0.0,0.0,0.0,0.0,0.0,0.0,0.0,0.0,0.0,0.0,0.0215197347947
1756813601244830000,955,1756813601244830000,map,7.00624169833,3.41968763832,0.0,0.0,0.0,-0.646544074963,0.76287663428,0.0570182249828,-0.0057414709697,0.0,0.0,0.0,0.0,-0.0057414709697,0.116064121343,0.0,0.0,0.0,0.0,0.0,0.0,0.0,0.0,0.0,0.0,0.0,0.0,0.0,0.0,0.0,0.0,0.0,0.0,0.0,0.0,0.0,0.0,0.0,0.0,0.0,0.0,0.0,0.0132143773463
1756813602178140000,956,1756813602178140000,map,6.98059455924,4.02145097691,0.0,0.0,0.0,-0.655761301896,0.754968287371,0.0268839098394,-0.0115721331554,0.0,0.0,0.0,0.0,-0.0115721331554,0.123079351677,0.0,0.0,0.0,0.0,0.0,0.0,0.0,0.0,0.0,0.0,0.0,0.0,0.0,0.0,0.0,0.0,0.0,0.0,0.0,0.0,0.0,0.0,0.0,0.0,0.0,0.0,0.0,0.00567938653098
1756813603177448000,957,1756813603177448000,map,6.94537276253,4.53762132857,0.0,0.0,0.0,-0.647612059258,0.761970222977,0.0121919336037,-0.0162549987562,0.0,0.0,0.0,0.0,-0.0162549987562,0.125892506961,0.0,0.0,0.0,0.0,0.0,0.0,0.0,0.0,0.0,0.0,0.0,0.0,0.0,0.0,0.0,0.0,0.0,0.0,0.0,0.0,0.0,0.0,0.0,0.0,0.0,0.0,0.0,0.00338280482583
1756813604178077000,958,1756813604178077000,map,6.84762578207,5.1677363426,0.0,0.0,0.0,-0.640864200917,0.767654268524,0.010236777171,-0.0158722895513,0.0,0.0,0.0,0.0,-0.0158722895513,0.122717960625,0.0,0.0,0.0,0.0,0.0,0.0,0.0,0.0,0.0,0.0,0.0,0.0,0.0,0.0,0.0,0.0,0.0,0.0,0.0,0.0,0.0,0.0,0.0,0.0,0.0,0.0,0.0,0.00310750236307
1756813605177648000,959,1756813605177648000,map,6.72709665263,5.7710538858,0.0,0.0,0.0,-0.63034357015,0.776316290935,0.0109804198687,-0.0157911875066,0.0,0.0,0.0,0.0,-0.0157911875066,0.120554210479,0.0,0.0,0.0,0.0,0.0,0.0,0.0,0.0,0.0,0.0,0.0,0.0,0.0,0.0,0.0,0.0,0.0,0.0,0.0,0.0,0.0,0.0,0.0,0.0,0.0,0.0,0.0,0.00258796011178
1756813606310793000,960,1756813606310793000,map,6.61692803115,6.44422999348,0.0,0.0,0.0,-0.63304230498,0.774117200497,0.0123534592031,-0.0159159677113,0.0,0.0,0.0,0.0,-0.0159159677113,0.120288676809,0.0,0.0,0.0,0.0,0.0,0.0,0.0,0.0,0.0,0.0,0.0,0.0,0.0,0.0,0.0,0.0,0.0,0.0,0.0,0.0,0.0,0.0,0.0,0.0,0.0,0.0,0.0,0.00364783383029
1756813607577988000,961,1756813607577988000,map,6.4930076263,7.19206978158,0.0,0.0,0.0,-0.61992896037,0.784657940822,0.0147062470164,-0.016935556137,0.0,0.0,0.0,0.0,-0.016935556137,0.119996061844,0.0,0.0,0.0,0.0,0.0,0.0,0.0,0.0,0.0,0.0,0.0,0.0,0.0,0.0,0.0,0.0,0.0,0.0,0.0,0.0,0.0,0.0,0.0,0.0,0.0,0.0,0.0,0.0042618768405
1756813608511389000,962,1756813608511389000,map,6.40475622165,7.63833478246,0.0,0.0,0.0,-0.621793747919,0.783181035935,0.00969967359436,-0.0173758110063,0.0,0.0,0.0,0.0,-0.0173758110063,0.12099798801,0.0,0.0,0.0,0.0,0.0,0.0,0.0,0.0,0.0,0.0,0.0,0.0,0.0,0.0,0.0,0.0,0.0,0.0,0.0,0.0,0.0,0.0,0.0,0.0,0.0,0.0,0.0,0.00262834810058
1756813609710785000,963,1756813609710785000,map,6.29045147886,8.29308576298,0.0,0.0,0.0,-0.623415743884,0.781890535994,0.0125964153645,-0.0169411589992,0.0,0.0,0.0,0.0,-0.0169411589992,0.119814519712,0.0,0.0,0.0,0.0,0.0,0.0,0.0,0.0,0.0,0.0,0.0,0.0,0.0,0.0,0.0,0.0,0.0,0.0,0.0,0.0,0.0,0.0,0.0,0.0,0.0,0.0,0.0,0.0044568380848
1756813611310996000,964,1756813611310996000,map,6.11034639612,9.13294749447,0.0,0.0,0.0,-0.622226653302,0.782837142656,0.0188058701381,-0.0175462945618,0.0,0.0,0.0,0.0,-0.0175462945618,0.118295098868,0.0,0.0,0.0,0.0,0.0,0.0,0.0,0.0,0.0,0.0,0.0,0.0,0.0,0.0,0.0,0.0,0.0,0.0,0.0,0.0,0.0,0.0,0.0,0.0,0.0,0.0,0.0,0.00797264453967
1756813612710794000,965,1756813612710794000,map,5.91445420893,9.92825187556,0.0,0.0,0.0,-0.607565066465,0.79426991005,0.028950552889,-0.0167157490475,0.0,0.0,0.0,0.0,-0.0167157490475,0.12740406286,0.0,0.0,0.0,0.0,0.0,0.0,0.0,0.0,0.0,0.0,0.0,0.0,0.0,0.0,0.0,0.0,0.0,0.0,0.0,0.0,0.0,0.0,0.0,0.0,0.0,0.0,0.0,0.012984640483
1756813613510958000,966,1756813613510958000,map,5.82174222326,10.2924508151,0.0,0.0,0.0,-0.607319239662,0.794457891355,0.0312743419806,-0.0171865959682,0.0,0.0,0.0,0.0,-0.0171865959682,0.114022777723,0.0,0.0,0.0,0.0,0.0,0.0,0.0,0.0,0.0,0.0,0.0,0.0,0.0,0.0,0.0,0.0,0.0,0.0,0.0,0.0,0.0,0.0,0.0,0.0,0.0,0.0,0.0,0.0111211072043
1756813614378003000,967,1756813614378003000,map,5.72921819904,10.6894272652,0.0,0.0,0.0,-0.610190138317,0.792255006359,0.0356762480246,-0.0144954449558,0.0,0.0,0.0,0.0,-0.0144954449558,0.0978611848854,0.0,0.0,0.0,0.0,0.0,0.0,0.0,0.0,0.0,0.0,0.0,0.0,0.0,0.0,0.0,0.0,0.0,0.0,0.0,0.0,0.0,0.0,0.0,0.0,0.0,0.0,0.0,0.00963201181208
1756813615511349000,968,1756813615511349000,map,5.61893671713,11.1930863106,0.0,0.0,0.0,-0.578010802084,0.816029112639,0.0357181639101,-0.0115272164472,0.0,0.0,0.0,0.0,-0.0115272164472,0.0778307034816,0.0,0.0,0.0,0.0,0.0,0.0,0.0,0.0,0.0,0.0,0.0,0.0,0.0,0.0,0.0,0.0,0.0,0.0,0.0,0.0,0.0,0.0,0.0,0.0,0.0,0.0,0.0,0.0084816869346
1756813616310784000,969,1756813616310784000,map,5.48654599889,11.4335370622,0.0,0.0,0.0,-0.513895975744,0.857852508369,0.0410952332206,-0.00699424675265,0.0,0.0,0.0,0.0,-0.00699424675265,0.0731645565106,0.0,0.0,0.0,0.0,0.0,0.0,0.0,0.0,0.0,0.0,0.0,0.0,0.0,0.0,0.0,0.0,0.0,0.0,0.0,0.0,0.0,0.0,0.0,0.0,0.0,0.0,0.0,0.0070094770712
1756813617643981000,970,1756813617643981000,map,5.01953641862,11.968548804,0.0,0.0,0.0,-0.316533866758,0.948581209594,0.0576181491225,0.000361522709817,0.0,0.0,0.0,0.0,0.000361522709817,0.0725018959413,0.0,0.0,0.0,0.0,0.0,0.0,0.0,0.0,0.0,0.0,0.0,0.0,0.0,0.0,0.0,0.0,0.0,0.0,0.0,0.0,0.0,0.0,0.0,0.0,0.0,0.0,0.0,0.0102193030812
1756813618443873000,971,1756813618443873000,map,4.64151376777,12.1668523851,0.0,0.0,0.0,-0.125629926573,0.992077175198,0.0688227012992,0.0109807975791,0.0,0.0,0.0,0.0,0.0109807975791,0.0804262013208,0.0,0.0,0.0,0.0,0.0,0.0,0.0,0.0,0.0,0.0,0.0,0.0,0.0,0.0,0.0,0.0,0.0,0.0,0.0,0.0,0.0,0.0,0.0,0.0,0.0,0.0,0.0,0.0124558270428
1756813621510987000,972,1756813621510987000,map,3.47665105434,11.154413395,0.0,0.0,0.0,0.750243681026,0.661161416811,0.204731038406,0.0266185543621,0.0,0.0,0.0,0.0,0.0266185543621,0.28897283748,0.0,0.0,0.0,0.0,0.0,0.0,0.0,0.0,0.0,0.0,0.0,0.0,0.0,0.0,0.0,0.0,0.0,0.0,0.0,0.0,0.0,0.0,0.0,0.0,0.0,0.0,0.0,0.281384263317
1756813622844336000,973,1756813622844336000,map,3.74168147486,10.7231562642,0.0,0.0,0.0,0.897589550575,0.440832166135,0.415230219478,0.0133604610208,0.0,0.0,0.0,0.0,0.0133604610208,0.271996527043,0.0,0.0,0.0,0.0,0.0,0.0,0.0,0.0,0.0,0.0,0.0,0.0,0.0,0.0,0.0,0.0,0.0,0.0,0.0,0.0,0.0,0.0,0.0,0.0,0.0,0.0,0.0,0.302982968259
1756813624044311000,974,1756813624044311000,map,3.9051148131,10.141100159,0.0,0.0,0.0,0.874734043396,0.484603294793,0.622055001339,0.110770964138,0.0,0.0,0.0,0.0,0.110770964138,0.28185830286,0.0,0.0,0.0,0.0,0.0,0.0,0.0,0.0,0.0,0.0,0.0,0.0,0.0,0.0,0.0,0.0,0.0,0.0,0.0,0.0,0.0,0.0,0.0,0.0,0.0,0.0,0.0,0.290180529327
1756813625111105000,975,1756813625111105000,map,3.81155970579,9.77853749538,0.0,0.0,0.0,0.837059387749,0.547112037321,0.709696710026,0.220868387341,0.0,0.0,0.0,0.0,0.220868387341,0.325761192347,0.0,0.0,0.0,0.0,0.0,0.0,0.0,0.0,0.0,0.0,0.0,0.0,0.0,0.0,0.0,0.0,0.0,0.0,0.0,0.0,0.0,0.0,0.0,0.0,0.0,0.0,0.0,0.208955278355
1756813625844423000,976,1756813625844423000,map,3.65832734193,9.17966652005,0.0,0.0,0.0,0.777575071854,0.628790114132,0.368161343657,0.11276424105,0.0,0.0,0.0,0.0,0.11276424105,0.235093920859,0.0,0.0,0.0,0.0,0.0,0.0,0.0,0.0,0.0,0.0,0.0,0.0,0.0,0.0,0.0,0.0,0.0,0.0,0.0,0.0,0.0,0.0,0.0,0.0,0.0,0.0,0.0,0.0790462099376
1756813626843917000,977,1756813626843917000,map,3.78556625171,8.5651290815,0.0,0.0,0.0,0.778188134171,0.628031231577,0.19483193391,0.0566572206499,0.0,0.0,0.0,0.0,0.0566572206499,0.197664086983,0.0,0.0,0.0,0.0,0.0,0.0,0.0,0.0,0.0,0.0,0.0,0.0,0.0,0.0,0.0,0.0,0.0,0.0,0.0,0.0,0.0,0.0,0.0,0.0,0.0,0.0,0.0,0.0342048560004
1756813627710657000,978,1756813627710657000,map,3.88042213598,7.96675624515,0.0,0.0,0.0,0.780976558474,0.624560337449,0.0362380262355,-0.00894956043976,0.0,0.0,0.0,0.0,-0.00894956043976,0.139245775496,0.0,0.0,0.0,0.0,0.0,0.0,0.0,0.0,0.0,0.0,0.0,0.0,0.0,0.0,0.0,0.0,0.0,0.0,0.0,0.0,0.0,0.0,0.0,0.0,0.0,0.0,0.0,0.00780021638982
1756813628443867000,979,1756813628443867000,map,3.97945754955,7.5245120058,0.0,0.0,0.0,0.77927650038,0.626680250172,0.0147406788458,-0.0152106687474,0.0,0.0,0.0,0.0,-0.0152106687474,0.127965754465,0.0,0.0,0.0,0.0,0.0,0.0,0.0,0.0,0.0,0.0,0.0,0.0,0.0,0.0,0.0,0.0,0.0,0.0,0.0,0.0,0.0,0.0,0.0,0.0,0.0,0.0,0.0,0.00400424184781
1756813628577244000,980,1756813628577244000,map,3.97202575791,7.47992424589,0.0,0.0,0.0,0.772695888773,0.63477638856,0.00613690115872,-0.0166008299655,0.0,0.0,0.0,0.0,-0.0166008299655,0.12244771341,0.0,0.0,0.0,0.0,0.0,0.0,0.0,0.0,0.0,0.0,0.0,0.0,0.0,0.0,0.0,0.0,0.0,0.0,0.0,0.0,0.0,0.0,0.0,0.0,0.0,0.0,0.0,0.00357458855873
1756813629577245000,981,1756813629577245000,map,4.1106365175,6.84531532138,0.0,0.0,0.0,0.778606229077,0.62751282062,0.00839873551241,-0.0188268399776,0.0,0.0,0.0,0.0,-0.0188268399776,0.128974533207,0.0,0.0,0.0,0.0,0.0,0.0,0.0,0.0,0.0,0.0,0.0,0.0,0.0,0.0,0.0,0.0,0.0,0.0,0.0,0.0,0.0,0.0,0.0,0.0,0.0,0.0,0.0,0.00441124178938
1756813630643839000,982,1756813630643839000,map,4.25044435996,6.14083989515,0.0,0.0,0.0,0.77639296489,0.630249128575,0.0119940212232,-0.0180679346529,0.0,0.0,0.0,0.0,-0.0180679346529,0.125514580792,0.0,0.0,0.0,0.0,0.0,0.0,0.0,0.0,0.0,0.0,0.0,0.0,0.0,0.0,0.0,0.0,0.0,0.0,0.0,0.0,0.0,0.0,0.0,0.0,0.0,0.0,0.0,0.00519930298589
1756813631710421000,983,1756813631710421000,map,4.38553093591,5.50711554073,0.0,0.0,0.0,0.776952853577,0.62955878464,0.0141319103339,-0.0159503893802,0.0,0.0,0.0,0.0,-0.0159503893802,0.119791753556,0.0,0.0,0.0,0.0,0.0,0.0,0.0,0.0,0.0,0.0,0.0,0.0,0.0,0.0,0.0,0.0,0.0,0.0,0.0,0.0,0.0,0.0,0.0,0.0,0.0,0.0,0.0,0.00442668502813
1756813632644221000,984,1756813632644221000,map,4.49836801015,4.91061375126,0.0,0.0,0.0,0.769183764259,0.639027649481,0.0123412042567,-0.0154469622349,0.0,0.0,0.0,0.0,-0.0154469622349,0.120344231743,0.0,0.0,0.0,0.0,0.0,0.0,0.0,0.0,0.0,0.0,0.0,0.0,0.0,0.0,0.0,0.0,0.0,0.0,0.0,0.0,0.0,0.0,0.0,0.0,0.0,0.0,0.0,0.00357530018533
1756813633510699000,985,1756813633510699000,map,4.54843677349,4.40521969697,0.0,0.0,0.0,0.762558367568,0.646919420061,0.0104227921992,-0.016939908779,0.0,0.0,0.0,0.0,-0.016939908779,0.124726133617,0.0,0.0,0.0,0.0,0.0,0.0,0.0,0.0,0.0,0.0,0.0,0.0,0.0,0.0,0.0,0.0,0.0,0.0,0.0,0.0,0.0,0.0,0.0,0.0,0.0,0.0,0.0,0.00303257381823
1756813634177965000,986,1756813634177965000,map,4.61160345849,3.9518486928,0.0,0.0,0.0,0.75721763834,0.653162650636,0.0101591850776,-0.015766393411,0.0,0.0,0.0,0.0,-0.015766393411,0.120938304698,0.0,0.0,0.0,0.0,0.0,0.0,0.0,0.0,0.0,0.0,0.0,0.0,0.0,0.0,0.0,0.0,0.0,0.0,0.0,0.0,0.0,0.0,0.0,0.0,0.0,0.0,0.0,0.0027744451339
1756813635044461000,987,1756813635044461000,map,4.6583483801,3.3863714221,0.0,0.0,0.0,0.746098623998,0.665835447591,0.00876394188071,-0.0152800182585,0.0,0.0,0.0,0.0,-0.0152800182585,0.120400254883,0.0,0.0,0.0,0.0,0.0,0.0,0.0,0.0,0.0,0.0,0.0,0.0,0.0,0.0,0.0,0.0,0.0,0.0,0.0,0.0,0.0,0.0,0.0,0.0,0.0,0.0,0.0,0.00229447293177
1756813636043890000,988,1756813636043890000,map,4.74166824571,2.80914866608,0.0,0.0,0.0,0.752650521408,0.658420224951,0.0105366017395,-0.0152237299184,0.0,0.0,0.0,0.0,-0.0152237299184,0.124283363434,0.0,0.0,0.0,0.0,0.0,0.0,0.0,0.0,0.0,0.0,0.0,0.0,0.0,0.0,0.0,0.0,0.0,0.0,0.0,0.0,0.0,0.0,0.0,0.0,0.0,0.0,0.0,0.00313857814417
1756813636710496000,989,1756813636710496000,map,4.75557041904,2.35197902569,0.0,0.0,0.0,0.74853722839,0.66309276705,0.0100422069355,-0.0158015792953,0.0,0.0,0.0,0.0,-0.0158015792953,0.124194170331,0.0,0.0,0.0,0.0,0.0,0.0,0.0,0.0,0.0,0.0,0.0,0.0,0.0,0.0,0.0,0.0,0.0,0.0,0.0,0.0,0.0,0.0,0.0,0.0,0.0,0.0,0.0,0.00245114541322
1756813637511111000,990,1756813637511111000,map,4.80180919872,1.83228918676,0.0,0.0,0.0,0.750016179786,0.661419481161,0.00947450766831,-0.0160999637503,0.0,0.0,0.0,0.0,-0.0160999637503,0.125458939909,0.0,0.0,0.0,0.0,0.0,0.0,0.0,0.0,0.0,0.0,0.0,0.0,0.0,0.0,0.0,0.0,0.0,0.0,0.0,0.0,0.0,0.0,0.0,0.0,0.0,0.0,0.0,0.002256322286
1756813638510377000,991,1756813638510377000,map,4.87415042675,1.16798479327,0.0,0.0,0.0,0.750429827529,0.660950129703,0.00997565401594,-0.0169084405106,0.0,0.0,0.0,0.0,-0.0169084405106,0.130575917496,0.0,0.0,0.0,0.0,0.0,0.0,0.0,0.0,0.0,0.0,0.0,0.0,0.0,0.0,0.0,0.0,0.0,0.0,0.0,0.0,0.0,0.0,0.0,0.0,0.0,0.0,0.0,0.00309131395051
1756813639577754000,992,1756813639577754000,map,4.92990964367,0.562549793922,0.0,0.0,0.0,0.748337209996,0.663318490723,0.00954542689948,-0.0172843693864,0.0,0.0,0.0,0.0,-0.0172843693864,0.135858001651,0.0,0.0,0.0,0.0,0.0,0.0,0.0,0.0,0.0,0.0,0.0,0.0,0.0,0.0,0.0,0.0,0.0,0.0,0.0,0.0,0.0,0.0,0.0,0.0,0.0,0.0,0.0,0.00329098670758
1756813640444241000,993,1756813640444241000,map,5.00393116443,-0.113085240382,0.0,0.0,0.0,0.750451969888,0.660924988853,0.00904181543516,-0.0180187396913,0.0,0.0,0.0,0.0,-0.0180187396913,0.142273164798,0.0,0.0,0.0,0.0,0.0,0.0,0.0,0.0,0.0,0.0,0.0,0.0,0.0,0.0,0.0,0.0,0.0,0.0,0.0,0.0,0.0,0.0,0.0,0.0,0.0,0.0,0.0,0.00286239538647
1756813641377779000,994,1756813641377779000,map,5.08808997449,-0.699603110642,0.0,0.0,0.0,0.749595698642,0.66189598018,0.00961840276787,-0.0194548383824,0.0,0.0,0.0,0.0,-0.0194548383824,0.152580849274,0.0,0.0,0.0,0.0,0.0,0.0,0.0,0.0,0.0,0.0,0.0,0.0,0.0,0.0,0.0,0.0,0.0,0.0,0.0,0.0,0.0,0.0,0.0,0.0,0.0,0.0,0.0,0.00269888912525
1756813642377214000,995,1756813642377214000,map,5.12216266568,-1.10426432507,0.0,0.0,0.0,0.75421448559,0.656628136563,0.00930590985321,-0.0199295342241,0.0,0.0,0.0,0.0,-0.0199295342241,0.156932626588,0.0,0.0,0.0,0.0,0.0,0.0,0.0,0.0,0.0,0.0,0.0,0.0,0.0,0.0,0.0,0.0,0.0,0.0,0.0,0.0,0.0,0.0,0.0,0.0,0.0,0.0,0.0,0.00276363213428
1756813643310946000,996,1756813643310946000,map,5.20101238433,-1.85314226383,0.0,0.0,0.0,0.760778059702,0.649012129222,0.00909761583355,-0.01996019884,0.0,0.0,0.0,0.0,-0.01996019884,0.154972689113,0.0,0.0,0.0,0.0,0.0,0.0,0.0,0.0,0.0,0.0,0.0,0.0,0.0,0.0,0.0,0.0,0.0,0.0,0.0,0.0,0.0,0.0,0.0,0.0,0.0,0.0,0.0,0.00233268250462
1756813644777092000,997,1756813644777092000,map,5.32110176141,-2.8017635026,0.0,0.0,0.0,0.756787577611,0.653660892492,0.0130923128775,-0.0197798006952,0.0,0.0,0.0,0.0,-0.0197798006952,0.155823925547,0.0,0.0,0.0,0.0,0.0,0.0,0.0,0.0,0.0,0.0,0.0,0.0,0.0,0.0,0.0,0.0,0.0,0.0,0.0,0.0,0.0,0.0,0.0,0.0,0.0,0.0,0.0,0.00679445913366
1756813645910508000,998,1756813645910508000,map,5.393474115,-3.56232836444,0.0,0.0,0.0,0.75496090989,0.655769795384,0.0156469438556,-0.0203719314484,0.0,0.0,0.0,0.0,-0.0203719314484,0.159143115963,0.0,0.0,0.0,0.0,0.0,0.0,0.0,0.0,0.0,0.0,0.0,0.0,0.0,0.0,0.0,0.0,0.0,0.0,0.0,0.0,0.0,0.0,0.0,0.0,0.0,0.0,0.0,0.00615241424905
1756813646643882000,999,1756813646643882000,map,5.41251467742,-4.02979656909,0.0,0.0,0.0,0.766422548539,0.642336731855,0.0134540674396,-0.0217779515347,0.0,0.0,0.0,0.0,-0.0217779515347,0.154138535723,0.0,0.0,0.0,0.0,0.0,0.0,0.0,0.0,0.0,0.0,0.0,0.0,0.0,0.0,0.0,0.0,0.0,0.0,0.0,0.0,0.0,0.0,0.0,0.0,0.0,0.0,0.0,0.00375334042565
1756813647377711000,1000,1756813647377711000,map,5.4633864491,-4.52486220804,0.0,0.0,0.0,0.770580411518,0.637342787976,0.0119383220583,-0.0235734651007,0.0,0.0,0.0,0.0,-0.0235734651007,0.159353085309,0.0,0.0,0.0,0.0,0.0,0.0,0.0,0.0,0.0,0.0,0.0,0.0,0.0,0.0,0.0,0.0,0.0,0.0,0.0,0.0,0.0,0.0,0.0,0.0,0.0,0.0,0.0,0.00283627385662
1756813648310970000,1001,1756813648310970000,map,5.51064103932,-5.01477413511,0.0,0.0,0.0,0.767898144227,0.640571963243,0.0124975095649,-0.0226385301598,0.0,0.0,0.0,0.0,-0.0226385301598,0.146317131369,0.0,0.0,0.0,0.0,0.0,0.0,0.0,0.0,0.0,0.0,0.0,0.0,0.0,0.0,0.0,0.0,0.0,0.0,0.0,0.0,0.0,0.0,0.0,0.0,0.0,0.0,0.0,0.00308776227799
1756813648977682000,1002,1756813648977682000,map,5.4961558411,-5.16498419274,0.0,0.0,0.0,0.765502452652,0.643432976295,0.0123092930077,-0.0225696791763,0.0,0.0,0.0,0.0,-0.0225696791763,0.136668693642,0.0,0.0,0.0,0.0,0.0,0.0,0.0,0.0,0.0,0.0,0.0,0.0,0.0,0.0,0.0,0.0,0.0,0.0,0.0,0.0,0.0,0.0,0.0,0.0,0.0,0.0,0.0,0.00264623228347
