%time,field.header.seq,field.header.stamp,field.header.frame_id,field.pose.pose.position.x,field.pose.pose.position.y,field.pose.pose.position.z,field.pose.pose.orientation.x,field.pose.pose.orientation.y,field.pose.pose.orientation.z,field.pose.pose.orientation.w,field.pose.covariance0,field.pose.covariance1,field.pose.covariance2,field.pose.covariance3,field.pose.covariance4,field.pose.covariance5,field.pose.covariance6,field.pose.covariance7,field.pose.covariance8,field.pose.covariance9,field.pose.covariance10,field.pose.covariance11,field.pose.covariance12,field.pose.covariance13,field.pose.covariance14,field.pose.covariance15,field.pose.covariance16,field.pose.covariance17,field.pose.covariance18,field.pose.covariance19,field.pose.covariance20,field.pose.covariance21,field.pose.covariance22,field.pose.covariance23,field.pose.covariance24,field.pose.covariance25,field.pose.covariance26,field.pose.covariance27,field.pose.covariance28,field.pose.covariance29,field.pose.covariance30,field.pose.covariance31,field.pose.covariance32,field.pose.covariance33,field.pose.covariance34,field.pose.covariance35
1756813345046096000,401,1756813345046096000,map,10.7497448514,11.9001504885,0.0,0.0,0.0,-0.582914438821,0.812533542086,0.0378680717633,-0.0239055180997,0.0,0.0,0.0,0.0,-0.0239055180997,0.0932191308438,0.0,0.0,0.0,0.0,0.0,0.0,0.0,0.0,0.0,0.0,0.0,0.0,0.0,0.0,0.0,0.0,0.0,0.0,0.0,0.0,0.0,0.0,0.0,0.0,0.0,0.0,0.0,0.0150442497952
1756812887581191000,0,1756812887581191000,map,10.6917686629,12.076497109,0.0,0.0,0.0,-0.581082401857,0.813844728589,0.0372625963248,0.000455475568259,0.0,0.0,0.0,0.0,0.000455475568259,0.0921248516498,0.0,0.0,0.0,0.0,0.0,0.0,0.0,0.0,0.0,0.0,0.0,0.0,0.0,0.0,0.0,0.0,0.0,0.0,0.0,0.0,0.0,0.0,0.0,0.0,0.0,0.0,0.0,0.0150330454469
1756812903847581000,1,1756812903847581000,map,-11.0833780677,-12.2136096988,0.0,0.0,0.0,-0.690608206847,0.723229081713,0.247658505789,0.000359969451068,0.0,0.0,0.0,0.0,0.000359969451068,0.242900989264,0.0,0.0,0.0,0.0,0.0,0.0,0.0,0.0,0.0,0.0,0.0,0.0,0.0,0.0,0.0,0.0,0.0,0.0,0.0,0.0,0.0,0.0,0.0,0.0,0.0,0.0,0.0,0.0671656724325
1756812926181059000,2,1756812926181059000,map,-11.0478324107,-11.84283369,0.0,0.0,0.0,-0.689979403747,0.723829000804,0.201467352336,0.00226644560104,0.0,0.0,0.0,0.0,0.00226644560104,0.241252157832,0.0,0.0,0.0,0.0,0.0,0.0,0.0,0.0,0.0,0.0,0.0,0.0,0.0,0.0,0.0,0.0,0.0,0.0,0.0,0.0,0.0,0.0,0.0,0.0,0.0,0.0,0.0,0.054338037777
1756812927247646000,3,1756812927247646000,map,-11.044205315,-11.2318284485,0.0,0.0,0.0,-0.676391128033,0.73654262736,0.0988187723078,-0.00553913106475,0.0,0.0,0.0,0.0,-0.00553913106474,0.223499900966,0.0,0.0,0.0,0.0,0.0,0.0,0.0,0.0,0.0,0.0,0.0,0.0,0.0,0.0,0.0,0.0,0.0,0.0,0.0,0.0,0.0,0.0,0.0,0.0,0.0,0.0,0.0,0.0247752101341
1756812928449652000,4,1756812928449652000,map,-11.1030726978,-10.6010794274,0.0,0.0,0.0,-0.669449766223,0.742857328498,0.0465117658269,-0.0164000537915,0.0,0.0,0.0,0.0,-0.0164000537915,0.208100989879,0.0,0.0,0.0,0.0,0.0,0.0,0.0,0.0,0.0,0.0,0.0,0.0,0.0,0.0,0.0,0.0,0.0,0.0,0.0,0.0,0.0,0.0,0.0,0.0,0.0,0.0,0.0,0.0127482629761
1756812929449145000,5,1756812929449145000,map,-11.1452038104,-10.0151011968,0.0,0.0,0.0,-0.668908271161,0.743344956781,0.0176182322741,-0.0210251409557,0.0,0.0,0.0,0.0,-0.0210251409557,0.209738097067,0.0,0.0,0.0,0.0,0.0,0.0,0.0,0.0,0.0,0.0,0.0,0.0,0.0,0.0,0.0,0.0,0.0,0.0,0.0,0.0,0.0,0.0,0.0,0.0,0.0,0.0,0.0,0.00842910819396
1756812930380506000,6,1756812930380506000,map,-11.2206446159,-9.44984699678,0.0,0.0,0.0,-0.658197133492,0.752845623925,0.0101969260864,-0.0250025710251,0.0,0.0,0.0,0.0,-0.0250025710251,0.201868395498,0.0,0.0,0.0,0.0,0.0,0.0,0.0,0.0,0.0,0.0,0.0,0.0,0.0,0.0,0.0,0.0,0.0,0.0,0.0,0.0,0.0,0.0,0.0,0.0,0.0,0.0,0.0,0.00730364576487
1756812931314219000,7,1756812931314219000,map,-11.3232418674,-8.75517584091,0.0,0.0,0.0,-0.655447138512,0.755241053318,0.00987455575168,-0.0257629070894,0.0,0.0,0.0,0.0,-0.0257629070894,0.192510036342,0.0,0.0,0.0,0.0,0.0,0.0,0.0,0.0,0.0,0.0,0.0,0.0,0.0,0.0,0.0,0.0,0.0,0.0,0.0,0.0,0.0,0.0,0.0,0.0,0.0,0.0,0.0,0.00506727776951
1756812932247948000,8,1756812932247948000,map,-11.4164982502,-8.09051386455,0.0,0.0,0.0,-0.649956542119,0.759971376669,0.0124429007239,-0.025245119998,0.0,0.0,0.0,0.0,-0.025245119998,0.171382033471,0.0,0.0,0.0,0.0,0.0,0.0,0.0,0.0,0.0,0.0,0.0,0.0,0.0,0.0,0.0,0.0,0.0,0.0,0.0,0.0,0.0,0.0,0.0,0.0,0.0,0.0,0.0,0.00508372978065
1756812933181031000,9,1756812933181031000,map,-11.5299771477,-7.48888585461,0.0,0.0,0.0,-0.645473618649,0.763782565675,0.0140166935711,-0.0257799489292,0.0,0.0,0.0,0.0,-0.0257799489292,0.170159817259,0.0,0.0,0.0,0.0,0.0,0.0,0.0,0.0,0.0,0.0,0.0,0.0,0.0,0.0,0.0,0.0,0.0,0.0,0.0,0.0,0.0,0.0,0.0,0.0,0.0,0.0,0.0,0.00412708279946
1756812934113765000,10,1756812934113765000,map,-11.6407067877,-6.9086195778,0.0,0.0,0.0,-0.634303220523,0.773084357903,0.0131148014939,-0.023740319619,0.0,0.0,0.0,0.0,-0.023740319619,0.158639469896,0.0,0.0,0.0,0.0,0.0,0.0,0.0,0.0,0.0,0.0,0.0,0.0,0.0,0.0,0.0,0.0,0.0,0.0,0.0,0.0,0.0,0.0,0.0,0.0,0.0,0.0,0.0,0.00308982217438
1756812934914393000,11,1756812934914393000,map,-11.7271966213,-6.40154113222,0.0,0.0,0.0,-0.634531533937,0.772896974014,0.0129202730479,-0.0250085004787,0.0,0.0,0.0,0.0,-0.0250085004787,0.162797174936,0.0,0.0,0.0,0.0,0.0,0.0,0.0,0.0,0.0,0.0,0.0,0.0,0.0,0.0,0.0,0.0,0.0,0.0,0.0,0.0,0.0,0.0,0.0,0.0,0.0,0.0,0.0,0.00299465972634
1756812935713890000,12,1756812935713890000,map,-11.7928020548,-5.96150789763,0.0,0.0,0.0,-0.638805536893,0.769368238254,0.0111671900735,-0.0243927090841,0.0,0.0,0.0,0.0,-0.0243927090841,0.161525125331,0.0,0.0,0.0,0.0,0.0,0.0,0.0,0.0,0.0,0.0,0.0,0.0,0.0,0.0,0.0,0.0,0.0,0.0,0.0,0.0,0.0,0.0,0.0,0.0,0.0,0.0,0.0,0.00238264636708
1756812936514324000,13,1756812936514324000,map,-11.9008491347,-5.42228817455,0.0,0.0,0.0,-0.637897181914,0.770121539308,0.0103650534462,-0.0234173812484,0.0,0.0,0.0,0.0,-0.0234173812484,0.162878474213,0.0,0.0,0.0,0.0,0.0,0.0,0.0,0.0,0.0,0.0,0.0,0.0,0.0,0.0,0.0,0.0,0.0,0.0,0.0,0.0,0.0,0.0,0.0,0.0,0.0,0.0,0.0,0.00204658709006
1756812937313969000,14,1756812937313969000,map,-12.0045171489,-4.90255939747,0.0,0.0,0.0,-0.637889531251,0.770127876343,0.00992878929605,-0.0224233734686,0.0,0.0,0.0,0.0,-0.0224233734686,0.160205284332,0.0,0.0,0.0,0.0,0.0,0.0,0.0,0.0,0.0,0.0,0.0,0.0,0.0,0.0,0.0,0.0,0.0,0.0,0.0,0.0,0.0,0.0,0.0,0.0,0.0,0.0,0.0,0.00212364545415
1756812938114689000,15,1756812938114689000,map,-12.0900289077,-4.37960513621,0.0,0.0,0.0,-0.64456236102,0.764551739751,0.00912525741688,-0.0232162373423,0.0,0.0,0.0,0.0,-0.0232162373423,0.162888071773,0.0,0.0,0.0,0.0,0.0,0.0,0.0,0.0,0.0,0.0,0.0,0.0,0.0,0.0,0.0,0.0,0.0,0.0,0.0,0.0,0.0,0.0,0.0,0.0,0.0,0.0,0.0,0.0018388076759
1756812938913855000,16,1756812938913855000,map,-12.1859852811,-3.8894767836,0.0,0.0,0.0,-0.639730843883,0.768599015993,0.00998756081154,-0.0237319631143,0.0,0.0,0.0,0.0,-0.0237319631143,0.168390279367,0.0,0.0,0.0,0.0,0.0,0.0,0.0,0.0,0.0,0.0,0.0,0.0,0.0,0.0,0.0,0.0,0.0,0.0,0.0,0.0,0.0,0.0,0.0,0.0,0.0,0.0,0.0,0.00202842270018
1756812939714441000,17,1756812939714441000,map,-12.2682171706,-3.40560046343,0.0,0.0,0.0,-0.636506706946,0.771271166331,0.0108144401879,-0.0229817583025,0.0,0.0,0.0,0.0,-0.0229817583025,0.164031329638,0.0,0.0,0.0,0.0,0.0,0.0,0.0,0.0,0.0,0.0,0.0,0.0,0.0,0.0,0.0,0.0,0.0,0.0,0.0,0.0,0.0,0.0,0.0,0.0,0.0,0.0,0.0,0.00248162833034
1756812940513652000,18,1756812940513652000,map,-12.3584990431,-2.81602249199,0.0,0.0,0.0,-0.641442177829,0.767171384048,0.010503725904,-0.0218726363687,0.0,0.0,0.0,0.0,-0.0218726363687,0.156728846317,0.0,0.0,0.0,0.0,0.0,0.0,0.0,0.0,0.0,0.0,0.0,0.0,0.0,0.0,0.0,0.0,0.0,0.0,0.0,0.0,0.0,0.0,0.0,0.0,0.0,0.0,0.0,0.0024452660299
1756812941313899000,19,1756812941313899000,map,-12.4262258582,-2.38335716275,0.0,0.0,0.0,-0.641336342997,0.767259861554,0.0108977516236,-0.0211967633132,0.0,0.0,0.0,0.0,-0.0211967633132,0.157513987422,0.0,0.0,0.0,0.0,0.0,0.0,0.0,0.0,0.0,0.0,0.0,0.0,0.0,0.0,0.0,0.0,0.0,0.0,0.0,0.0,0.0,0.0,0.0,0.0,0.0,0.0,0.0,0.00263372796085
1756812942114290000,20,1756812942114290000,map,-12.5027148385,-1.81830591213,0.0,0.0,0.0,-0.647716508526,0.761881437353,0.00983446798969,-0.0211505401478,0.0,0.0,0.0,0.0,-0.0211505401478,0.153912232251,0.0,0.0,0.0,0.0,0.0,0.0,0.0,0.0,0.0,0.0,0.0,0.0,0.0,0.0,0.0,0.0,0.0,0.0,0.0,0.0,0.0,0.0,0.0,0.0,0.0,0.0,0.0,0.00195390200077
1756812942913805000,21,1756812942913805000,map,-12.5846321767,-1.28863872545,0.0,0.0,0.0,-0.651252428995,0.758861168942,0.0109916509268,-0.019007111234,0.0,0.0,0.0,0.0,-0.019007111234,0.153326483423,0.0,0.0,0.0,0.0,0.0,0.0,0.0,0.0,0.0,0.0,0.0,0.0,0.0,0.0,0.0,0.0,0.0,0.0,0.0,0.0,0.0,0.0,0.0,0.0,0.0,0.0,0.0,0.00218915240041
1756812943847320000,22,1756812943847320000,map,-12.6670339099,-0.752001498678,0.0,0.0,0.0,-0.649756518384,0.76014239904,0.0102627856253,-0.0202120571401,0.0,0.0,0.0,0.0,-0.0202120571401,0.155035148965,0.0,0.0,0.0,0.0,0.0,0.0,0.0,0.0,0.0,0.0,0.0,0.0,0.0,0.0,0.0,0.0,0.0,0.0,0.0,0.0,0.0,0.0,0.0,0.0,0.0,0.0,0.0,0.00258426178255
1756812945047824000,23,1756812945047824000,map,-12.7774715402,0.0399948181436,0.0,0.0,0.0,-0.650978013905,0.759096585036,0.014111312628,-0.0208429597466,0.0,0.0,0.0,0.0,-0.0208429597466,0.157343328286,0.0,0.0,0.0,0.0,0.0,0.0,0.0,0.0,0.0,0.0,0.0,0.0,0.0,0.0,0.0,0.0,0.0,0.0,0.0,0.0,0.0,0.0,0.0,0.0,0.0,0.0,0.0,0.00589446418817
1756812946113843000,24,1756812946113843000,map,-12.8971347273,0.707765557886,0.0,0.0,0.0,-0.649559550695,0.760310719443,0.0185958065577,-0.0220593060724,0.0,0.0,0.0,0.0,-0.0220593060724,0.172983930423,0.0,0.0,0.0,0.0,0.0,0.0,0.0,0.0,0.0,0.0,0.0,0.0,0.0,0.0,0.0,0.0,0.0,0.0,0.0,0.0,0.0,0.0,0.0,0.0,0.0,0.0,0.0,0.0077776000852
1756812947180589000,25,1756812947180589000,map,-12.99496676,1.42554553577,0.0,0.0,0.0,-0.646187172018,0.763178968997,0.0179133254369,-0.0227159997136,0.0,0.0,0.0,0.0,-0.0227159997136,0.173364561124,0.0,0.0,0.0,0.0,0.0,0.0,0.0,0.0,0.0,0.0,0.0,0.0,0.0,0.0,0.0,0.0,0.0,0.0,0.0,0.0,0.0,0.0,0.0,0.0,0.0,0.0,0.0,0.00705920975878
1756812947314314000,26,1756812947314314000,map,-12.9888669193,1.45111572104,0.0,0.0,0.0,-0.649567116853,0.76030425535,0.0118492300222,-0.0235613505662,0.0,0.0,0.0,0.0,-0.0235613505662,0.174925965949,0.0,0.0,0.0,0.0,0.0,0.0,0.0,0.0,0.0,0.0,0.0,0.0,0.0,0.0,0.0,0.0,0.0,0.0,0.0,0.0,0.0,0.0,0.0,0.0,0.0,0.0,0.0,0.00470165695558
1756812948513723000,27,1756812948513723000,map,-13.1042165589,2.23444632743,0.0,0.0,0.0,-0.650749236026,0.759292718135,0.0130423013335,-0.0229886350879,0.0,0.0,0.0,0.0,-0.0229886350879,0.174871423323,0.0,0.0,0.0,0.0,0.0,0.0,0.0,0.0,0.0,0.0,0.0,0.0,0.0,0.0,0.0,0.0,0.0,0.0,0.0,0.0,0.0,0.0,0.0,0.0,0.0,0.0,0.0,0.00583106860695
1756812949713691000,28,1756812949713691000,map,-13.2262273602,3.00732147699,0.0,0.0,0.0,-0.641939694284,0.766755129688,0.0154802116486,-0.0217552922144,0.0,0.0,0.0,0.0,-0.0217552922144,0.172435250412,0.0,0.0,0.0,0.0,0.0,0.0,0.0,0.0,0.0,0.0,0.0,0.0,0.0,0.0,0.0,0.0,0.0,0.0,0.0,0.0,0.0,0.0,0.0,0.0,0.0,0.0,0.0,0.00780344726856
1756812950780509000,29,1756812950780509000,map,-13.3557234235,3.69045099962,0.0,0.0,0.0,-0.637911562474,0.770109627561,0.0134730977323,-0.0207714294304,0.0,0.0,0.0,0.0,-0.0207714294304,0.167870285517,0.0,0.0,0.0,0.0,0.0,0.0,0.0,0.0,0.0,0.0,0.0,0.0,0.0,0.0,0.0,0.0,0.0,0.0,0.0,0.0,0.0,0.0,0.0,0.0,0.0,0.0,0.0,0.0047519111177
1756812951847862000,30,1756812951847862000,map,-13.4693749511,4.3351489281,0.0,0.0,0.0,-0.633663679809,0.773608648408,0.0153673353648,-0.0192614918649,0.0,0.0,0.0,0.0,-0.0192614918649,0.163267294265,0.0,0.0,0.0,0.0,0.0,0.0,0.0,0.0,0.0,0.0,0.0,0.0,0.0,0.0,0.0,0.0,0.0,0.0,0.0,0.0,0.0,0.0,0.0,0.0,0.0,0.0,0.0,0.00474176911283
1756812952914184000,31,1756812952914184000,map,-13.5985311102,5.0420590549,0.0,0.0,0.0,-0.636115118681,0.77159416521,0.0175975524229,-0.0180186113536,0.0,0.0,0.0,0.0,-0.0180186113536,0.155868553505,0.0,0.0,0.0,0.0,0.0,0.0,0.0,0.0,0.0,0.0,0.0,0.0,0.0,0.0,0.0,0.0,0.0,0.0,0.0,0.0,0.0,0.0,0.0,0.0,0.0,0.0,0.0,0.00571513469896
1756812955450293000,32,1756812955450293000,map,-13.8892591274,6.5637729739,0.0,0.0,0.0,-0.614301522006,0.789071378306,0.179639024583,0.00139714491993,0.0,0.0,0.0,0.0,0.00139714491993,0.264440170443,0.0,0.0,0.0,0.0,0.0,0.0,0.0,0.0,0.0,0.0,0.0,0.0,0.0,0.0,0.0,0.0,0.0,0.0,0.0,0.0,0.0,0.0,0.0,0.0,0.0,0.0,0.0,0.173768118959
1756812957047337000,33,1756812957047337000,map,-14.1537298434,7.44955101425,0.0,0.0,0.0,-0.667943256016,0.744212205451,0.387880071365,0.0431661607399,0.0,0.0,0.0,0.0,0.0431661607399,0.283201098224,0.0,0.0,0.0,0.0,0.0,0.0,0.0,0.0,0.0,0.0,0.0,0.0,0.0,0.0,0.0,0.0,0.0,0.0,0.0,0.0,0.0,0.0,0.0,0.0,0.0,0.0,0.0,0.119793873064
1756812957980595000,34,1756812957980595000,map,-13.9598751317,8.04500568907,0.0,0.0,0.0,-0.767468896998,0.641086181523,0.388410435942,0.0111944871994,0.0,0.0,0.0,0.0,0.0111944871994,0.266823878085,0.0,0.0,0.0,0.0,0.0,0.0,0.0,0.0,0.0,0.0,0.0,0.0,0.0,0.0,0.0,0.0,0.0,0.0,0.0,0.0,0.0,0.0,0.0,0.0,0.0,0.0,0.0,0.0780069946224
1756812958981120000,35,1756812958981120000,map,-13.852250576,8.57484835163,0.0,0.0,0.0,-0.815908895646,0.578180485666,0.350621087272,-0.013973115229,0.0,0.0,0.0,0.0,-0.013973115229,0.246681754702,0.0,0.0,0.0,0.0,0.0,0.0,0.0,0.0,0.0,0.0,0.0,0.0,0.0,0.0,0.0,0.0,0.0,0.0,0.0,0.0,0.0,0.0,0.0,0.0,0.0,0.0,0.0,0.0525439955037
1756812959780442000,36,1756812959780442000,map,-13.7014406457,9.13787788942,0.0,0.0,0.0,-0.891121276522,0.453765215205,0.475640220765,-0.136955952675,0.0,0.0,0.0,0.0,-0.136955952675,0.346437339133,0.0,0.0,0.0,0.0,0.0,0.0,0.0,0.0,0.0,0.0,0.0,0.0,0.0,0.0,0.0,0.0,0.0,0.0,0.0,0.0,0.0,0.0,0.0,0.0,0.0,0.0,0.0,0.0698289693038
1756812960780856000,37,1756812960780856000,map,-13.1759891263,9.45267715584,0.0,0.0,0.0,-0.973776105284,0.227508454298,1.30674021018,-1.29357208325,0.0,0.0,0.0,0.0,-1.29357208325,1.86447148278,0.0,0.0,0.0,0.0,0.0,0.0,0.0,0.0,0.0,0.0,0.0,0.0,0.0,0.0,0.0,0.0,0.0,0.0,0.0,0.0,0.0,0.0,0.0,0.0,0.0,0.0,0.0,0.306493735416
1756812961714324000,38,1756812961714324000,map,-10.1219022281,4.92813233527,0.0,0.0,0.0,0.541894971162,0.840446214953,1.64182847663,-2.82228928514,0.0,0.0,0.0,0.0,-2.82228928514,5.41685650701,0.0,0.0,0.0,0.0,0.0,0.0,0.0,0.0,0.0,0.0,0.0,0.0,0.0,0.0,0.0,0.0,0.0,0.0,0.0,0.0,0.0,0.0,0.0,0.0,0.0,0.0,0.0,0.776090879385
1756812962581280000,39,1756812962581280000,map,-10.4539967175,4.55916657345,0.0,0.0,0.0,0.21040258704,0.977614827714,0.303252869542,-0.709578816855,0.0,0.0,0.0,0.0,-0.709578816855,1.98281657609,0.0,0.0,0.0,0.0,0.0,0.0,0.0,0.0,0.0,0.0,0.0,0.0,0.0,0.0,0.0,0.0,0.0,0.0,0.0,0.0,0.0,0.0,0.0,0.0,0.0,0.0,0.0,0.212122515463
1756812963514675000,40,1756812963514675000,map,-11.0068214721,4.49834228676,0.0,0.0,0.0,-0.0649710370187,0.997887150107,0.0446089940496,-0.0971284585439,0.0,0.0,0.0,0.0,-0.0971284585439,0.439870777882,0.0,0.0,0.0,0.0,0.0,0.0,0.0,0.0,0.0,0.0,0.0,0.0,0.0,0.0,0.0,0.0,0.0,0.0,0.0,0.0,0.0,0.0,0.0,0.0,0.0,0.0,0.0,0.0586305896451
1756812964913781000,41,1756812964913781000,map,-11.7927430365,4.56623598207,0.0,0.0,0.0,-0.0424995062277,0.999096487818,0.015736011504,-0.0131311737123,0.0,0.0,0.0,0.0,-0.0131311737123,0.12924702495,0.0,0.0,0.0,0.0,0.0,0.0,0.0,0.0,0.0,0.0,0.0,0.0,0.0,0.0,0.0,0.0,0.0,0.0,0.0,0.0,0.0,0.0,0.0,0.0,0.0,0.0,0.0,0.0315837688879
1756812965913689000,42,1756812965913689000,map,-12.3962441517,4.73636062782,0.0,0.0,0.0,-0.128740958881,0.99167825705,0.0175854798651,0.000775505121986,0.0,0.0,0.0,0.0,0.000775505121986,0.163120257781,0.0,0.0,0.0,0.0,0.0,0.0,0.0,0.0,0.0,0.0,0.0,0.0,0.0,0.0,0.0,0.0,0.0,0.0,0.0,0.0,0.0,0.0,0.0,0.0,0.0,0.0,0.0,0.0402024095653
1756812966914249000,43,1756812966914249000,map,-12.9918667004,5.03723738724,0.0,0.0,0.0,-0.170412889153,0.985372745316,0.0315410580437,0.0217521539372,0.0,0.0,0.0,0.0,0.0217521539372,0.215138946928,0.0,0.0,0.0,0.0,0.0,0.0,0.0,0.0,0.0,0.0,0.0,0.0,0.0,0.0,0.0,0.0,0.0,0.0,0.0,0.0,0.0,0.0,0.0,0.0,0.0,0.0,0.0,0.0501981818703
1756812967847307000,44,1756812967847307000,map,-13.5613062769,5.12815728176,0.0,0.0,0.0,-0.146833327012,0.989161247764,0.13214640908,0.0692904155378,0.0,0.0,0.0,0.0,0.0692904155378,0.288442139802,0.0,0.0,0.0,0.0,0.0,0.0,0.0,0.0,0.0,0.0,0.0,0.0,0.0,0.0,0.0,0.0,0.0,0.0,0.0,0.0,0.0,0.0,0.0,0.0,0.0,0.0,0.0,0.0912874619801
1756812968513660000,45,1756812968513660000,map,-13.9005331457,5.54166271061,0.0,0.0,0.0,-0.206242469684,0.978500916555,0.621261041861,0.0947143276685,0.0,0.0,0.0,0.0,0.0947143276685,0.28891432471,0.0,0.0,0.0,0.0,0.0,0.0,0.0,0.0,0.0,0.0,0.0,0.0,0.0,0.0,0.0,0.0,0.0,0.0,0.0,0.0,0.0,0.0,0.0,0.0,0.0,0.0,0.0,0.258154963021
1756812969381020000,46,1756812969381020000,map,-10.9069111315,5.21273793152,0.0,0.0,0.0,0.734630269934,0.678467660613,3.11361293572,-0.348909957962,0.0,0.0,0.0,0.0,-0.348909957962,0.25381767503,0.0,0.0,0.0,0.0,0.0,0.0,0.0,0.0,0.0,0.0,0.0,0.0,0.0,0.0,0.0,0.0,0.0,0.0,0.0,0.0,0.0,0.0,0.0,0.0,0.0,0.0,0.0,1.27489149534
1756812970313723000,47,1756812970313723000,map,-10.8661059922,4.60357610544,0.0,0.0,0.0,0.731264261482,0.682094260259,2.08154581042,-0.671744012255,0.0,0.0,0.0,0.0,-0.671744012255,0.293071691343,0.0,0.0,0.0,0.0,0.0,0.0,0.0,0.0,0.0,0.0,0.0,0.0,0.0,0.0,0.0,0.0,0.0,0.0,0.0,0.0,0.0,0.0,0.0,0.0,0.0,0.0,0.0,0.45377134976
1756812971313847000,48,1756812971313847000,map,-10.810584342,3.9583065792,0.0,0.0,0.0,0.734284780594,0.678841558089,0.619565940979,-0.282867388529,0.0,0.0,0.0,0.0,-0.282867388529,0.152465641378,0.0,0.0,0.0,0.0,0.0,0.0,0.0,0.0,0.0,0.0,0.0,0.0,0.0,0.0,0.0,0.0,0.0,0.0,0.0,0.0,0.0,0.0,0.0,0.0,0.0,0.0,0.0,0.0856693884316
1756812972113600000,49,1756812972113600000,map,-10.7681147538,3.43328107074,0.0,0.0,0.0,0.768071950209,0.640363552447,0.154069652073,-0.0808915300403,0.0,0.0,0.0,0.0,-0.0808915300403,0.0539300255289,0.0,0.0,0.0,0.0,0.0,0.0,0.0,0.0,0.0,0.0,0.0,0.0,0.0,0.0,0.0,0.0,0.0,0.0,0.0,0.0,0.0,0.0,0.0,0.0,0.0,0.0,0.0,0.0181416080377
1756812972913923000,50,1756812972913923000,map,-10.6965155861,2.93535181343,0.0,0.0,0.0,0.773198187862,0.634164459969,0.0220937612631,-0.011930020523,0.0,0.0,0.0,0.0,-0.0119300205229,0.0156850517694,0.0,0.0,0.0,0.0,0.0,0.0,0.0,0.0,0.0,0.0,0.0,0.0,0.0,0.0,0.0,0.0,0.0,0.0,0.0,0.0,0.0,0.0,0.0,0.0,0.0,0.0,0.0,0.00376603889223
1756812973847520000,51,1756812973847520000,map,-10.5884125025,2.32886079485,0.0,0.0,0.0,0.770330433001,0.63764490431,0.00511963213967,-0.000428264113459,0.0,0.0,0.0,0.0,-0.000428264113459,0.00907531268993,0.0,0.0,0.0,0.0,0.0,0.0,0.0,0.0,0.0,0.0,0.0,0.0,0.0,0.0,0.0,0.0,0.0,0.0,0.0,0.0,0.0,0.0,0.0,0.0,0.0,0.0,0.0,0.00235291839887
1756812976047255000,52,1756812976047255000,map,-10.3388259113,0.99234017163,0.0,0.0,0.0,0.770233084366,0.637762491645,0.107581452827,0.00522712694815,0.0,0.0,0.0,0.0,0.00522712694815,0.0833649109805,0.0,0.0,0.0,0.0,0.0,0.0,0.0,0.0,0.0,0.0,0.0,0.0,0.0,0.0,0.0,0.0,0.0,0.0,0.0,0.0,0.0,0.0,0.0,0.0,0.0,0.0,0.0,0.0946251874571
1756812976847188000,53,1756812976847188000,map,-10.2670247932,0.451509233823,0.0,0.0,0.0,0.782470731867,0.622687364391,0.0706019049077,-0.00179783384704,0.0,0.0,0.0,0.0,-0.00179783384704,0.0815684788537,0.0,0.0,0.0,0.0,0.0,0.0,0.0,0.0,0.0,0.0,0.0,0.0,0.0,0.0,0.0,0.0,0.0,0.0,0.0,0.0,0.0,0.0,0.0,0.0,0.0,0.0,0.0,0.0336999118091
1756812977647761000,54,1756812977647761000,map,-10.1565319237,-0.0378749634445,0.0,0.0,0.0,0.78587914262,0.61838012031,0.0240125093889,-0.00861517820219,0.0,0.0,0.0,0.0,-0.00861517820219,0.0814658599684,0.0,0.0,0.0,0.0,0.0,0.0,0.0,0.0,0.0,0.0,0.0,0.0,0.0,0.0,0.0,0.0,0.0,0.0,0.0,0.0,0.0,0.0,0.0,0.0,0.0,0.0,0.0,0.00882767885068
1756812978581347000,55,1756812978581347000,map,-10.035574245,-0.619464460303,0.0,0.0,0.0,0.787456746409,0.616369915339,0.0101540246149,-0.0104659822835,0.0,0.0,0.0,0.0,-0.0104659822835,0.0837328876822,0.0,0.0,0.0,0.0,0.0,0.0,0.0,0.0,0.0,0.0,0.0,0.0,0.0,0.0,0.0,0.0,0.0,0.0,0.0,0.0,0.0,0.0,0.0,0.0,0.0,0.0,0.0,0.00413165061918
1756812979514209000,56,1756812979514209000,map,-9.89979872676,-1.21378097289,0.0,0.0,0.0,0.785868221346,0.618393999549,0.0076586819861,-0.0111469347786,0.0,0.0,0.0,0.0,-0.0111469347786,0.0863119205998,0.0,0.0,0.0,0.0,0.0,0.0,0.0,0.0,0.0,0.0,0.0,0.0,0.0,0.0,0.0,0.0,0.0,0.0,0.0,0.0,0.0,0.0,0.0,0.0,0.0,0.0,0.0,0.00297043805089
1756812980513573000,57,1756812980513573000,map,-9.76334232002,-1.82083567431,0.0,0.0,0.0,0.78711994947,0.616799955534,0.00868514036654,-0.0100350876044,0.0,0.0,0.0,0.0,-0.0100350876044,0.0863866956604,0.0,0.0,0.0,0.0,0.0,0.0,0.0,0.0,0.0,0.0,0.0,0.0,0.0,0.0,0.0,0.0,0.0,0.0,0.0,0.0,0.0,0.0,0.0,0.0,0.0,0.0,0.0,0.00393574784133
1756812981314245000,58,1756812981314245000,map,-9.66089890623,-2.32818481834,0.0,0.0,0.0,0.776391490196,0.630250945221,0.00682055288108,-0.0103851415687,0.0,0.0,0.0,0.0,-0.0103851415687,0.0839178763258,0.0,0.0,0.0,0.0,0.0,0.0,0.0,0.0,0.0,0.0,0.0,0.0,0.0,0.0,0.0,0.0,0.0,0.0,0.0,0.0,0.0,0.0,0.0,0.0,0.0,0.0,0.0,0.00268557196459
1756812982580986000,59,1756812982580986000,map,-9.51659387793,-3.13855679163,0.0,0.0,0.0,0.769692695289,0.638414563445,0.011906331291,-0.0099862639362,0.0,0.0,0.0,0.0,-0.0099862639362,0.0889519732095,0.0,0.0,0.0,0.0,0.0,0.0,0.0,0.0,0.0,0.0,0.0,0.0,0.0,0.0,0.0,0.0,0.0,0.0,0.0,0.0,0.0,0.0,0.0,0.0,0.0,0.0,0.0,0.00795581053931
1756812983449374000,60,1756812983449374000,map,-9.38991773662,-3.69878213901,0.0,0.0,0.0,0.772288003257,0.635272571441,0.0098193827031,-0.0104357819148,0.0,0.0,0.0,0.0,-0.0104357819148,0.0853532658721,0.0,0.0,0.0,0.0,0.0,0.0,0.0,0.0,0.0,0.0,0.0,0.0,0.0,0.0,0.0,0.0,0.0,0.0,0.0,0.0,0.0,0.0,0.0,0.0,0.0,0.0,0.0,0.00419732574123
1756812984513784000,61,1756812984513784000,map,-9.29756915416,-4.3696850485,0.0,0.0,0.0,0.763781734634,0.645474602009,0.0094147826499,-0.0115107394784,0.0,0.0,0.0,0.0,-0.0115107394784,0.0884220628571,0.0,0.0,0.0,0.0,0.0,0.0,0.0,0.0,0.0,0.0,0.0,0.0,0.0,0.0,0.0,0.0,0.0,0.0,0.0,0.0,0.0,0.0,0.0,0.0,0.0,0.0,0.0,0.00387471745829
1756812985449190000,62,1756812985449190000,map,-9.17871120085,-4.99652583823,0.0,0.0,0.0,0.763608914031,0.645679042878,0.00984861229031,-0.0125563141107,0.0,0.0,0.0,0.0,-0.0125563141107,0.0930988564837,0.0,0.0,0.0,0.0,0.0,0.0,0.0,0.0,0.0,0.0,0.0,0.0,0.0,0.0,0.0,0.0,0.0,0.0,0.0,0.0,0.0,0.0,0.0,0.0,0.0,0.0,0.0,0.00309059944186
1756812986647472000,63,1756812986647472000,map,-9.07259143877,-5.69552866316,0.0,0.0,0.0,0.758509273325,0.651662245554,0.00803562862011,-0.0140794248335,0.0,0.0,0.0,0.0,-0.0140794248335,0.0976768661038,0.0,0.0,0.0,0.0,0.0,0.0,0.0,0.0,0.0,0.0,0.0,0.0,0.0,0.0,0.0,0.0,0.0,0.0,0.0,0.0,0.0,0.0,0.0,0.0,0.0,0.0,0.0,0.00344549399597
1756812987581286000,64,1756812987581286000,map,-8.9743167959,-6.30598854745,0.0,0.0,0.0,0.761175069204,0.648546462501,0.00714205675467,-0.0128609117955,0.0,0.0,0.0,0.0,-0.0128609117956,0.0960092799933,0.0,0.0,0.0,0.0,0.0,0.0,0.0,0.0,0.0,0.0,0.0,0.0,0.0,0.0,0.0,0.0,0.0,0.0,0.0,0.0,0.0,0.0,0.0,0.0,0.0,0.0,0.0,0.00263367658802
1756812988449747000,65,1756812988449747000,map,-8.88469414799,-6.89294292454,0.0,0.0,0.0,0.758140025589,0.652091789244,0.00677318556586,-0.0123525497145,0.0,0.0,0.0,0.0,-0.0123525497145,0.0956018859642,0.0,0.0,0.0,0.0,0.0,0.0,0.0,0.0,0.0,0.0,0.0,0.0,0.0,0.0,0.0,0.0,0.0,0.0,0.0,0.0,0.0,0.0,0.0,0.0,0.0,0.0,0.0,0.00268291501646
1756812989180931000,66,1756812989180931000,map,-8.82360002582,-7.34340536568,0.0,0.0,0.0,0.758388348383,0.651802971025,0.00720873504252,-0.0113090897118,0.0,0.0,0.0,0.0,-0.0113090897118,0.0900212749866,0.0,0.0,0.0,0.0,0.0,0.0,0.0,0.0,0.0,0.0,0.0,0.0,0.0,0.0,0.0,0.0,0.0,0.0,0.0,0.0,0.0,0.0,0.0,0.0,0.0,0.0,0.0,0.00255690948125
1756812989847516000,67,1756812989847516000,map,-8.77393197217,-7.72710326257,0.0,0.0,0.0,0.76581442759,0.643061631956,0.00613853243171,-0.010397642141,0.0,0.0,0.0,0.0,-0.010397642141,0.0844077766838,0.0,0.0,0.0,0.0,0.0,0.0,0.0,0.0,0.0,0.0,0.0,0.0,0.0,0.0,0.0,0.0,0.0,0.0,0.0,0.0,0.0,0.0,0.0,0.0,0.0,0.0,0.0,0.00180589679659
1756812991047084000,68,1756812991047084000,map,-8.64099967965,-8.47338514077,0.0,0.0,0.0,0.765066446253,0.643951343518,0.00814479808336,-0.0101956953107,0.0,0.0,0.0,0.0,-0.0101956953107,0.0805572256308,0.0,0.0,0.0,0.0,0.0,0.0,0.0,0.0,0.0,0.0,0.0,0.0,0.0,0.0,0.0,0.0,0.0,0.0,0.0,0.0,0.0,0.0,0.0,0.0,0.0,0.0,0.0,0.00462049253759
1756812991847602000,69,1756812991847602000,map,-8.56272678271,-8.97113150932,0.0,0.0,0.0,0.768617091371,0.639709126753,0.0080884965429,-0.00981548543407,0.0,0.0,0.0,0.0,-0.00981548543407,0.0732657974579,0.0,0.0,0.0,0.0,0.0,0.0,0.0,0.0,0.0,0.0,0.0,0.0,0.0,0.0,0.0,0.0,0.0,0.0,0.0,0.0,0.0,0.0,0.0,0.0,0.0,0.0,0.0,0.00369969044069
1756812992514002000,70,1756812992514002000,map,-8.4841705051,-9.38037204836,0.0,0.0,0.0,0.769375953565,0.638796244569,0.00902857346649,-0.00859344607693,0.0,0.0,0.0,0.0,-0.00859344607692,0.0688596385635,0.0,0.0,0.0,0.0,0.0,0.0,0.0,0.0,0.0,0.0,0.0,0.0,0.0,0.0,0.0,0.0,0.0,0.0,0.0,0.0,0.0,0.0,0.0,0.0,0.0,0.0,0.0,0.00304579060833
1756812993449617000,71,1756812993449617000,map,-8.39076941138,-9.9442454804,0.0,0.0,0.0,0.771653077244,0.636043652889,0.0115915530535,-0.0061915367541,0.0,0.0,0.0,0.0,-0.0061915367541,0.0661643496176,0.0,0.0,0.0,0.0,0.0,0.0,0.0,0.0,0.0,0.0,0.0,0.0,0.0,0.0,0.0,0.0,0.0,0.0,0.0,0.0,0.0,0.0,0.0,0.0,0.0,0.0,0.0,0.00388137986622
1756812994380685000,72,1756812994380685000,map,-8.27787494434,-10.5226046187,0.0,0.0,0.0,0.77781461274,0.628493777383,0.0162735079667,-0.00461347954317,0.0,0.0,0.0,0.0,-0.00461347954317,0.0720169395986,0.0,0.0,0.0,0.0,0.0,0.0,0.0,0.0,0.0,0.0,0.0,0.0,0.0,0.0,0.0,0.0,0.0,0.0,0.0,0.0,0.0,0.0,0.0,0.0,0.0,0.0,0.0,0.00446847173833
1756812995450119000,73,1756812995450119000,map,-8.12885387176,-11.1779222715,0.0,0.0,0.0,0.778908846373,0.627137153295,0.0238089544994,-0.00232512792373,0.0,0.0,0.0,0.0,-0.00232512792373,0.0672011951071,0.0,0.0,0.0,0.0,0.0,0.0,0.0,0.0,0.0,0.0,0.0,0.0,0.0,0.0,0.0,0.0,0.0,0.0,0.0,0.0,0.0,0.0,0.0,0.0,0.0,0.0,0.0,0.00551761277831
1756812996246882000,74,1756812996246882000,map,-8.06365937815,-11.6995877139,0.0,0.0,0.0,0.72664030152,0.687018101805,0.0317015080599,-0.00151271519269,0.0,0.0,0.0,0.0,-0.00151271519269,0.0614871640505,0.0,0.0,0.0,0.0,0.0,0.0,0.0,0.0,0.0,0.0,0.0,0.0,0.0,0.0,0.0,0.0,0.0,0.0,0.0,0.0,0.0,0.0,0.0,0.0,0.0,0.0,0.0,0.00563493528132
1756812997180232000,75,1756812997180232000,map,-7.88162937885,-12.2818967344,0.0,0.0,0.0,0.900588319445,0.43467307126,0.0420134557242,0.00125352329711,0.0,0.0,0.0,0.0,0.00125352329709,0.0601846871176,0.0,0.0,0.0,0.0,0.0,0.0,0.0,0.0,0.0,0.0,0.0,0.0,0.0,0.0,0.0,0.0,0.0,0.0,0.0,0.0,0.0,0.0,0.0,0.0,0.0,0.0,0.0,0.0082935910169
1756812998246783000,76,1756812998246783000,map,-7.35784112797,-12.6889314922,0.0,0.0,0.0,0.986473368628,0.163921606225,0.0555712201511,0.012431895407,0.0,0.0,0.0,0.0,0.012431895407,0.0636703904358,0.0,0.0,0.0,0.0,0.0,0.0,0.0,0.0,0.0,0.0,0.0,0.0,0.0,0.0,0.0,0.0,0.0,0.0,0.0,0.0,0.0,0.0,0.0,0.0,0.0,0.0,0.0,0.0135385596862
1756812998980245000,77,1756812998980245000,map,-6.92304658832,-12.7714994179,0.0,0.0,0.0,-0.999896916063,0.0143581770177,0.0578798279459,0.0238517982114,0.0,0.0,0.0,0.0,0.0238517982114,0.0724409342556,0.0,0.0,0.0,0.0,0.0,0.0,0.0,0.0,0.0,0.0,0.0,0.0,0.0,0.0,0.0,0.0,0.0,0.0,0.0,0.0,0.0,0.0,0.0,0.0,0.0,0.0,0.0,0.0158489010044
1756813000980311000,78,1756813000980311000,map,-6.08354704672,-12.0058196975,0.0,0.0,0.0,-0.664350089691,0.747421539914,0.17226016739,0.0394298205503,0.0,0.0,0.0,0.0,0.0394298205503,0.201849339923,0.0,0.0,0.0,0.0,0.0,0.0,0.0,0.0,0.0,0.0,0.0,0.0,0.0,0.0,0.0,0.0,0.0,0.0,0.0,0.0,0.0,0.0,0.0,0.0,0.0,0.0,0.0,0.166990639012
1756813001913128000,79,1756813001913128000,map,-6.20185622385,-11.510306971,0.0,0.0,0.0,-0.448286456379,0.89388995577,0.264076170997,0.0317908769537,0.0,0.0,0.0,0.0,0.0317908769537,0.188396429882,0.0,0.0,0.0,0.0,0.0,0.0,0.0,0.0,0.0,0.0,0.0,0.0,0.0,0.0,0.0,0.0,0.0,0.0,0.0,0.0,0.0,0.0,0.0,0.0,0.0,0.0,0.0,0.175328923752
1756813002779994000,80,1756813002779994000,map,-6.27511246767,-11.0638168758,0.0,0.0,0.0,-0.562629783991,0.826708973077,0.284912831621,0.0314902713614,0.0,0.0,0.0,0.0,0.0314902713615,0.170673742848,0.0,0.0,0.0,0.0,0.0,0.0,0.0,0.0,0.0,0.0,0.0,0.0,0.0,0.0,0.0,0.0,0.0,0.0,0.0,0.0,0.0,0.0,0.0,0.0,0.0,0.0,0.0,0.134162472375
1756813003713541000,81,1756813003713541000,map,-6.23597238423,-10.5049308456,0.0,0.0,0.0,-0.656352073798,0.75445474034,0.2023592062,0.0278868642957,0.0,0.0,0.0,0.0,0.0278868642957,0.142366632161,0.0,0.0,0.0,0.0,0.0,0.0,0.0,0.0,0.0,0.0,0.0,0.0,0.0,0.0,0.0,0.0,0.0,0.0,0.0,0.0,0.0,0.0,0.0,0.0,0.0,0.0,0.0,0.0668895998173
1756813004714038000,82,1756813004714038000,map,-6.14704272929,-9.96890382918,0.0,0.0,0.0,-0.706393112116,0.707819730691,0.138065238345,0.0156689681104,0.0,0.0,0.0,0.0,0.0156689681104,0.12173080398,0.0,0.0,0.0,0.0,0.0,0.0,0.0,0.0,0.0,0.0,0.0,0.0,0.0,0.0,0.0,0.0,0.0,0.0,0.0,0.0,0.0,0.0,0.0,0.0,0.0,0.0,0.0,0.0316819508251
1756813005713560000,83,1756813005713560000,map,-6.19073681168,-9.30995900277,0.0,0.0,0.0,-0.688417783885,0.725314383444,0.0476488521203,-0.00496145594843,0.0,0.0,0.0,0.0,-0.00496145594843,0.100219156423,0.0,0.0,0.0,0.0,0.0,0.0,0.0,0.0,0.0,0.0,0.0,0.0,0.0,0.0,0.0,0.0,0.0,0.0,0.0,0.0,0.0,0.0,0.0,0.0,0.0,0.0,0.0,0.0125990577927
1756813006846739000,84,1756813006846739000,map,-6.30621937813,-8.60663532759,0.0,0.0,0.0,-0.630963228774,0.775812737672,0.0209686914016,-0.0120757307601,0.0,0.0,0.0,0.0,-0.0120757307601,0.0927963003672,0.0,0.0,0.0,0.0,0.0,0.0,0.0,0.0,0.0,0.0,0.0,0.0,0.0,0.0,0.0,0.0,0.0,0.0,0.0,0.0,0.0,0.0,0.0,0.0,0.0,0.0,0.0,0.00992072358587
1756813007713410000,85,1756813007713410000,map,-6.41443441033,-8.05950470736,0.0,0.0,0.0,-0.626673145985,0.779282213387,0.0135082742761,-0.0148390467889,0.0,0.0,0.0,0.0,-0.0148390467889,0.085719991209,0.0,0.0,0.0,0.0,0.0,0.0,0.0,0.0,0.0,0.0,0.0,0.0,0.0,0.0,0.0,0.0,0.0,0.0,0.0,0.0,0.0,0.0,0.0,0.0,0.0,0.0,0.0,0.00719486769153
1756813008847133000,86,1756813008847133000,map,-6.51331945992,-7.36306834255,0.0,0.0,0.0,-0.631634008295,0.775266715115,0.0134094613948,-0.0138630697009,0.0,0.0,0.0,0.0,-0.0138630697009,0.0858872383848,0.0,0.0,0.0,0.0,0.0,0.0,0.0,0.0,0.0,0.0,0.0,0.0,0.0,0.0,0.0,0.0,0.0,0.0,0.0,0.0,0.0,0.0,0.0,0.0,0.0,0.0,0.0,0.00534454566389
1756813010180175000,87,1756813010180175000,map,-6.67284934993,-6.50477104722,0.0,0.0,0.0,-0.617155449945,0.786841248666,0.0127501321106,-0.0121287541232,0.0,0.0,0.0,0.0,-0.0121287541232,0.0916552844274,0.0,0.0,0.0,0.0,0.0,0.0,0.0,0.0,0.0,0.0,0.0,0.0,0.0,0.0,0.0,0.0,0.0,0.0,0.0,0.0,0.0,0.0,0.0,0.0,0.0,0.0,0.0,0.00874564447067
1756813011247372000,88,1756813011247372000,map,-6.82383629739,-5.79558870512,0.0,0.0,0.0,-0.609066564903,0.793119108027,0.0142381081105,-0.0104870715757,0.0,0.0,0.0,0.0,-0.0104870715757,0.0907609218179,0.0,0.0,0.0,0.0,0.0,0.0,0.0,0.0,0.0,0.0,0.0,0.0,0.0,0.0,0.0,0.0,0.0,0.0,0.0,0.0,0.0,0.0,0.0,0.0,0.0,0.0,0.0,0.00638119551682
1756813012246917000,89,1756813012246917000,map,-6.95739582729,-5.19376019202,0.0,0.0,0.0,-0.611694828976,0.791093822631,0.015614468115,-0.00947026485949,0.0,0.0,0.0,0.0,-0.0094702648595,0.0934675146175,0.0,0.0,0.0,0.0,0.0,0.0,0.0,0.0,0.0,0.0,0.0,0.0,0.0,0.0,0.0,0.0,0.0,0.0,0.0,0.0,0.0,0.0,0.0,0.0,0.0,0.0,0.0,0.00563235958815
1756813013449585000,90,1756813013449585000,map,-7.09146808443,-4.41413914107,0.0,0.0,0.0,-0.656845620247,0.754025086561,0.0195162107091,-0.00922624117939,0.0,0.0,0.0,0.0,-0.0092262411794,0.0940375594608,0.0,0.0,0.0,0.0,0.0,0.0,0.0,0.0,0.0,0.0,0.0,0.0,0.0,0.0,0.0,0.0,0.0,0.0,0.0,0.0,0.0,0.0,0.0,0.0,0.0,0.0,0.0,0.00672774027927
1756813014646882000,91,1756813014646882000,map,-7.20992843325,-3.65488694426,0.0,0.0,0.0,-0.667798370272,0.744342217439,0.0163383756731,-0.0108963672986,0.0,0.0,0.0,0.0,-0.0108963672986,0.0942509368082,0.0,0.0,0.0,0.0,0.0,0.0,0.0,0.0,0.0,0.0,0.0,0.0,0.0,0.0,0.0,0.0,0.0,0.0,0.0,0.0,0.0,0.0,0.0,0.0,0.0,0.0,0.0,0.00650755175014
1756813015449963000,92,1756813015449963000,map,-7.30261731197,-3.15221801586,0.0,0.0,0.0,-0.660317768116,0.750986314863,0.0120653446375,-0.0119912942751,0.0,0.0,0.0,0.0,-0.0119912942751,0.0962804867918,0.0,0.0,0.0,0.0,0.0,0.0,0.0,0.0,0.0,0.0,0.0,0.0,0.0,0.0,0.0,0.0,0.0,0.0,0.0,0.0,0.0,0.0,0.0,0.0,0.0,0.0,0.0,0.00392055679253
1756813016246890000,93,1756813016246890000,map,-7.3651578098,-2.66758746776,0.0,0.0,0.0,-0.658321842585,0.752736575155,0.0115987201706,-0.0122529446169,0.0,0.0,0.0,0.0,-0.0122529446169,0.0999649001462,0.0,0.0,0.0,0.0,0.0,0.0,0.0,0.0,0.0,0.0,0.0,0.0,0.0,0.0,0.0,0.0,0.0,0.0,0.0,0.0,0.0,0.0,0.0,0.0,0.0,0.0,0.0,0.00295644377337
1756813017047348000,94,1756813017047348000,map,-7.39213707726,-2.17400442452,0.0,0.0,0.0,-0.666831713903,0.745208336865,0.00969772685232,-0.0125680590476,0.0,0.0,0.0,0.0,-0.0125680590476,0.101204854264,0.0,0.0,0.0,0.0,0.0,0.0,0.0,0.0,0.0,0.0,0.0,0.0,0.0,0.0,0.0,0.0,0.0,0.0,0.0,0.0,0.0,0.0,0.0,0.0,0.0,0.0,0.0,0.00217348419757
1756813018113447000,95,1756813018113447000,map,-7.44341932034,-1.46485428421,0.0,0.0,0.0,-0.677574123228,0.735454490456,0.0101908474863,-0.0127770301736,0.0,0.0,0.0,0.0,-0.0127770301736,0.0996291001999,0.0,0.0,0.0,0.0,0.0,0.0,0.0,0.0,0.0,0.0,0.0,0.0,0.0,0.0,0.0,0.0,0.0,0.0,0.0,0.0,0.0,0.0,0.0,0.0,0.0,0.0,0.0,0.00371157411843
1756813019047245000,96,1756813019047245000,map,-7.48247915122,-0.835682334582,0.0,0.0,0.0,-0.668090351036,0.744080158889,0.0104057971147,-0.013859480351,0.0,0.0,0.0,0.0,-0.013859480351,0.0999806991344,0.0,0.0,0.0,0.0,0.0,0.0,0.0,0.0,0.0,0.0,0.0,0.0,0.0,0.0,0.0,0.0,0.0,0.0,0.0,0.0,0.0,0.0,0.0,0.0,0.0,0.0,0.0,0.00350711374945
1756813020313405000,97,1756813020313405000,map,-7.56952638921,-0.0057810819812,0.0,0.0,0.0,-0.635322322344,0.772247076221,0.00881524594492,-0.014241206809,0.0,0.0,0.0,0.0,-0.014241206809,0.104375661335,0.0,0.0,0.0,0.0,0.0,0.0,0.0,0.0,0.0,0.0,0.0,0.0,0.0,0.0,0.0,0.0,0.0,0.0,0.0,0.0,0.0,0.0,0.0,0.0,0.0,0.0,0.0,0.00453195471088
1756813021180051000,98,1756813021180051000,map,-7.65644903113,0.550575800972,0.0,0.0,0.0,-0.627322805335,0.778759332468,0.00921428294393,-0.0147310845563,0.0,0.0,0.0,0.0,-0.0147310845563,0.107700702902,0.0,0.0,0.0,0.0,0.0,0.0,0.0,0.0,0.0,0.0,0.0,0.0,0.0,0.0,0.0,0.0,0.0,0.0,0.0,0.0,0.0,0.0,0.0,0.0,0.0,0.0,0.0,0.00343691937794
1756813022047296000,99,1756813022047296000,map,-7.73016618502,1.08852274573,0.0,0.0,0.0,-0.642424678809,0.766348831837,0.00867508011725,-0.0147308386666,0.0,0.0,0.0,0.0,-0.0147308386666,0.108918941839,0.0,0.0,0.0,0.0,0.0,0.0,0.0,0.0,0.0,0.0,0.0,0.0,0.0,0.0,0.0,0.0,0.0,0.0,0.0,0.0,0.0,0.0,0.0,0.0,0.0,0.0,0.0,0.0025877098365
1756813023246839000,100,1756813023246839000,map,-7.83973845182,1.84257858189,0.0,0.0,0.0,-0.65520334153,0.755452567173,0.00935404278233,-0.0159177542388,0.0,0.0,0.0,0.0,-0.0159177542388,0.115306430604,0.0,0.0,0.0,0.0,0.0,0.0,0.0,0.0,0.0,0.0,0.0,0.0,0.0,0.0,0.0,0.0,0.0,0.0,0.0,0.0,0.0,0.0,0.0,0.0,0.0,0.0,0.0,0.00335756312584
1756813024449385000,101,1756813024449385000,map,-7.92544912116,2.60961303026,0.0,0.0,0.0,-0.651964311131,0.758249653486,0.0105297839692,-0.0166386993199,0.0,0.0,0.0,0.0,-0.0166386993199,0.117717354658,0.0,0.0,0.0,0.0,0.0,0.0,0.0,0.0,0.0,0.0,0.0,0.0,0.0,0.0,0.0,0.0,0.0,0.0,0.0,0.0,0.0,0.0,0.0,0.0,0.0,0.0,0.0,0.00505867438565
1756813025913409000,102,1756813025913409000,map,-8.07614744962,3.56677038709,0.0,0.0,0.0,-0.649385355403,0.760459505949,0.0124662356422,-0.0162785476904,0.0,0.0,0.0,0.0,-0.0162785476904,0.116831915432,0.0,0.0,0.0,0.0,0.0,0.0,0.0,0.0,0.0,0.0,0.0,0.0,0.0,0.0,0.0,0.0,0.0,0.0,0.0,0.0,0.0,0.0,0.0,0.0,0.0,0.0,0.0,0.00712245026853
1756813027513380000,103,1756813027513380000,map,-8.22440499013,4.60455830516,0.0,0.0,0.0,-0.642457855602,0.766321018748,0.0199952149088,-0.0158780450411,0.0,0.0,0.0,0.0,-0.0158780450411,0.122132687769,0.0,0.0,0.0,0.0,0.0,0.0,0.0,0.0,0.0,0.0,0.0,0.0,0.0,0.0,0.0,0.0,0.0,0.0,0.0,0.0,0.0,0.0,0.0,0.0,0.0,0.0,0.0,0.0155565580772
1756813029113357000,104,1756813029113357000,map,-8.32929094139,5.54397309637,0.0,0.0,0.0,-0.64214682853,0.766581665974,0.0331388686459,-0.0165458189068,0.0,0.0,0.0,0.0,-0.0165458189068,0.128073545357,0.0,0.0,0.0,0.0,0.0,0.0,0.0,0.0,0.0,0.0,0.0,0.0,0.0,0.0,0.0,0.0,0.0,0.0,0.0,0.0,0.0,0.0,0.0,0.0,0.0,0.0,0.0,0.0162374804007
1756813030313876000,105,1756813030313876000,map,-8.47551074402,6.2891543832,0.0,0.0,0.0,-0.633669886241,0.773603564671,0.0284212674542,-0.0166992434531,0.0,0.0,0.0,0.0,-0.0166992434531,0.12529969652,0.0,0.0,0.0,0.0,0.0,0.0,0.0,0.0,0.0,0.0,0.0,0.0,0.0,0.0,0.0,0.0,0.0,0.0,0.0,0.0,0.0,0.0,0.0,0.0,0.0,0.0,0.0,0.00865371051177
1756813031180586000,106,1756813031180586000,map,-8.52203976321,6.70756681927,0.0,0.0,0.0,-0.640091064699,0.768299049129,0.0148685649483,-0.0124761567052,0.0,0.0,0.0,0.0,-0.0124761567052,0.105352260259,0.0,0.0,0.0,0.0,0.0,0.0,0.0,0.0,0.0,0.0,0.0,0.0,0.0,0.0,0.0,0.0,0.0,0.0,0.0,0.0,0.0,0.0,0.0,0.0,0.0,0.0,0.0,0.00523499504781
1756813032449038000,107,1756813032449038000,map,-8.68729539489,7.49726466995,0.0,0.0,0.0,-0.621258333809,0.78360582098,0.0197864578392,-0.0110402017139,0.0,0.0,0.0,0.0,-0.0110402017139,0.107052007939,0.0,0.0,0.0,0.0,0.0,0.0,0.0,0.0,0.0,0.0,0.0,0.0,0.0,0.0,0.0,0.0,0.0,0.0,0.0,0.0,0.0,0.0,0.0,0.0,0.0,0.0,0.0,0.00738756369863
1756813033313476000,108,1756813033313476000,map,-8.75761776763,7.99068192979,0.0,0.0,0.0,-0.62856847045,0.777754252934,0.0200844890991,-0.00977740656182,0.0,0.0,0.0,0.0,-0.00977740656182,0.0882510289976,0.0,0.0,0.0,0.0,0.0,0.0,0.0,0.0,0.0,0.0,0.0,0.0,0.0,0.0,0.0,0.0,0.0,0.0,0.0,0.0,0.0,0.0,0.0,0.0,0.0,0.0,0.0,0.00594718760488
1756813034449591000,109,1756813034449591000,map,-8.82912657717,8.70696102523,0.0,0.0,0.0,-0.692854886931,0.721077045576,0.0278266676096,-0.00770680647751,0.0,0.0,0.0,0.0,-0.00770680647751,0.0804049814855,0.0,0.0,0.0,0.0,0.0,0.0,0.0,0.0,0.0,0.0,0.0,0.0,0.0,0.0,0.0,0.0,0.0,0.0,0.0,0.0,0.0,0.0,0.0,0.0,0.0,0.0,0.0,0.00726416009372
1756813035580839000,110,1756813035580839000,map,-8.7076282623,9.41793022511,0.0,0.0,0.0,-0.8080170393,0.589159116199,0.0441773684732,-0.00344635507199,0.0,0.0,0.0,0.0,-0.00344635507199,0.078697469843,0.0,0.0,0.0,0.0,0.0,0.0,0.0,0.0,0.0,0.0,0.0,0.0,0.0,0.0,0.0,0.0,0.0,0.0,0.0,0.0,0.0,0.0,0.0,0.0,0.0,0.0,0.0,0.00991692252131
1756813036581253000,111,1756813036581253000,map,-8.38063471454,9.99437761256,0.0,0.0,0.0,-0.905767359224,0.42377528357,0.0641497690558,-0.00582306712849,0.0,0.0,0.0,0.0,-0.00582306712849,0.0719219470515,0.0,0.0,0.0,0.0,0.0,0.0,0.0,0.0,0.0,0.0,0.0,0.0,0.0,0.0,0.0,0.0,0.0,0.0,0.0,0.0,0.0,0.0,0.0,0.0,0.0,0.0,0.0,0.0128156661749
1756813037449048000,112,1756813037449048000,map,-8.0265435698,10.3685388508,0.0,0.0,0.0,-0.966418292668,0.256974091293,0.0843668186449,-0.0132233937686,0.0,0.0,0.0,0.0,-0.0132233937686,0.0726716092652,0.0,0.0,0.0,0.0,0.0,0.0,0.0,0.0,0.0,0.0,0.0,0.0,0.0,0.0,0.0,0.0,0.0,0.0,0.0,0.0,0.0,0.0,0.0,0.0,0.0,0.0,0.0,0.0165066378201
1756813038180566000,113,1756813038180566000,map,-7.58980362406,10.5530005882,0.0,0.0,0.0,-0.995256627244,0.0972843560285,0.098037152891,-0.0205277792476,0.0,0.0,0.0,0.0,-0.0205277792476,0.0710565848038,0.0,0.0,0.0,0.0,0.0,0.0,0.0,0.0,0.0,0.0,0.0,0.0,0.0,0.0,0.0,0.0,0.0,0.0,0.0,0.0,0.0,0.0,0.0,0.0,0.0,0.0,0.0,0.0168816434702
1756813039046993000,114,1756813039046993000,map,-7.0324323037,10.4971894281,0.0,0.0,0.0,0.977303625047,0.211843396097,0.10369585303,-0.0394146664818,0.0,0.0,0.0,0.0,-0.0394146664818,0.0853182710824,0.0,0.0,0.0,0.0,0.0,0.0,0.0,0.0,0.0,0.0,0.0,0.0,0.0,0.0,0.0,0.0,0.0,0.0,0.0,0.0,0.0,0.0,0.0,0.0,0.0,0.0,0.0,0.0198364823808
1756813040047267000,115,1756813040047267000,map,-6.63275452377,10.0901126244,0.0,0.0,0.0,0.80957424295,0.587017499869,0.0835878063469,-0.0390184334801,0.0,0.0,0.0,0.0,-0.0390184334801,0.108506098048,0.0,0.0,0.0,0.0,0.0,0.0,0.0,0.0,0.0,0.0,0.0,0.0,0.0,0.0,0.0,0.0,0.0,0.0,0.0,0.0,0.0,0.0,0.0,0.0,0.0,0.0,0.0,0.0236965196367
1756813041181133000,116,1756813041181133000,map,-6.73093487788,9.26572864034,0.0,0.0,0.0,0.611980224068,0.790873065258,0.0685886780219,-0.0122091743415,0.0,0.0,0.0,0.0,-0.0122091743415,0.117683182453,0.0,0.0,0.0,0.0,0.0,0.0,0.0,0.0,0.0,0.0,0.0,0.0,0.0,0.0,0.0,0.0,0.0,0.0,0.0,0.0,0.0,0.0,0.0,0.0,0.0,0.0,0.0,0.0308506987327
1756813042180413000,117,1756813042180413000,map,-6.93847040319,8.68961859643,0.0,0.0,0.0,0.550063348472,0.835122932668,0.089966492695,0.00179347843771,0.0,0.0,0.0,0.0,0.0017934784377,0.111177953898,0.0,0.0,0.0,0.0,0.0,0.0,0.0,0.0,0.0,0.0,0.0,0.0,0.0,0.0,0.0,0.0,0.0,0.0,0.0,0.0,0.0,0.0,0.0,0.0,0.0,0.0,0.0,0.0320218365908
1756813043246858000,118,1756813043246858000,map,-7.10308658631,8.12417260822,0.0,0.0,0.0,0.545572592532,0.838063569354,0.181101653147,0.0125117038207,0.0,0.0,0.0,0.0,0.0125117038207,0.108669306391,0.0,0.0,0.0,0.0,0.0,0.0,0.0,0.0,0.0,0.0,0.0,0.0,0.0,0.0,0.0,0.0,0.0,0.0,0.0,0.0,0.0,0.0,0.0,0.0,0.0,0.0,0.0,0.045681563618
1756813044180350000,119,1756813044180350000,map,-6.50373696259,7.66610379487,0.0,0.0,0.0,0.691602453237,0.722278372012,0.465558502923,0.0357785542618,0.0,0.0,0.0,0.0,0.0357785542618,0.0925007396427,0.0,0.0,0.0,0.0,0.0,0.0,0.0,0.0,0.0,0.0,0.0,0.0,0.0,0.0,0.0,0.0,0.0,0.0,0.0,0.0,0.0,0.0,0.0,0.0,0.0,0.0,0.0,0.0843877782443
1756813045313323000,120,1756813045313323000,map,-6.01292442672,7.05036869578,0.0,0.0,0.0,0.736920341985,0.675979592568,0.856658879168,0.0402508192097,0.0,0.0,0.0,0.0,0.0402508192097,0.0464368347928,0.0,0.0,0.0,0.0,0.0,0.0,0.0,0.0,0.0,0.0,0.0,0.0,0.0,0.0,0.0,0.0,0.0,0.0,0.0,0.0,0.0,0.0,0.0,0.0,0.0,0.0,0.0,0.096861097049
1756813046780599000,121,1756813046780599000,map,-5.71813950769,6.11894343604,0.0,0.0,0.0,0.749739324298,0.661733288872,0.56716598962,-0.0058746066234,0.0,0.0,0.0,0.0,-0.0058746066234,0.0281743800187,0.0,0.0,0.0,0.0,0.0,0.0,0.0,0.0,0.0,0.0,0.0,0.0,0.0,0.0,0.0,0.0,0.0,0.0,0.0,0.0,0.0,0.0,0.0,0.0,0.0,0.0,0.0,0.0480798087094
1756813047513257000,122,1756813047513257000,map,-5.65434227644,5.63632079947,0.0,0.0,0.0,0.753154605605,0.657843552872,0.201554768186,-0.00985369839567,0.0,0.0,0.0,0.0,-0.00985369839568,0.0200316793937,0.0,0.0,0.0,0.0,0.0,0.0,0.0,0.0,0.0,0.0,0.0,0.0,0.0,0.0,0.0,0.0,0.0,0.0,0.0,0.0,0.0,0.0,0.0,0.0,0.0,0.0,0.0,0.0147873397372
1756813048646616000,123,1756813048646616000,map,-5.57183311236,4.90926119038,0.0,0.0,0.0,0.771729659151,0.635950731729,0.0711750188715,-0.00420564886817,0.0,0.0,0.0,0.0,-0.00420564886817,0.0199491261739,0.0,0.0,0.0,0.0,0.0,0.0,0.0,0.0,0.0,0.0,0.0,0.0,0.0,0.0,0.0,0.0,0.0,0.0,0.0,0.0,0.0,0.0,0.0,0.0,0.0,0.0,0.0,0.00682300808737
1756813049513226000,124,1756813049513226000,map,-5.50677074297,4.38113906994,0.0,0.0,0.0,0.773022200365,0.63437897013,0.0347272299874,-0.00519559771832,0.0,0.0,0.0,0.0,-0.00519559771832,0.0197112368593,0.0,0.0,0.0,0.0,0.0,0.0,0.0,0.0,0.0,0.0,0.0,0.0,0.0,0.0,0.0,0.0,0.0,0.0,0.0,0.0,0.0,0.0,0.0,0.0,0.0,0.0,0.0,0.00348029484042
1756813050581208000,125,1756813050581208000,map,-5.36435257698,3.70509339692,0.0,0.0,0.0,0.778761091365,0.627320621833,0.0158231180143,-0.00378719521891,0.0,0.0,0.0,0.0,-0.00378719521891,0.0205276859907,0.0,0.0,0.0,0.0,0.0,0.0,0.0,0.0,0.0,0.0,0.0,0.0,0.0,0.0,0.0,0.0,0.0,0.0,0.0,0.0,0.0,0.0,0.0,0.0,0.0,0.0,0.0,0.00375197703295
1756813051379979000,126,1756813051379979000,map,-5.2712517561,3.19212691359,0.0,0.0,0.0,0.778031383421,0.628225410512,0.00640759201803,-0.00256667172058,0.0,0.0,0.0,0.0,-0.00256667172058,0.0203403647063,0.0,0.0,0.0,0.0,0.0,0.0,0.0,0.0,0.0,0.0,0.0,0.0,0.0,0.0,0.0,0.0,0.0,0.0,0.0,0.0,0.0,0.0,0.0,0.0,0.0,0.0,0.0,0.00259455865736
1756813052313102000,127,1756813052313102000,map,-5.16018316545,2.59559003164,0.0,0.0,0.0,0.771448923582,0.636291252733,0.00599727052668,-0.00263993553471,0.0,0.0,0.0,0.0,-0.00263993553471,0.0206281890238,0.0,0.0,0.0,0.0,0.0,0.0,0.0,0.0,0.0,0.0,0.0,0.0,0.0,0.0,0.0,0.0,0.0,0.0,0.0,0.0,0.0,0.0,0.0,0.0,0.0,0.0,0.0,0.00249085382141
1756813053313914000,128,1756813053313914000,map,-5.07359256477,1.94975550237,0.0,0.0,0.0,0.755527478065,0.655116958939,0.00609452100746,-0.00255188506882,0.0,0.0,0.0,0.0,-0.00255188506882,0.021686537487,0.0,0.0,0.0,0.0,0.0,0.0,0.0,0.0,0.0,0.0,0.0,0.0,0.0,0.0,0.0,0.0,0.0,0.0,0.0,0.0,0.0,0.0,0.0,0.0,0.0,0.0,0.0,0.00302097717236
1756813054246975000,129,1756813054246975000,map,-5.01065120771,1.34699928274,0.0,0.0,0.0,0.740984659053,0.671521954256,0.00659707417035,-0.00273028988272,0.0,0.0,0.0,0.0,-0.00273028988272,0.0227754513571,0.0,0.0,0.0,0.0,0.0,0.0,0.0,0.0,0.0,0.0,0.0,0.0,0.0,0.0,0.0,0.0,0.0,0.0,0.0,0.0,0.0,0.0,0.0,0.0,0.0,0.0,0.0,0.00309537351009
1756813055581145000,130,1756813055581145000,map,-4.9644800309,0.465018831596,0.0,0.0,0.0,0.727238044112,0.68638533434,0.00849085863598,-0.0025919288324,0.0,0.0,0.0,0.0,-0.0025919288324,0.0254188516723,0.0,0.0,0.0,0.0,0.0,0.0,0.0,0.0,0.0,0.0,0.0,0.0,0.0,0.0,0.0,0.0,0.0,0.0,0.0,0.0,0.0,0.0,0.0,0.0,0.0,0.0,0.0,0.00626378364974
1756813056847302000,131,1756813056847302000,map,-4.89753807662,-0.336849358939,0.0,0.0,0.0,0.728270392956,0.685289891027,0.0138144558424,-0.00186643429606,0.0,0.0,0.0,0.0,-0.00186643429606,0.0290563052562,0.0,0.0,0.0,0.0,0.0,0.0,0.0,0.0,0.0,0.0,0.0,0.0,0.0,0.0,0.0,0.0,0.0,0.0,0.0,0.0,0.0,0.0,0.0,0.0,0.0,0.0,0.0,0.00934552300308
1756813057646779000,132,1756813057646779000,map,-4.88463804738,-0.854582751401,0.0,0.0,0.0,0.736967179591,0.675928528918,0.0103339232233,-0.00220077633961,0.0,0.0,0.0,0.0,-0.00220077633961,0.028888738206,0.0,0.0,0.0,0.0,0.0,0.0,0.0,0.0,0.0,0.0,0.0,0.0,0.0,0.0,0.0,0.0,0.0,0.0,0.0,0.0,0.0,0.0,0.0,0.0,0.0,0.0,0.0,0.00406908001152
1756813058779926000,133,1756813058779926000,map,-4.81581408093,-1.58349595371,0.0,0.0,0.0,0.748853571877,0.662735488628,0.0116962651126,-0.00202831731393,0.0,0.0,0.0,0.0,-0.00202831731393,0.0319302901151,0.0,0.0,0.0,0.0,0.0,0.0,0.0,0.0,0.0,0.0,0.0,0.0,0.0,0.0,0.0,0.0,0.0,0.0,0.0,0.0,0.0,0.0,0.0,0.0,0.0,0.0,0.0,0.0043167181097
1756813059847229000,134,1756813059847229000,map,-4.71794159941,-2.25943695634,0.0,0.0,0.0,0.753789377454,0.657116104229,0.0120203770975,-0.00322244495315,0.0,0.0,0.0,0.0,-0.00322244495316,0.0336724352774,0.0,0.0,0.0,0.0,0.0,0.0,0.0,0.0,0.0,0.0,0.0,0.0,0.0,0.0,0.0,0.0,0.0,0.0,0.0,0.0,0.0,0.0,0.0,0.0,0.0,0.0,0.0,0.0052619676959
1756813060979929000,135,1756813060979929000,map,-4.58714488568,-2.99078160984,0.0,0.0,0.0,0.761474219546,0.648195196656,0.0113465660717,-0.00387793858105,0.0,0.0,0.0,0.0,-0.00387793858105,0.0351203521842,0.0,0.0,0.0,0.0,0.0,0.0,0.0,0.0,0.0,0.0,0.0,0.0,0.0,0.0,0.0,0.0,0.0,0.0,0.0,0.0,0.0,0.0,0.0,0.0,0.0,0.0,0.0,0.005006927802
1756813061980026000,136,1756813061980026000,map,-4.47241073238,-3.62525627857,0.0,0.0,0.0,0.763142014021,0.646230815139,0.00895957780125,-0.00481440891864,0.0,0.0,0.0,0.0,-0.00481440891864,0.0357470079636,0.0,0.0,0.0,0.0,0.0,0.0,0.0,0.0,0.0,0.0,0.0,0.0,0.0,0.0,0.0,0.0,0.0,0.0,0.0,0.0,0.0,0.0,0.0,0.0,0.0,0.0,0.0,0.00420415698851
1756813062779986000,137,1756813062779986000,map,-4.39401127906,-4.13518236705,0.0,0.0,0.0,0.763368712527,0.645963008798,0.00872866260955,-0.00468282892575,0.0,0.0,0.0,0.0,-0.00468282892575,0.0369096614515,0.0,0.0,0.0,0.0,0.0,0.0,0.0,0.0,0.0,0.0,0.0,0.0,0.0,0.0,0.0,0.0,0.0,0.0,0.0,0.0,0.0,0.0,0.0,0.0,0.0,0.0,0.0,0.00300860421091
1756813063713323000,138,1756813063713323000,map,-4.29146661837,-4.72633332123,0.0,0.0,0.0,0.762595151654,0.646876058201,0.0075127282896,-0.00490723607754,0.0,0.0,0.0,0.0,-0.00490723607754,0.0368492903443,0.0,0.0,0.0,0.0,0.0,0.0,0.0,0.0,0.0,0.0,0.0,0.0,0.0,0.0,0.0,0.0,0.0,0.0,0.0,0.0,0.0,0.0,0.0,0.0,0.0,0.0,0.0,0.00262690049132
1756813064846704000,139,1756813064846704000,map,-4.18169950341,-5.44288655523,0.0,0.0,0.0,0.76277263604,0.646666765582,0.00779432529135,-0.00455774942146,0.0,0.0,0.0,0.0,-0.00455774942146,0.0382952564288,0.0,0.0,0.0,0.0,0.0,0.0,0.0,0.0,0.0,0.0,0.0,0.0,0.0,0.0,0.0,0.0,0.0,0.0,0.0,0.0,0.0,0.0,0.0,0.0,0.0,0.0,0.0,0.00348520642511
1756813067113207000,140,1756813067113207000,map,-3.96476380207,-6.84756313028,0.0,0.0,0.0,0.749709339225,0.661767260205,0.0682138183421,-0.00380158372257,0.0,0.0,0.0,0.0,-0.00380158372257,0.0997067023474,0.0,0.0,0.0,0.0,0.0,0.0,0.0,0.0,0.0,0.0,0.0,0.0,0.0,0.0,0.0,0.0,0.0,0.0,0.0,0.0,0.0,0.0,0.0,0.0,0.0,0.0,0.0,0.10266848273
1756813069313137000,141,1756813069313137000,map,-3.79460702149,-8.24015727698,0.0,0.0,0.0,0.758912829116,0.651192227996,0.214457940125,0.0173796039076,0.0,0.0,0.0,0.0,0.0173796039076,0.134804596053,0.0,0.0,0.0,0.0,0.0,0.0,0.0,0.0,0.0,0.0,0.0,0.0,0.0,0.0,0.0,0.0,0.0,0.0,0.0,0.0,0.0,0.0,0.0,0.0,0.0,0.0,0.0,0.0861494491346
1756813070780232000,142,1756813070780232000,map,-3.64255366274,-9.20786938732,0.0,0.0,0.0,0.77304319841,0.634353382109,0.252910531124,0.014001309637,0.0,0.0,0.0,0.0,0.014001309637,0.144837649035,0.0,0.0,0.0,0.0,0.0,0.0,0.0,0.0,0.0,0.0,0.0,0.0,0.0,0.0,0.0,0.0,0.0,0.0,0.0,0.0,0.0,0.0,0.0,0.0,0.0,0.0,0.0,0.0507678740226
1756813072512768000,143,1756813072512768000,map,-3.45768728975,-10.2568859575,0.0,0.0,0.0,0.751748505739,0.659449910243,0.32317462797,0.0194818212453,0.0,0.0,0.0,0.0,0.0194818212453,0.16808843442,0.0,0.0,0.0,0.0,0.0,0.0,0.0,0.0,0.0,0.0,0.0,0.0,0.0,0.0,0.0,0.0,0.0,0.0,0.0,0.0,0.0,0.0,0.0,0.0,0.0,0.0,0.0,0.0640509763018
1756813072980273000,144,1756813072980273000,map,-3.4430006923,-10.5179931121,0.0,0.0,0.0,0.743350194278,0.668902450785,0.250458503205,0.00761161415191,0.0,0.0,0.0,0.0,0.00761161415191,0.156672490816,0.0,0.0,0.0,0.0,0.0,0.0,0.0,0.0,0.0,0.0,0.0,0.0,0.0,0.0,0.0,0.0,0.0,0.0,0.0,0.0,0.0,0.0,0.0,0.0,0.0,0.0,0.0,0.0508438406766
1756813074380750000,145,1756813074380750000,map,-3.13440261157,-11.2873674256,0.0,0.0,0.0,0.922844917485,0.38517172569,0.376756317173,0.0151872924926,0.0,0.0,0.0,0.0,0.0151872924926,0.158667612042,0.0,0.0,0.0,0.0,0.0,0.0,0.0,0.0,0.0,0.0,0.0,0.0,0.0,0.0,0.0,0.0,0.0,0.0,0.0,0.0,0.0,0.0,0.0,0.0,0.0,0.0,0.0,0.0548275134063
1756813075179824000,146,1756813075179824000,map,-2.70354417223,-11.5789486013,0.0,0.0,0.0,0.993610837607,0.112860548424,0.430135127314,0.0720167470581,0.0,0.0,0.0,0.0,0.0720167470581,0.190508146557,0.0,0.0,0.0,0.0,0.0,0.0,0.0,0.0,0.0,0.0,0.0,0.0,0.0,0.0,0.0,0.0,0.0,0.0,0.0,0.0,0.0,0.0,0.0,0.0,0.0,0.0,0.0,0.0552630790188
1756813076047251000,147,1756813076047251000,map,-2.02498255971,-11.5248128689,0.0,0.0,0.0,-0.967390962553,0.25328783147,0.613484845947,0.173687397329,0.0,0.0,0.0,0.0,0.173687397329,0.288628143283,0.0,0.0,0.0,0.0,0.0,0.0,0.0,0.0,0.0,0.0,0.0,0.0,0.0,0.0,0.0,0.0,0.0,0.0,0.0,0.0,0.0,0.0,0.0,0.0,0.0,0.0,0.0,0.0698758130862
1756813077046120000,148,1756813077046120000,map,-1.66427005797,-11.2106849994,0.0,0.0,0.0,-0.905418456458,0.424520221786,0.58851189882,0.188580067371,0.0,0.0,0.0,0.0,0.188580067371,0.35342671756,0.0,0.0,0.0,0.0,0.0,0.0,0.0,0.0,0.0,0.0,0.0,0.0,0.0,0.0,0.0,0.0,0.0,0.0,0.0,0.0,0.0,0.0,0.0,0.0,0.0,0.0,0.0,0.0801845945712
1756813077913127000,149,1756813077913127000,map,-1.27927887562,-10.7080762441,0.0,0.0,0.0,-0.79721400941,0.603696797408,0.497723264769,0.178991666017,0.0,0.0,0.0,0.0,0.178991666017,0.445749157411,0.0,0.0,0.0,0.0,0.0,0.0,0.0,0.0,0.0,0.0,0.0,0.0,0.0,0.0,0.0,0.0,0.0,0.0,0.0,0.0,0.0,0.0,0.0,0.0,0.0,0.0,0.0,0.0859118688053
1756813078580480000,150,1756813078580480000,map,-1.25134696126,-10.2513756751,0.0,0.0,0.0,-0.667044678557,0.745017715769,0.478489857905,0.167692927109,0.0,0.0,0.0,0.0,0.167692927109,0.523396148468,0.0,0.0,0.0,0.0,0.0,0.0,0.0,0.0,0.0,0.0,0.0,0.0,0.0,0.0,0.0,0.0,0.0,0.0,0.0,0.0,0.0,0.0,0.0,0.0,0.0,0.0,0.0,0.0925017218066
1756813079580910000,151,1756813079580910000,map,-1.63775921655,-9.7127351708,0.0,0.0,0.0,-0.537670607742,0.843154978382,0.397801409258,0.0732389572426,0.0,0.0,0.0,0.0,0.0732389572426,0.46248358346,0.0,0.0,0.0,0.0,0.0,0.0,0.0,0.0,0.0,0.0,0.0,0.0,0.0,0.0,0.0,0.0,0.0,0.0,0.0,0.0,0.0,0.0,0.0,0.0,0.0,0.0,0.0,0.0926814753967
1756813080580478000,152,1756813080580478000,map,-2.09696997597,-9.03917999025,0.0,0.0,0.0,-0.286205564734,0.958168239254,0.428695629664,0.0870789425636,0.0,0.0,0.0,0.0,0.0870789425636,0.496625744267,0.0,0.0,0.0,0.0,0.0,0.0,0.0,0.0,0.0,0.0,0.0,0.0,0.0,0.0,0.0,0.0,0.0,0.0,0.0,0.0,0.0,0.0,0.0,0.0,0.0,0.0,0.0,0.103326271129
1756813081246746000,153,1756813081246746000,map,-1.89417597287,-9.00531983971,0.0,0.0,0.0,-0.374784628672,0.927111903769,0.731632408728,0.103148304677,0.0,0.0,0.0,0.0,0.103148304677,0.590085068102,0.0,0.0,0.0,0.0,0.0,0.0,0.0,0.0,0.0,0.0,0.0,0.0,0.0,0.0,0.0,0.0,0.0,0.0,0.0,0.0,0.0,0.0,0.0,0.0,0.0,0.0,0.0,0.167963807627
1756813082179764000,154,1756813082179764000,map,-1.26633959998,-8.90388413692,0.0,0.0,0.0,-0.577887340737,0.816116548917,1.1260292335,0.0965997266027,0.0,0.0,0.0,0.0,0.0965997266027,0.348177266174,0.0,0.0,0.0,0.0,0.0,0.0,0.0,0.0,0.0,0.0,0.0,0.0,0.0,0.0,0.0,0.0,0.0,0.0,0.0,0.0,0.0,0.0,0.0,0.0,0.0,0.0,0.0,0.142166284245
1756813082513595000,155,1756813082513595000,map,-1.31847482913,-8.67724760355,0.0,0.0,0.0,-0.621178787208,0.783668880537,1.17245181612,0.212696822473,0.0,0.0,0.0,0.0,0.212696822473,0.2281859374,0.0,0.0,0.0,0.0,0.0,0.0,0.0,0.0,0.0,0.0,0.0,0.0,0.0,0.0,0.0,0.0,0.0,0.0,0.0,0.0,0.0,0.0,0.0,0.0,0.0,0.0,0.0,0.0597692689211
1756813083647306000,156,1756813083647306000,map,-1.45382776799,-7.95545324249,0.0,0.0,0.0,-0.654299462112,0.756235554494,1.08399603184,0.290421577007,0.0,0.0,0.0,0.0,0.290421577007,0.162772469467,0.0,0.0,0.0,0.0,0.0,0.0,0.0,0.0,0.0,0.0,0.0,0.0,0.0,0.0,0.0,0.0,0.0,0.0,0.0,0.0,0.0,0.0,0.0,0.0,0.0,0.0,0.0,0.0161554907438
1756813084449124000,157,1756813084449124000,map,-1.54542016893,-7.44598728939,0.0,0.0,0.0,-0.651842167465,0.758354658926,1.07315443246,0.318717622298,0.0,0.0,0.0,0.0,0.318717622298,0.163816945165,0.0,0.0,0.0,0.0,0.0,0.0,0.0,0.0,0.0,0.0,0.0,0.0,0.0,0.0,0.0,0.0,0.0,0.0,0.0,0.0,0.0,0.0,0.0,0.0,0.0,0.0,0.0,0.0068933565521
1756813085846942000,158,1756813085846942000,map,-1.67350652547,-6.51748163431,0.0,0.0,0.0,-0.650684909328,0.759347844385,1.06887309903,0.332834716819,0.0,0.0,0.0,0.0,0.332834716819,0.169748180478,0.0,0.0,0.0,0.0,0.0,0.0,0.0,0.0,0.0,0.0,0.0,0.0,0.0,0.0,0.0,0.0,0.0,0.0,0.0,0.0,0.0,0.0,0.0,0.0,0.0,0.0,0.0,0.00557831166376
1756813086713275000,159,1756813086713275000,map,-1.75162189432,-5.99454091745,0.0,0.0,0.0,-0.641519661059,0.767106592642,1.09670909257,0.340969420178,0.0,0.0,0.0,0.0,0.340969420178,0.172889860998,0.0,0.0,0.0,0.0,0.0,0.0,0.0,0.0,0.0,0.0,0.0,0.0,0.0,0.0,0.0,0.0,0.0,0.0,0.0,0.0,0.0,0.0,0.0,0.0,0.0,0.0,0.0,0.00386288970519
1756813087780157000,160,1756813087780157000,map,-1.84341383986,-5.32748717095,0.0,0.0,0.0,-0.638065161411,0.769982369794,1.09961608613,0.336641006287,0.0,0.0,0.0,0.0,0.336641006287,0.170688284421,0.0,0.0,0.0,0.0,0.0,0.0,0.0,0.0,0.0,0.0,0.0,0.0,0.0,0.0,0.0,0.0,0.0,0.0,0.0,0.0,0.0,0.0,0.0,0.0,0.0,0.0,0.0,0.00397792721387
1756813088780602000,161,1756813088780602000,map,-1.98439010788,-4.69255747039,0.0,0.0,0.0,-0.620160974032,0.784474579759,1.12272109792,0.334351170443,0.0,0.0,0.0,0.0,0.334351170443,0.171438588748,0.0,0.0,0.0,0.0,0.0,0.0,0.0,0.0,0.0,0.0,0.0,0.0,0.0,0.0,0.0,0.0,0.0,0.0,0.0,0.0,0.0,0.0,0.0,0.0,0.0,0.0,0.0,0.00428618325176
1756813089713954000,162,1756813089713954000,map,-2.07162877461,-4.07719669922,0.0,0.0,0.0,-0.628442736037,0.777855852663,1.09948551613,0.323546597043,0.0,0.0,0.0,0.0,0.323546597043,0.166471673944,0.0,0.0,0.0,0.0,0.0,0.0,0.0,0.0,0.0,0.0,0.0,0.0,0.0,0.0,0.0,0.0,0.0,0.0,0.0,0.0,0.0,0.0,0.0,0.0,0.0,0.0,0.0,0.0036572976265
1756813090113555000,163,1756813090113555000,map,-2.10292472681,-3.85348423187,0.0,0.0,0.0,-0.62779289897,0.778380418564,1.07413521474,0.316798169091,0.0,0.0,0.0,0.0,0.316798169091,0.173276943074,0.0,0.0,0.0,0.0,0.0,0.0,0.0,0.0,0.0,0.0,0.0,0.0,0.0,0.0,0.0,0.0,0.0,0.0,0.0,0.0,0.0,0.0,0.0,0.0,0.0,0.0,0.0,0.0110560490831
1756813091113980000,164,1756813091113980000,map,-2.21830012718,-3.23699887619,0.0,0.0,0.0,-0.627896656287,0.778296722994,1.00674486618,0.302792917744,0.0,0.0,0.0,0.0,0.302792917744,0.169361701686,0.0,0.0,0.0,0.0,0.0,0.0,0.0,0.0,0.0,0.0,0.0,0.0,0.0,0.0,0.0,0.0,0.0,0.0,0.0,0.0,0.0,0.0,0.0,0.0,0.0,0.0,0.0,0.00731126240993
1756813091846873000,165,1756813091846873000,map,-2.30812101128,-2.77081123441,0.0,0.0,0.0,-0.625863029289,0.779932989794,0.955598483986,0.289956640748,0.0,0.0,0.0,0.0,0.289956640748,0.167397429207,0.0,0.0,0.0,0.0,0.0,0.0,0.0,0.0,0.0,0.0,0.0,0.0,0.0,0.0,0.0,0.0,0.0,0.0,0.0,0.0,0.0,0.0,0.0,0.0,0.0,0.0,0.0,0.0042985971292
1756813092913948000,166,1756813092913948000,map,-2.41903157528,-2.07202642833,0.0,0.0,0.0,-0.643517949456,0.765431021535,0.915451605583,0.281219229958,0.0,0.0,0.0,0.0,0.281219229958,0.168115365756,0.0,0.0,0.0,0.0,0.0,0.0,0.0,0.0,0.0,0.0,0.0,0.0,0.0,0.0,0.0,0.0,0.0,0.0,0.0,0.0,0.0,0.0,0.0,0.0,0.0,0.0,0.0,0.00509314786117
1756813095247039000,167,1756813095247039000,map,-2.69900183583,-0.59855664941,0.0,0.0,0.0,-0.616914914769,0.787029851998,0.9257352556,0.267559682868,0.0,0.0,0.0,0.0,0.267559682868,0.196379763355,0.0,0.0,0.0,0.0,0.0,0.0,0.0,0.0,0.0,0.0,0.0,0.0,0.0,0.0,0.0,0.0,0.0,0.0,0.0,0.0,0.0,0.0,0.0,0.0,0.0,0.0,0.0,0.0495965464541
1756813096313294000,168,1756813096313294000,map,-2.71436772705,0.0710729411875,0.0,0.0,0.0,-0.650009408569,0.759926160078,0.905032330753,0.259761485345,0.0,0.0,0.0,0.0,0.259761485345,0.191071963086,0.0,0.0,0.0,0.0,0.0,0.0,0.0,0.0,0.0,0.0,0.0,0.0,0.0,0.0,0.0,0.0,0.0,0.0,0.0,0.0,0.0,0.0,0.0,0.0,0.0,0.0,0.0,0.0287951157545
1756813097180525000,169,1756813097180525000,map,-2.74540568243,0.660178393749,0.0,0.0,0.0,-0.658054967936,0.752969892608,0.856037023895,0.233776490438,0.0,0.0,0.0,0.0,0.233776490438,0.17612024729,0.0,0.0,0.0,0.0,0.0,0.0,0.0,0.0,0.0,0.0,0.0,0.0,0.0,0.0,0.0,0.0,0.0,0.0,0.0,0.0,0.0,0.0,0.0,0.0,0.0,0.0,0.0,0.0083079578863
1756813098313653000,170,1756813098313653000,map,-2.78044105601,1.30599621783,0.0,0.0,0.0,-0.671271723511,0.741211355293,0.828515987204,0.219539781929,0.0,0.0,0.0,0.0,0.219539781929,0.16940615218,0.0,0.0,0.0,0.0,0.0,0.0,0.0,0.0,0.0,0.0,0.0,0.0,0.0,0.0,0.0,0.0,0.0,0.0,0.0,0.0,0.0,0.0,0.0,0.0,0.0,0.0,0.0,0.00506921446582
1756813099647341000,171,1756813099647341000,map,-2.80232618768,2.23482978674,0.0,0.0,0.0,-0.68086638503,0.732407649972,0.835203712532,0.222117142361,0.0,0.0,0.0,0.0,0.222117142361,0.172591443289,0.0,0.0,0.0,0.0,0.0,0.0,0.0,0.0,0.0,0.0,0.0,0.0,0.0,0.0,0.0,0.0,0.0,0.0,0.0,0.0,0.0,0.0,0.0,0.0,0.0,0.0,0.0,0.00952076794568
1756813100448707000,172,1756813100448707000,map,-2.85901962756,2.70890501428,0.0,0.0,0.0,-0.639639080297,0.768675384643,0.816644108603,0.209795386301,0.0,0.0,0.0,0.0,0.209795386301,0.162285589114,0.0,0.0,0.0,0.0,0.0,0.0,0.0,0.0,0.0,0.0,0.0,0.0,0.0,0.0,0.0,0.0,0.0,0.0,0.0,0.0,0.0,0.0,0.0,0.0,0.0,0.0,0.0,0.00548748085863
1756813101246436000,173,1756813101246436000,map,-2.92022863021,3.25861402284,0.0,0.0,0.0,-0.638127133582,0.769931010796,0.818247268425,0.215549259822,0.0,0.0,0.0,0.0,0.215549259822,0.162958604551,0.0,0.0,0.0,0.0,0.0,0.0,0.0,0.0,0.0,0.0,0.0,0.0,0.0,0.0,0.0,0.0,0.0,0.0,0.0,0.0,0.0,0.0,0.0,0.0,0.0,0.0,0.0,0.00317480772246
1756813102380043000,174,1756813102380043000,map,-3.0320580654,3.97483067195,0.0,0.0,0.0,-0.641485690086,0.767135000776,0.823783921386,0.232282952395,0.0,0.0,0.0,0.0,0.232282952395,0.171336186883,0.0,0.0,0.0,0.0,0.0,0.0,0.0,0.0,0.0,0.0,0.0,0.0,0.0,0.0,0.0,0.0,0.0,0.0,0.0,0.0,0.0,0.0,0.0,0.0,0.0,0.0,0.0,0.00464359466039
1756813103313181000,175,1756813103313181000,map,-3.13778529234,4.53806798499,0.0,0.0,0.0,-0.63527639961,0.772284854247,0.847675102002,0.241064001306,0.0,0.0,0.0,0.0,0.241064001306,0.16948995739,0.0,0.0,0.0,0.0,0.0,0.0,0.0,0.0,0.0,0.0,0.0,0.0,0.0,0.0,0.0,0.0,0.0,0.0,0.0,0.0,0.0,0.0,0.0,0.0,0.0,0.0,0.0,0.00510590035738
1756813104179838000,176,1756813104179838000,map,-3.24884662741,5.11595130098,0.0,0.0,0.0,-0.627978381085,0.778230783823,0.910945138661,0.26108091253,0.0,0.0,0.0,0.0,0.26108091253,0.176014589212,0.0,0.0,0.0,0.0,0.0,0.0,0.0,0.0,0.0,0.0,0.0,0.0,0.0,0.0,0.0,0.0,0.0,0.0,0.0,0.0,0.0,0.0,0.0,0.0,0.0,0.0,0.0,0.00372258323483
1756813104846643000,177,1756813104846643000,map,-3.30596724156,5.4657271808,0.0,0.0,0.0,-0.62770042286,0.778454994936,0.963816894103,0.281101860667,0.0,0.0,0.0,0.0,0.281101860667,0.181808236165,0.0,0.0,0.0,0.0,0.0,0.0,0.0,0.0,0.0,0.0,0.0,0.0,0.0,0.0,0.0,0.0,0.0,0.0,0.0,0.0,0.0,0.0,0.0,0.0,0.0,0.0,0.0,0.00254368568198
1756813105846358000,178,1756813105846358000,map,-3.39309515951,6.07012659945,0.0,0.0,0.0,-0.638346830019,0.769748871129,1.02669548109,0.299394545954,0.0,0.0,0.0,0.0,0.299394545954,0.183632188548,0.0,0.0,0.0,0.0,0.0,0.0,0.0,0.0,0.0,0.0,0.0,0.0,0.0,0.0,0.0,0.0,0.0,0.0,0.0,0.0,0.0,0.0,0.0,0.0,0.0,0.0,0.0,0.00440906718575
1756813106512975000,179,1756813106512975000,map,-3.50315031643,6.59142825615,0.0,0.0,0.0,-0.629015167965,0.777393027027,1.03976860067,0.29487433574,0.0,0.0,0.0,0.0,0.29487433574,0.173123035607,0.0,0.0,0.0,0.0,0.0,0.0,0.0,0.0,0.0,0.0,0.0,0.0,0.0,0.0,0.0,0.0,0.0,0.0,0.0,0.0,0.0,0.0,0.0,0.0,0.0,0.0,0.0,0.0035519144761
